,USPS,ST,NAME,ZCTA5,LAT,LON
0,Drenthe,,Assen,9401,52.9938,6.5623
1,Drenthe,,Assen,9402,53.0043,6.5594
2,Drenthe,,Assen,9403,53.0145,6.5862
3,Drenthe,,Assen,9404,52.9868,6.5763
4,Drenthe,,Assen,9405,52.9863,6.5293
5,Drenthe,,Assen,9406,53.0022,6.5433
6,Drenthe,,Assen,9407,53.0177,6.5614
7,Drenthe,,Assen,9408,53.0031,6.5116
8,Drenthe,,Loon,9409,53.0131,6.6118
9,Drenthe,,Rhee,9486,53.0336,6.571
10,Drenthe,,Ter Aard,9487,53.0271,6.5446
11,Drenthe,,Zeijerveld,9488,53.0336,6.5193
12,Drenthe,,Zeijerveen,9489,53.0135,6.521
13,Drenthe,,Ubbena,9492,53.0494,6.5794
14,Drenthe,,Coevorden,7741,52.6665,6.7349
15,Drenthe,,Coevorden,7742,52.6587,6.7543
16,Drenthe,,Dalen,7751,52.6928,6.7573
17,Drenthe,,Dalerpeel,7753,52.6811,6.6613
18,Drenthe,,Wachtum,7754,52.725,6.748
19,Drenthe,,Dalerveen,7755,52.694,6.8086
20,Drenthe,,Stieltjeskanaal,7756,52.6747,6.8123
21,Drenthe,,Sleen,7841,52.7696,6.8016
22,Drenthe,,Diphoorn,7842,52.7706,6.8183
23,Drenthe,,Erm,7843,52.7484,6.8084
24,Drenthe,,Holsloot,7845,52.7225,6.8055
25,Drenthe,,Noord-Sleen,7846,52.7914,6.8021
26,Drenthe,,'t Haantje,7847,52.8143,6.8254
27,Drenthe,,Schoonoord,7848,52.8443,6.7566
28,Drenthe,,De Kiel,7849,52.8625,6.7444
29,Drenthe,,Zweeloo,7851,52.7975,6.7328
30,Drenthe,,Wezup,7852,52.8145,6.7187
31,Drenthe,,Wezuperbrug,7853,52.8406,6.7256
32,Drenthe,,Aalden,7854,52.7935,6.7139
33,Drenthe,,Meppen,7855,52.7822,6.6911
34,Drenthe,,Benneveld,7856,52.7754,6.7474
35,Drenthe,,Oosterhesselen,7861,52.7547,6.7221
36,Drenthe,,Gees,7863,52.7485,6.6893
37,Drenthe,,Zwinderen,7864,52.7235,6.6735
38,Drenthe,,Geesbrug,7917,52.7287,6.6277
39,Drenthe,,Nieuwlande Coevorden,7929,52.7003,6.6341
40,Drenthe,,Schoonebeek,7761,52.6646,6.8832
41,Drenthe,,Zandpol,7764,52.6939,6.8642
42,Drenthe,,Weiteveen,7765,52.6721,6.9897
43,Drenthe,,Nieuw-Schoonebeek,7766,52.6476,6.9892
44,Drenthe,,Emmen,7811,52.7829,6.8955
45,Drenthe,,Emmen,7812,52.7641,6.8863
46,Drenthe,,Emmen,7813,52.7565,6.8656
47,Drenthe,,Emmen,7814,52.8013,6.8984
48,Drenthe,,Emmen,7815,52.7981,6.8935
49,Drenthe,,Emmen,7821,52.7707,6.912
50,Drenthe,,Emmen,7822,52.7909,6.9045
51,Drenthe,,Emmen,7823,52.792,6.9385
52,Drenthe,,Emmen,7824,52.7808,6.9298
53,Drenthe,,Emmen,7825,52.7562,6.9349
54,Drenthe,,Emmen,7826,52.7714,6.9589
55,Drenthe,,Emmen,7827,52.7476,6.8901
56,Drenthe,,Emmen,7828,52.7329,6.9078
57,Drenthe,,Nieuw-Weerdinge,7831,52.8526,6.98
58,Drenthe,,Nieuw-Amsterdam,7833,52.7124,6.8599
59,Drenthe,,Veenoord,7844,52.711,6.8479
60,Drenthe,,Emmer-Compascuum,7881,52.8089,7.0344
61,Drenthe,,Klazienaveen,7881,52.7442,7.0086
62,Drenthe,,Barger-Compascuum,7884,52.7554,7.0441
63,Drenthe,,Nieuw-Dordrecht,7885,52.7461,6.9636
64,Drenthe,,Erica,7887,52.7117,6.925
65,Drenthe,,Klazienaveen-Noord,7889,52.7664,7.0021
66,Drenthe,,Klazienaveen,7891,52.7237,6.9883
67,Drenthe,,Klazienaveen,7892,52.7317,6.9704
68,Drenthe,,Zwartemeer,7894,52.719,7.0422
69,Drenthe,,Roswinkel,7895,52.8399,7.031
70,Drenthe,,Hoogeveen,7901,52.7262,6.4734
71,Drenthe,,Hoogeveen,7902,52.7254,6.4833
72,Drenthe,,Hoogeveen,7903,52.7333,6.5065
73,Drenthe,,Hoogeveen,7904,52.7242,6.5116
74,Drenthe,,Hoogeveen,7905,52.7168,6.5018
75,Drenthe,,Hoogeveen,7906,52.7158,6.4852
76,Drenthe,,Hoogeveen,7907,52.7165,6.472
77,Drenthe,,Hoogeveen,7908,52.716,6.4488
78,Drenthe,,Hoogeveen,7909,52.7227,6.4526
79,Drenthe,,Nieuweroord,7911,52.7208,6.5696
80,Drenthe,,Noordscheschut,7911,52.7279,6.5453
81,Drenthe,,Nieuweroord,7912,52.7292,6.5647
82,Drenthe,,Hollandscheveld,7913,52.7029,6.5407
83,Drenthe,,Hoogeveen,7913,52.7114,6.5175
84,Drenthe,,Nieuweroord,7913,52.7171,6.5717
85,Drenthe,,Noordscheschut,7914,52.7242,6.5347
86,Drenthe,,Alteveer gem Hoogeveen,7915,52.6816,6.501
87,Drenthe,,Hollandscheveld,7916,52.6711,6.5921
88,Drenthe,,Elim,7916,52.6811,6.5772
89,Drenthe,,Nieuwlande,7918,52.694,6.6126
90,Drenthe,,Fluitenberg,7931,52.7401,6.455
91,Drenthe,,Pesse,7933,52.7745,6.4562
92,Drenthe,,Stuifzand,7934,52.7518,6.5023
93,Drenthe,,Tiendeveen,7936,52.7491,6.5438
94,Drenthe,,Meppel,7941,52.6962,6.191
95,Drenthe,,Meppel,7942,52.705,6.1904
96,Drenthe,,Meppel,7943,52.6962,6.2188
97,Drenthe,,Meppel,7944,52.6848,6.1811
98,Drenthe,,Nijeveen,7948,52.734,6.1664
99,Drenthe,,Meppel,7948,52.7189,6.1836
100,Drenthe,,Rogat,7949,52.6878,6.2674
101,Drenthe,,Broekhuizen,7965,52.6974,6.2623
102,Drenthe,,De Schiphorst,7966,52.6782,6.2582
103,Drenthe,,Schoonloo,9443,52.9098,6.7084
104,Drenthe,,Grolloo,9444,52.9341,6.6717
105,Drenthe,,Vredenheim,9445,52.9463,6.6546
106,Drenthe,,Amen,9446,52.9413,6.6083
107,Drenthe,,Papenvoort,9447,52.946,6.7134
108,Drenthe,,Marwijksoord,9448,52.9643,6.6561
109,Drenthe,,Nooitgedacht,9449,52.967,6.6717
110,Drenthe,,Rolde,9451,52.983,6.6518
111,Drenthe,,Nijlande,9452,52.9738,6.6245
112,Drenthe,,Eldersloo,9453,52.9643,6.6155
113,Drenthe,,Ekehaar,9454,52.9528,6.6014
114,Drenthe,,Geelbroek,9455,52.9512,6.572
115,Drenthe,,Eleveld,9456,52.9577,6.5829
116,Drenthe,,Deurze,9457,52.9829,6.6094
117,Drenthe,,Balloo,9458,52.9949,6.6307
118,Drenthe,,Balloërveld,9459,53.0231,6.636
119,Drenthe,,Gieten,9461,53.0026,6.7666
120,Drenthe,,Gasselte,9462,52.975,6.7894
121,Drenthe,,Eext,9463,53.0201,6.7366
122,Drenthe,,Eexterzandvoort,9464,53.0343,6.7846
123,Drenthe,,Anderen,9465,52.9999,6.6859
124,Drenthe,,Gasteren,9466,53.0364,6.6642
125,Drenthe,,Anloo,9467,53.0473,6.704
126,Drenthe,,Annen,9468,53.0575,6.7197
127,Drenthe,,Schipborg,9469,53.0732,6.6715
128,Drenthe,,Gieterveen,9511,53.0251,6.838
129,Drenthe,,Nieuwediep,9512,53.0488,6.8443
130,Drenthe,,Gasselternijveen,9514,52.9872,6.8505
131,Drenthe,,Gasselternijveenschemond,9515,52.9972,6.9069
132,Drenthe,,Gasselternijveen,9515,52.9872,6.8719
133,Drenthe,,Annerveenschekanaal,9654,53.0788,6.8002
134,Drenthe,,Oud Annerveen,9655,53.087,6.7634
135,Drenthe,,Spijkerboor,9656,53.0774,6.7658
136,Drenthe,,Nieuw Annerveen,9657,53.0701,6.7736
137,Drenthe,,Eexterveen,9658,53.0522,6.8035
138,Drenthe,,Eexterveenschekanaal,9659,53.0582,6.8328
139,Drenthe,,Eeserveen,7858,52.8733,6.7692
140,Drenthe,,Eeserveen,7859,52.8697,6.7749
141,Drenthe,,Klijndijk,7871,52.8319,6.858
142,Drenthe,,Valthe,7872,52.8454,6.8923
143,Drenthe,,Odoorn,7873,52.8495,6.8512
144,Drenthe,,Odoornerveen,7874,52.842,6.7945
145,Drenthe,,Exloo,7875,52.8771,6.8678
146,Drenthe,,Valthermond,7876,52.8813,6.9603
147,Drenthe,,2e Valthermond,7877,52.8884,7.0167
148,Drenthe,,Nieuw-Buinen,9521,52.9644,6.9433
149,Drenthe,,Drouwenermond,9523,52.9809,6.9114
150,Drenthe,,Buinerveen,9524,52.9351,6.8808
151,Drenthe,,Drouwenerveen,9525,52.967,6.8562
152,Drenthe,,Bronnegerveen,9526,52.956,6.834
153,Drenthe,,Bronneger,9527,52.9476,6.8177
154,Drenthe,,Buinen,9528,52.9317,6.8359
155,Drenthe,,Borger,9531,52.923,6.7917
156,Drenthe,,Drouwen,9533,52.9539,6.7908
157,Drenthe,,Westdorp,9534,52.9061,6.7618
158,Drenthe,,Ellertshaar,9535,52.8948,6.7378
159,Drenthe,,Ees,9536,52.9083,6.8136
160,Drenthe,,Eesergroen,9537,52.8905,6.783
161,Drenthe,,Zandberg,9564,52.9179,7.0291
162,Drenthe,,2e Exloërmond,9571,52.9073,6.9353
163,Drenthe,,1e Exloërmond,9573,52.9339,6.9487
164,Drenthe,,Exloërveen,9574,52.9027,6.9013
165,Drenthe,,Drogteropslagen,7705,52.622,6.499
166,Drenthe,,Zuidwolde,7921,52.6706,6.4268
167,Drenthe,,Veeningen,7924,52.6636,6.3759
168,Drenthe,,Linde,7925,52.6356,6.4634
169,Drenthe,,Kerkenveld,7926,52.666,6.5004
170,Drenthe,,Alteveer,7927,52.6776,6.4848
171,Drenthe,,Echten,7932,52.7074,6.3841
172,Drenthe,,Eursinge,7935,52.7773,6.4411
173,Drenthe,,de Wijk,7957,52.673,6.2923
174,Drenthe,,Koekange,7958,52.7034,6.3243
175,Drenthe,,Ruinerwold,7961,52.7256,6.2585
176,Drenthe,,Ruinen,7963,52.7615,6.3612
177,Drenthe,,Ansen,7964,52.7829,6.3332
178,Drenthe,,Roden,9301,53.138,6.4224
179,Drenthe,,Roden,9302,53.1331,6.4036
180,Drenthe,,Lieveren,9304,53.1147,6.4581
181,Drenthe,,Roderesch,9305,53.1143,6.4213
182,Drenthe,,Alteveer,9306,53.1124,6.4316
183,Drenthe,,Steenbergen,9307,53.1,6.403
184,Drenthe,,Nieuw-Roden,9311,53.1304,6.395
185,Drenthe,,Nietap,9312,53.1584,6.3974
186,Drenthe,,Leutingewolde,9313,53.1545,6.428
187,Drenthe,,Foxwolde,9314,53.156,6.4532
188,Drenthe,,Roderwolde,9315,53.1698,6.4689
189,Drenthe,,Peize,9321,53.1459,6.4965
190,Drenthe,,Norg,9331,53.0691,6.457
191,Drenthe,,Langelo,9333,53.093,6.444
192,Drenthe,,Peest,9334,53.0587,6.4973
193,Drenthe,,Zuidvelde,9335,53.0395,6.4612
194,Drenthe,,Huis ter Heide,9336,53.017,6.4797
195,Drenthe,,Westervelde,9337,53.054,6.4395
196,Drenthe,,Veenhuizen,9341,53.0341,6.3983
197,Drenthe,,Een,9342,53.0853,6.3811
198,Drenthe,,Een-West,9343,53.0829,6.3341
199,Drenthe,,Nietap,9351,53.1542,6.3845
200,Drenthe,,Nieuw-Roden,9354,53.1165,6.3653
201,Drenthe,,Matsloot,9749,53.1938,6.4505
202,Drenthe,,Pesse,7933,52.7883,6.4353
203,Drenthe,,Ruinen,7963,52.7831,6.3641
204,Drenthe,,Ansen,7964,52.789,6.3564
205,Drenthe,,Havelte,7971,52.7741,6.2372
206,Drenthe,,Darp,7973,52.7746,6.205
207,Drenthe,,Havelterberg,7974,52.7747,6.1841
208,Drenthe,,Uffelte,7975,52.7901,6.2811
209,Drenthe,,Diever,7981,52.8571,6.3191
210,Drenthe,,Wapse,7983,52.8581,6.264
211,Drenthe,,Dieverbrug,7984,52.8473,6.3374
212,Drenthe,,Geeuwenbrug,7985,52.8737,6.3669
213,Drenthe,,Wittelte,7986,52.8305,6.297
214,Drenthe,,Dwingeloo,7991,52.8372,6.3745
215,Drenthe,,Wapserveen,8351,52.8237,6.2205
216,Drenthe,,Vledder,8381,52.8556,6.2076
217,Drenthe,,Frederiksoord,8382,52.8454,6.1835
218,Drenthe,,Nijensleek,8383,52.8388,6.165
219,Drenthe,,Wilhelminaoord,8384,52.8573,6.1619
220,Drenthe,,Vledderveen,8385,52.8755,6.1872
221,Drenthe,,Doldersum,8386,52.8883,6.2526
222,Drenthe,,Boschoord,8387,52.8923,6.2195
223,Drenthe,,Zorgvlied,8437,52.9208,6.2537
224,Drenthe,,Wateren,8438,52.9164,6.2726
225,Drenthe,,Oude Willem,8439,52.8932,6.3112
226,Drenthe,,Spier,9417,52.8178,6.4592
227,Drenthe,,Hoogersmilde,9423,52.9098,6.3685
228,Drenthe,,Zuidlaren,9471,53.092,6.6749
229,Drenthe,,Zuidlaren,9472,53.0776,6.6959
230,Drenthe,,De Groeve,9473,53.1141,6.7164
231,Drenthe,,Zuidlaarderveen,9474,53.1022,6.7501
232,Drenthe,,Midlaren,9475,53.1125,6.6775
233,Drenthe,,Vries,9481,53.0726,6.5768
234,Drenthe,,Tynaarlo,9482,53.0796,6.6154
235,Drenthe,,Zeegse,9483,53.0688,6.6508
236,Drenthe,,Oudemolen,9484,53.0511,6.6388
237,Drenthe,,Taarlo,9485,53.0337,6.6221
238,Drenthe,,Zeijen,9491,53.0474,6.5448
239,Drenthe,,De Punt,9493,53.112,6.6049
240,Drenthe,,Yde,9494,53.1147,6.5903
241,Drenthe,,Winde,9495,53.1273,6.5243
242,Drenthe,,Bunne,9496,53.1139,6.5253
243,Drenthe,,Donderen,9497,53.0952,6.5444
244,Drenthe,,Eelde,9761,53.1367,6.5633
245,Drenthe,,Paterswolde,9765,53.1482,6.5623
246,Drenthe,,Eelderwolde,9766,53.1798,6.538
247,Drenthe,,Nieuweroord,7910,52.7479,6.585
248,Drenthe,,Stuifzand,7928,52.7718,6.4955
249,Drenthe,,Tiendeveen,7937,52.7672,6.5239
250,Drenthe,,Nieuw-Balinge,7938,52.7672,6.6041
251,Drenthe,,Beilen,9411,52.8607,6.5115
252,Drenthe,,Beilen,9412,52.8711,6.5203
253,Drenthe,,Beilen,9413,52.8486,6.5105
254,Drenthe,,Hooghalen,9414,52.9214,6.5411
255,Drenthe,,Hijken,9415,52.8956,6.4907
256,Drenthe,,Oranje,9416,52.91,6.4476
257,Drenthe,,Spier,9417,52.8174,6.4778
258,Drenthe,,Wijster,9418,52.8143,6.5176
259,Drenthe,,Drijber,9419,52.788,6.5553
260,Drenthe,,Bovensmilde,9421,52.9775,6.4799
261,Drenthe,,Smilde,9422,52.9474,6.4479
262,Drenthe,,Hoogersmilde,9423,52.9057,6.391
263,Drenthe,,Westerbork,9431,52.8541,6.6077
264,Drenthe,,Zuidveld,9432,52.8659,6.6359
265,Drenthe,,Zwiggelte,9433,52.8823,6.5941
266,Drenthe,,Eursinge,9434,52.8365,6.6054
267,Drenthe,,Bruntinge,9435,52.819,6.5841
268,Drenthe,,Mantinge,9436,52.7985,6.6125
269,Drenthe,,Balinge,9437,52.8108,6.6286
270,Drenthe,,Garminge,9438,52.8203,6.6237
271,Drenthe,,Witteveen,9439,52.8233,6.6602
272,Drenthe,,Orvelte,9441,52.8473,6.6721
273,Drenthe,,Elp,9442,52.882,6.6435
274,Friesland,,Surhuisterveen,9231,53.1809,6.1686
275,Friesland,,Boelenslaan,9233,53.1607,6.1396
276,Friesland,,Harkema,9281,53.1856,6.1347
277,Friesland,,Surhuizum,9283,53.205,6.1833
278,Friesland,,Augustinusga,9284,53.2167,6.1611
279,Friesland,,Buitenpost,9285,53.2503,6.1461
280,Friesland,,Twijzel,9286,53.2357,6.0926
281,Friesland,,Twijzelerheide,9287,53.2406,6.0487
282,Friesland,,Kootstertille,9288,53.2157,6.0948
283,Friesland,,Drogeham,9289,53.201,6.1144
284,Friesland,,Stroobos,9871,53.2388,6.2154
285,Friesland,,Stroobos,9872,53.2356,6.211
286,Friesland,,Gerkesklooster,9873,53.2407,6.206
287,Friesland,,Hollum,9161,53.4436,5.6387
288,Friesland,,Ballum,9162,53.4462,5.6917
289,Friesland,,Nes,9163,53.4479,5.7734
290,Friesland,,Buren,9164,53.4522,5.8009
291,Friesland,,Wijnaldum,8857,53.1964,5.4591
292,Friesland,,Harlingen,8861,53.1751,5.4264
293,Friesland,,Harlingen,8862,53.1655,5.4355
294,Friesland,,Midlum,8871,53.1833,5.4674
295,Friesland,,Midlum,8872,53.1825,5.4459
296,Friesland,,Jubbega,8411,52.9951,6.1218
297,Friesland,,Hoornsterzwaag,8412,53.0038,6.163
298,Friesland,,Oudehorne,8413,52.9629,6.0823
299,Friesland,,Nieuwehorne,8414,52.9507,6.0602
300,Friesland,,Bontebok,8415,52.9615,6.0339
301,Friesland,,Heerenveen,8441,52.9652,5.9175
302,Friesland,,Heerenveen,8442,52.9559,5.9281
303,Friesland,,Heerenveen,8443,52.944,5.9407
304,Friesland,,Heerenveen,8444,52.9366,5.949
305,Friesland,,Heerenveen,8445,52.9385,5.9322
306,Friesland,,Heerenveen,8446,52.9515,5.9158
307,Friesland,,Heerenveen,8447,52.9626,5.904
308,Friesland,,Heerenveen,8448,52.9609,5.9483
309,Friesland,,Terband,8449,52.9897,5.9114
310,Friesland,,Oudeschoot,8451,52.9354,5.9564
311,Friesland,,Nieuweschoot,8452,52.9323,5.928
312,Friesland,,Oranjewoud,8453,52.9483,5.9545
313,Friesland,,Mildam,8454,52.9374,5.9992
314,Friesland,,Katlijk,8455,52.946,6.0194
315,Friesland,,De Knipe,8456,52.9678,5.9774
316,Friesland,,Gersloot,8457,53.017,5.9641
317,Friesland,,Tjalleberd,8458,52.9986,5.9453
318,Friesland,,Luinjeberd,8459,52.994,5.9245
319,Friesland,,Haskerdijken,8468,52.998,5.877
320,Friesland,,Nieuwebrug,8469,52.9904,5.8845
321,Friesland,,Akkrum,8491,53.0503,5.8377
322,Friesland,,Nes,8494,53.0584,5.8496
323,Friesland,,Aldeboarn,8495,53.0492,5.8945
324,Friesland,,Akkrum,8941,53.0431,5.8419
325,Friesland,,Húns,8832,53.1607,5.6668
326,Friesland,,Leons,8833,53.1517,5.6793
327,Friesland,,Baard,8834,53.1423,5.6692
328,Friesland,,Easterlittens,8835,53.1352,5.6503
329,Friesland,,Leeuwarden,8911,53.2015,5.7967
330,Friesland,,Leeuwarden,8912,53.1922,5.769
331,Friesland,,Leeuwarden,8913,53.2015,5.7813
332,Friesland,,Leeuwarden,8914,53.2034,5.7706
333,Friesland,,Leeuwarden,8915,53.2094,5.7701
334,Friesland,,Leeuwarden,8916,53.2073,5.7817
335,Friesland,,Leeuwarden,8917,53.2085,5.7917
336,Friesland,,Leeuwarden,8918,53.2156,5.7939
337,Friesland,,Leeuwarden,8919,53.2195,5.7808
338,Friesland,,Leeuwarden,8921,53.2046,5.8105
339,Friesland,,Leeuwarden,8922,53.2099,5.8039
340,Friesland,,Leeuwarden,8923,53.2154,5.8131
341,Friesland,,Leeuwarden,8924,53.2082,5.8206
342,Friesland,,Leeuwarden,8925,53.2077,5.8429
343,Friesland,,Leeuwarden,8926,53.2138,5.8418
344,Friesland,,Leeuwarden,8927,53.2196,5.8307
345,Friesland,,Leeuwarden,8931,53.1867,5.7861
346,Friesland,,Leeuwarden,8932,53.1921,5.7921
347,Friesland,,Leeuwarden,8933,53.1978,5.8091
348,Friesland,,Leeuwarden,8934,53.192,5.8074
349,Friesland,,Leeuwarden,8935,53.1873,5.8164
350,Friesland,,Leeuwarden,8936,53.1929,5.8211
351,Friesland,,Leeuwarden,8937,53.1963,5.8198
352,Friesland,,Leeuwarden,8938,53.1986,5.8484
353,Friesland,,Leeuwarden,8939,53.1818,5.8376
354,Friesland,,Leeuwarden,8941,53.1693,5.8048
355,Friesland,,Grou,9001,53.0931,5.8372
356,Friesland,,Warten,9003,53.1468,5.9002
357,Friesland,,Warstiens,9004,53.1622,5.8649
358,Friesland,,Wergea,9005,53.1501,5.845
359,Friesland,,Eagum,9006,53.1302,5.8273
360,Friesland,,Idaerd,9007,53.1197,5.8121
361,Friesland,,Reduzum,9008,53.1174,5.7851
362,Friesland,,Friens,9009,53.0973,5.7982
363,Friesland,,Jirnsum,9011,53.0782,5.7927
364,Friesland,,Mantgum,9022,53.1299,5.7188
365,Friesland,,Jorwert,9023,53.1451,5.712
366,Friesland,,Weidum,9024,53.1466,5.7434
367,Friesland,,Bears,9025,53.1576,5.7382
368,Friesland,,Jellum,9026,53.1654,5.7412
369,Friesland,,Hilaard,9027,53.1662,5.7065
370,Friesland,,Stiens,9051,53.2611,5.765
371,Friesland,,Feinsum,9053,53.2794,5.7566
372,Friesland,,Hijum,9054,53.2906,5.7661
373,Friesland,,Britsum,9055,53.2524,5.785
374,Friesland,,Koarnjum,9056,53.2438,5.7792
375,Friesland,,Jelsum,9057,53.2332,5.7847
376,Friesland,,Alde Leie,9071,53.2883,5.7282
377,Friesland,,Lekkum,9081,53.2251,5.82
378,Friesland,,Miedum,9082,53.2356,5.8316
379,Friesland,,Snakkerburen,9083,53.2203,5.8096
380,Friesland,,Goutum,9084,53.1785,5.8044
381,Friesland,,Teerns,9085,53.1803,5.8342
382,Friesland,,Hempens,9086,53.1777,5.839
383,Friesland,,Swichum,9087,53.1531,5.8212
384,Friesland,,Wirdum,9088,53.1495,5.8034
385,Friesland,,Wytgaard,9089,53.1398,5.7824
386,Friesland,,Oldeberkoop,8421,52.9383,6.1306
387,Friesland,,Nijeberkoop,8422,52.9602,6.183
388,Friesland,,Makkinga,8423,52.9783,6.2211
389,Friesland,,Elsloo,8424,52.9423,6.2396
390,Friesland,,Langedijke,8425,52.9643,6.285
391,Friesland,,Appelscha,8426,52.9518,6.3513
392,Friesland,,Ravenswoud,8427,52.9658,6.3804
393,Friesland,,Fochteloo,8428,52.9888,6.3406
394,Friesland,,Oosterwolde,8431,52.9907,6.2921
395,Friesland,,Haule,8432,53.0386,6.3083
396,Friesland,,Haulerwijk,8433,53.0653,6.3343
397,Friesland,,Waskemeer,8434,53.0551,6.2802
398,Friesland,,Donkerbroek,8435,53.0194,6.2374
399,Friesland,,Oosterwolde,9431,52.9851,6.2986
400,Friesland,,Gorredijk,8401,53.0046,6.0682
401,Friesland,,Jonkerslân,8403,52.9778,6.039
402,Friesland,,Langezwaag,8404,52.9851,6.007
403,Friesland,,Luxwoude,8405,52.9956,5.9813
404,Friesland,,Tijnje,8406,53.0328,5.9879
405,Friesland,,Terwispel,8407,53.02,6.0438
406,Friesland,,Lippenhuizen,8408,53.0172,6.0955
407,Friesland,,Hemrik,8409,53.0332,6.1402
408,Friesland,,Drachten-Azeven,9207,53.0989,6.1332
409,Friesland,,Wijnjewoude,9241,53.0535,6.2018
410,Friesland,,Bakkeveen,9243,53.0803,6.2623
411,Friesland,,Beetsterzwaag,9244,53.0605,6.0783
412,Friesland,,Nij Beets,9245,53.0679,5.9998
413,Friesland,,Olterterp,9246,53.0679,6.1062
414,Friesland,,Ureterp,9247,53.0956,6.1687
415,Friesland,,Siegerswoude,9248,53.1017,6.2434
416,Friesland,,Frieschepalen,9249,53.1081,6.2058
417,Friesland,,Beetsterzwaag,9422,53.0638,6.0807
418,Friesland,,Schiermonnikoog,9166,53.4806,6.1623
419,Friesland,,Goëngahuizen,8497,53.0875,5.9
420,Friesland,,Drachten,9201,53.1138,6.0948
421,Friesland,,Drachten,9202,53.1087,6.1162
422,Friesland,,Drachten,9203,53.1022,6.0983
423,Friesland,,Drachten,9204,53.0984,6.0706
424,Friesland,,Drachten,9205,53.093,6.0577
425,Friesland,,Drachten,9206,53.1139,6.0693
426,Friesland,,Drachten,9207,53.1214,6.0919
427,Friesland,,Kortehemmen,9211,53.0826,6.0674
428,Friesland,,Boornbergum,9212,53.0856,6.044
429,Friesland,,De Wilgen,9213,53.1007,6.0336
430,Friesland,,Smalle Ee,9214,53.1032,6.0142
431,Friesland,,De Veenhoop,9215,53.0931,5.9583
432,Friesland,,Oudega,9216,53.1239,5.9909
433,Friesland,,Nijega,9217,53.1371,6.0285
434,Friesland,,Opeinde,9218,53.1328,6.0587
435,Friesland,,De Tike,9219,53.1512,6.0345
436,Friesland,,Rottevalle,9221,53.1453,6.1034
437,Friesland,,Drachtstercompagnie,9222,53.1337,6.1455
438,Friesland,,Houtigehage,9223,53.1517,6.1426
439,Friesland,,West-Terschelling,8881,53.3665,5.2214
440,Friesland,,Hee,8882,53.3776,5.255
441,Friesland,,Kaard,8883,53.3768,5.2692
442,Friesland,,Baaiduinen,8884,53.3779,5.2756
443,Friesland,,Kinnum,8885,53.375,5.2751
444,Friesland,,Midsland,8891,53.3884,5.2857
445,Friesland,,Striep,8892,53.3779,5.2926
446,Friesland,,Landerum,8893,53.3865,5.299
447,Friesland,,Formerum,8894,53.3914,5.3081
448,Friesland,,Lies,8895,53.3948,5.327
449,Friesland,,Hoorn,8896,53.3972,5.3425
450,Friesland,,Oosterend,8897,53.4042,5.3772
451,Friesland,,Vlieland,8899,53.2985,5.0665
452,Friesland,,Oosterstreek,8388,52.8962,6.1664
453,Friesland,,Zandhuizen,8389,52.9115,6.1506
454,Friesland,,Noordwolde,8391,52.8877,6.1431
455,Friesland,,Boijl,8392,52.9104,6.2014
456,Friesland,,Vinkega,8393,52.8716,6.1209
457,Friesland,,De Hoeve,8394,52.8891,6.0921
458,Friesland,,Steggerda,8395,52.8556,6.0778
459,Friesland,,Peperga,8396,52.8474,6.0526
460,Friesland,,De Blesse,8397,52.8427,6.043
461,Friesland,,Blesdijke,8398,52.8308,6.0173
462,Friesland,,Wolvega,8471,52.8739,5.9977
463,Friesland,,Wolvega,8472,52.8799,6.0112
464,Friesland,,Oldeholtpade,8474,52.8924,6.0471
465,Friesland,,Nijeholtpade,8475,52.9142,6.0801
466,Friesland,,Ter Idzard,8476,52.9051,6.0325
467,Friesland,,Oldeholtwolde,8477,52.912,5.9931
468,Friesland,,Sonnega,8478,52.8684,5.9725
469,Friesland,,Oldetrijne,8479,52.8593,5.9483
470,Friesland,,Nijetrijne,8481,52.841,5.9114
471,Friesland,,Spanga,8482,52.8185,5.876
472,Friesland,,Scherpenzeel,8483,52.8304,5.872
473,Friesland,,Langelille,8484,52.8467,5.8444
474,Friesland,,Munnekeburen,8485,52.8477,5.8818
475,Friesland,,Oldelamer,8486,52.8719,5.9221
476,Friesland,,Nijelamer,8487,52.8903,5.9564
477,Friesland,,Nijeholtwolde,8488,52.8981,5.9877
478,Friesland,,Slijkenburg,8489,52.8063,5.8444
479,Friesland,,Gytsjerk,9061,53.2413,5.8903
480,Friesland,,Oentsjerk,9062,53.2513,5.8997
481,Friesland,,Mûnein,9063,53.2522,5.9175
482,Friesland,,Aldtsjerk,9064,53.2645,5.8894
483,Friesland,,Wyns,9091,53.264,5.8391
484,Friesland,,Burgum,9251,53.1944,5.9929
485,Friesland,,Hurdegaryp,9254,53.2152,5.9425
486,Friesland,,Tytsjerk,9255,53.2104,5.9118
487,Friesland,,Ryptsjerk,9256,53.2253,5.914
488,Friesland,,Noardburgum,9257,53.2232,6.004
489,Friesland,,Jistrum,9258,53.2125,6.0645
490,Friesland,,Eastermar,9261,53.1785,6.0667
491,Friesland,,Sumar,9262,53.1757,6.0062
492,Friesland,,Garyp,9263,53.165,5.971
493,Friesland,,Earnewâld,9264,53.1306,5.9459
494,Friesland,,Suwâld,9265,53.1794,5.9244
495,Friesland,,Readtsjerk,9067,53.2621,5.9152
496,Friesland,,Damwâld,9104,53.2894,5.9954
497,Friesland,,Rinsumageast,9105,53.296,5.9471
498,Friesland,,Sibrandahûs,9106,53.3147,5.9507
499,Friesland,,Broeksterwâld,9108,53.2729,5.9938
500,Friesland,,De Falom,9109,53.2651,6.0063
501,Friesland,,Wâlterswâld,9113,53.2947,6.0291
502,Friesland,,Driezum,9114,53.2973,6.0478
503,Friesland,,Feanwâlden,9269,53.2391,5.9902
504,Friesland,,De Westereen,9271,53.2554,6.0354
505,Friesland,,Koufurderrige,8529,52.9505,5.6579
506,Friesland,,Woudsend,8551,52.9424,5.6294
507,Friesland,,Smallebrugge,8552,52.9603,5.6345
508,Friesland,,Indijk,8553,52.9482,5.6211
509,Friesland,,Ypecolsga,8554,52.9354,5.6107
510,Friesland,,Hemelum,8584,52.881,5.4593
511,Friesland,,Sneek,8601,53.0323,5.6513
512,Friesland,,Sneek,8602,53.0415,5.6568
513,Friesland,,Sneek,8603,53.0407,5.6668
514,Friesland,,Sneek,8604,53.0368,5.6815
515,Friesland,,Sneek,8605,53.0333,5.672
516,Friesland,,Sneek,8606,53.0279,5.6706
517,Friesland,,Sneek,8607,53.0205,5.6626
518,Friesland,,Sneek,8608,53.0235,5.6494
519,Friesland,,Gaastmeer,8611,52.966,5.5398
520,Friesland,,Idzega,8612,52.9797,5.5543
521,Friesland,,Sandfirden,8613,52.9882,5.5188
522,Friesland,,Oudega,8614,52.9923,5.5505
523,Friesland,,Blauwhuis,8615,53.0228,5.532
524,Friesland,,Westhem,8616,53.0161,5.5477
525,Friesland,,Abbega,8617,53.02,5.572
526,Friesland,,Oosthem,8618,53.0147,5.6012
527,Friesland,,Indijk,8621,52.9628,5.62
528,Friesland,,Heeg,8621,52.9705,5.61
529,Friesland,,Hommerts,8622,52.979,5.6498
530,Friesland,,Jutrijp,8623,52.9959,5.6488
531,Friesland,,Uitwellingerga,8624,53.0024,5.7078
532,Friesland,,Oppenhuizen,8625,53.0116,5.696
533,Friesland,,Offingawier,8626,53.0299,5.7199
534,Friesland,,Gauw,8627,53.0584,5.7141
535,Friesland,,Goënga,8628,53.0542,5.6953
536,Friesland,,Scharnegoutum,8629,53.0617,5.6781
537,Friesland,,Loënga,8631,53.0519,5.6685
538,Friesland,,Tirns,8632,53.0595,5.6266
539,Friesland,,Ysbrechtum,8633,53.0421,5.6324
540,Friesland,,Boazum,8635,53.089,5.6961
541,Friesland,,Britswert,8636,53.1132,5.6741
542,Friesland,,Wiuwert,8637,53.1085,5.6919
543,Friesland,,Rien,8641,53.0954,5.6579
544,Friesland,,Lytsewierrum,8642,53.0839,5.6644
545,Friesland,,Dearsum,8644,53.0868,5.7166
546,Friesland,,Sibrandabuorren,8647,53.0671,5.7204
547,Friesland,,IJlst,8651,53.0106,5.6219
548,Friesland,,Greonterp,8658,53.0143,5.5185
549,Friesland,,Bolsward,8701,53.064,5.524
550,Friesland,,Bolsward,8702,53.0692,5.5362
551,Friesland,,Ferwoude,8711,52.9882,5.43
552,Friesland,,Workum,8711,52.9767,5.4445
553,Friesland,,Hindeloopen,8713,52.9413,5.4029
554,Friesland,,Stavoren,8715,52.8829,5.3641
555,Friesland,,Warns,8721,52.8771,5.4076
556,Friesland,,Molkwerum,8722,52.8987,5.4038
557,Friesland,,Koudum,8723,52.9141,5.45
558,Friesland,,It Heidenskip,8724,52.9523,5.4921
559,Friesland,,Wommels,8731,53.1082,5.5886
560,Friesland,,Kûbaard,8732,53.1199,5.5699
561,Friesland,,Iens,8733,53.1259,5.6134
562,Friesland,,Easterein,8734,53.0973,5.6187
563,Friesland,,Itens,8735,53.1009,5.6449
564,Friesland,,Reahûs,8736,53.0767,5.6355
565,Friesland,,Hidaard,8737,53.0777,5.6028
566,Friesland,,Hartwerd,8741,53.0697,5.5701
567,Friesland,,Burgwerd,8742,53.0883,5.5436
568,Friesland,,Hichtum,8743,53.0821,5.524
569,Friesland,,Schettens,8744,53.0816,5.4825
570,Friesland,,Longerhouw,8745,53.0701,5.4782
571,Friesland,,Schraard,8746,53.0802,5.4522
572,Friesland,,Wons,8747,53.0839,5.4228
573,Friesland,,Witmarsum,8748,53.1016,5.4687
574,Friesland,,Pingjum,8749,53.116,5.438
575,Friesland,,Pingjum,8751,53.1266,5.4077
576,Friesland,,Zurich,8751,53.111,5.3942
577,Friesland,,Kornwerderzand,8752,53.0726,5.337
578,Friesland,,Cornwerd,8753,53.0833,5.3912
579,Friesland,,Makkum,8754,53.0557,5.4005
580,Friesland,,Idsegahuizum,8755,53.0442,5.4189
581,Friesland,,Piaam,8756,53.0366,5.41
582,Friesland,,Gaast,8757,53.0177,5.4141
583,Friesland,,Allingawier,8758,53.0436,5.4471
584,Friesland,,Exmorra,8759,53.0561,5.4635
585,Friesland,,Ferwoude,8761,53.0051,5.4335
586,Friesland,,Hieslum,8762,53.0059,5.4892
587,Friesland,,Parrega,8763,53.0157,5.4765
588,Friesland,,Dedgum,8764,53.0231,5.4921
589,Friesland,,Tjerkwerd,8765,53.0412,5.5023
590,Friesland,,Breezanddijk,8766,53.0193,5.2073
591,Friesland,,Nijland,8771,53.0511,5.5769
592,Friesland,,Tjalhuizum,8772,53.048,5.6097
593,Friesland,,Folsgare,8773,53.037,5.6045
594,Friesland,,Wolsum,8774,53.0383,5.5491
595,Friesland,,Nijhuizum,8775,52.9822,5.4867
596,Friesland,,Kimswerd,8821,53.1409,5.4356
597,Friesland,,Arum,8822,53.1292,5.4777
598,Friesland,,Lollum,8823,53.1262,5.5307
599,Friesland,,Hinnaard,8844,53.1159,5.6327
600,Friesland,,Waaksens,8845,53.1095,5.5383
601,Friesland,,Raerd,9012,53.0982,5.7588
602,Friesland,,Poppenwier,9013,53.0833,5.7482
603,Friesland,,Tersoal,9014,53.074,5.7381
604,Friesland,,Easterwierrum,9021,53.1105,5.7321
605,Friesland,,Rottum,8461,52.9357,5.8952
606,Friesland,,Rotstergaast,8462,52.9113,5.9085
607,Friesland,,Rotsterhaule,8463,52.9267,5.8492
608,Friesland,,Sintjohannesga,8464,52.9322,5.8598
609,Friesland,,Oudehaske,8465,52.956,5.8724
610,Friesland,,Nijehaske,8466,52.9605,5.8963
611,Friesland,,Vegelinsoord,8467,53.0008,5.8569
612,Friesland,,Terherne,8493,53.0403,5.7802
613,Friesland,,Joure,8501,52.9646,5.8005
614,Friesland,,Joure,8502,52.9715,5.8127
615,Friesland,,Joure,8503,52.9604,5.7769
616,Friesland,,Snikzwaag,8505,52.9865,5.7882
617,Friesland,,Haskerhorne,8506,52.9533,5.8294
618,Friesland,,Rohel,8507,52.9224,5.8256
619,Friesland,,Delfstrahuizen,8508,52.8765,5.8301
620,Friesland,,Goingarijp,8511,53.0118,5.7723
621,Friesland,,Broek,8512,52.9814,5.7736
622,Friesland,,Ouwsterhaule,8513,52.9376,5.8146
623,Friesland,,Ouwster-Nijega,8514,52.9298,5.8086
624,Friesland,,Oldeouwer,8515,52.9205,5.8008
625,Friesland,,Doniaga,8516,52.9027,5.746
626,Friesland,,Scharsterbrug,8517,52.9444,5.7809
627,Friesland,,Sint Nicolaasga,8521,52.9252,5.7425
628,Friesland,,Tjerkgaast,8522,52.9069,5.6804
629,Friesland,,Idskenhuizen,8523,52.9288,5.7124
630,Friesland,,Teroele,8524,52.9368,5.6945
631,Friesland,,Langweer,8525,52.9589,5.7219
632,Friesland,,Boornzwaag,8526,52.9621,5.7413
633,Friesland,,Legemeer,8527,52.9379,5.7276
634,Friesland,,Dijken,8528,52.9547,5.7087
635,Friesland,,Lemmer,8531,52.8487,5.7043
636,Friesland,,Lemmer,8532,52.8563,5.7016
637,Friesland,,Eesterga,8534,52.8656,5.727
638,Friesland,,Follega,8535,52.8849,5.7363
639,Friesland,,Oosterzee,8536,52.8723,5.7695
640,Friesland,,Echten,8537,52.8708,5.7974
641,Friesland,,Bantega,8538,52.8412,5.7961
642,Friesland,,Echtenerbrug,8539,52.8711,5.8193
643,Friesland,,Akmarijp,8541,53.002,5.7892
644,Friesland,,Terkaple,8542,53.0128,5.7861
645,Friesland,,Sloten,8556,52.8949,5.6477
646,Friesland,,Balk,8561,52.8979,5.5821
647,Friesland,,Wijckel,8563,52.8889,5.615
648,Friesland,,Ruigahuizen,8564,52.8848,5.5725
649,Friesland,,Sondel,8565,52.871,5.5965
650,Friesland,,Nijemirdum,8566,52.8576,5.5682
651,Friesland,,Oudemirdum,8567,52.8513,5.5333
652,Friesland,,Harich,8571,52.8957,5.5528
653,Friesland,,Rijs,8572,52.8656,5.4962
654,Friesland,,Mirns,8573,52.8579,5.4635
655,Friesland,,Bakhuizen,8574,52.8687,5.4579
656,Friesland,,Elahuizen,8581,52.9251,5.541
657,Friesland,,Oudega,8582,52.9046,5.5217
658,Friesland,,Kolderwolde,8583,52.8946,5.5032
659,Friesland,,Franeker,8801,53.1861,5.542
660,Friesland,,Franeker,8802,53.1936,5.5403
661,Friesland,,Tzum,8804,53.1567,5.5643
662,Friesland,,Hitzum,8805,53.1658,5.518
663,Friesland,,Achlum,8806,53.1491,5.4867
664,Friesland,,Herbaijum,8807,53.1852,5.4955
665,Friesland,,Dongjum,8808,53.2087,5.5439
666,Friesland,,Boer,8809,53.2148,5.5635
667,Friesland,,Ried,8811,53.223,5.5916
668,Friesland,,Peins,8812,53.2058,5.5949
669,Friesland,,Schalsum,8813,53.1972,5.5742
670,Friesland,,Zweins,8814,53.1892,5.6043
671,Friesland,,Skingen,8816,53.2022,5.6179
672,Friesland,,Winsum,8831,53.1514,5.6319
673,Friesland,,Baaium,8841,53.1646,5.6333
674,Friesland,,Wjelsryp,8842,53.1668,5.6046
675,Friesland,,Spannum,8843,53.1419,5.6066
676,Friesland,,Tzummarum,8851,53.2375,5.5474
677,Friesland,,Firdgum,8852,53.2508,5.5583
678,Friesland,,Klooster Lidlum,8853,53.2271,5.5262
679,Friesland,,Oosterbierum,8854,53.2357,5.5122
680,Friesland,,Sexbierum,8855,53.2175,5.485
681,Friesland,,Pietersbierum,8856,53.2134,5.4686
682,Friesland,,Boksum,9031,53.1777,5.7295
683,Friesland,,Blessum,9032,53.1816,5.7123
684,Friesland,,Deinum,9033,53.1919,5.7253
685,Friesland,,Marsum,9034,53.2112,5.7272
686,Friesland,,Dronryp,9035,53.194,5.6451
687,Friesland,,Menaam,9036,53.2153,5.6611
688,Friesland,,Slappeterp,9037,53.2163,5.623
689,Friesland,,Ingelum,9038,53.2262,5.7168
690,Friesland,,Berltsum,9041,53.2422,5.6496
691,Friesland,,Wier,9043,53.2514,5.6243
692,Friesland,,Bitgum,9044,53.2359,5.6883
693,Friesland,,Bitgummole,9045,53.2353,5.7065
694,Friesland,,Minnertsga,9047,53.2514,5.5949
695,Friesland,,Nij Altoenae,9072,53.2961,5.6531
696,Friesland,,Westhoek,9075,53.2785,5.576
697,Friesland,,St.-Annaparochie,9076,53.2773,5.659
698,Friesland,,Vrouwenparochie,9077,53.2783,5.7041
699,Friesland,,Oudebildtzijl,9078,53.3036,5.7139
700,Friesland,,St.-Jacobiparochie,9079,53.2768,5.6087
701,Friesland,,Westhoek,9079,53.2729,5.5567
702,Friesland,,Marrum,9073,53.3232,5.8007
703,Friesland,,Hallum,9074,53.3051,5.7843
704,Friesland,,Dokkum,9101,53.325,6.0004
705,Friesland,,Dokkum,9102,53.3332,5.9978
706,Friesland,,Dokkum,9103,53.3163,6.0083
707,Friesland,,Jannum,9107,53.3131,5.9135
708,Friesland,,Burdaard,9111,53.2959,5.8777
709,Friesland,,Burdaard,9112,53.2919,5.8754
710,Friesland,,Aalsum,9121,53.3412,6.0049
711,Friesland,,Wetsens,9122,53.3498,6.0338
712,Friesland,,Metslawier,9123,53.3598,6.066
713,Friesland,,Jouswier,9124,53.3478,6.0767
714,Friesland,,Oostrum,9125,53.3292,6.0515
715,Friesland,,Ee,9131,53.3316,6.1011
716,Friesland,,Engwierum,9132,53.3209,6.1411
717,Friesland,,Anjum,9133,53.377,6.143
718,Friesland,,Lioessens,9134,53.3817,6.0896
719,Friesland,,Morra,9135,53.371,6.089
720,Friesland,,Paesens,9136,53.4009,6.0868
721,Friesland,,Oosternijkerk,9137,53.3794,6.052
722,Friesland,,Niawier,9138,53.3627,6.047
723,Friesland,,Wierum,9141,53.4004,6.014
724,Friesland,,Moddergat,9142,53.4036,6.0788
725,Friesland,,Nes,9143,53.3963,6.0475
726,Friesland,,Hantumhuizen,9144,53.371,5.9943
727,Friesland,,Ternaard,9145,53.3817,5.9652
728,Friesland,,Hantumeruitburen,9146,53.358,6.0056
729,Friesland,,Hantum,9147,53.3627,5.9658
730,Friesland,,Hiaure,9148,53.3488,5.9726
731,Friesland,,Holwerd,9151,53.3683,5.903
732,Friesland,,Waaxens,9152,53.357,5.9196
733,Friesland,,Brantgum,9153,53.3527,5.9321
734,Friesland,,Foudgum,9154,53.3455,5.9436
735,Friesland,,Raard,9155,53.3257,5.9446
736,Friesland,,Bornwird,9156,53.3326,5.9612
737,Friesland,,Blije,9171,53.3516,5.8637
738,Friesland,,Ferwert,9172,53.3381,5.8256
739,Friesland,,Hegebeintum,9173,53.3335,5.8528
740,Friesland,,Ginnum,9174,53.324,5.8745
741,Friesland,,Reitsum,9175,53.3215,5.89
742,Friesland,,Lichtaard,9176,53.3265,5.9146
743,Friesland,,Jislum,9177,53.3094,5.8746
744,Friesland,,Wânswert,9178,53.2974,5.8478
745,Friesland,,Kollum,9291,53.2804,6.1492
746,Friesland,,Augsbuurt,9292,53.2692,6.1796
747,Friesland,,Kollumerpomp,9293,53.3051,6.1903
748,Friesland,,Oudwoude,9294,53.2837,6.1154
749,Friesland,,Westergeest,9295,53.2933,6.0855
750,Friesland,,Triemen,9296,53.2772,6.0895
751,Friesland,,Veenklooster,9297,53.2644,6.1071
752,Friesland,,Kollumerzwaag,9298,53.2616,6.0799
753,Friesland,,Zwagerbosch,9299,53.2465,6.0481
754,Friesland,,Burum,9851,53.2743,6.2299
755,Friesland,,Warfstermolen,9852,53.2961,6.2347
756,Friesland,,Munnekezijl,9853,53.3046,6.2695
757,Gelderland,,Dinxperlo,7091,51.8645,6.487
758,Gelderland,,De Heurne,7095,51.8901,6.4967
759,Gelderland,,Aalten,7121,51.9257,6.5909
760,Gelderland,,Aalten,7122,51.9245,6.5641
761,Gelderland,,Aalten,7123,51.9161,6.5893
762,Gelderland,,Bredevoort,7126,51.9427,6.6204
763,Gelderland,,Uddel,3888,52.2467,5.7784
764,Gelderland,,Apeldoorn,7311,52.213,5.9613
765,Gelderland,,Apeldoorn,7312,52.2046,5.9375
766,Gelderland,,Apeldoorn,7313,52.2199,5.9313
767,Gelderland,,Apeldoorn,7314,52.2186,5.9455
768,Gelderland,,Apeldoorn,7315,52.2295,5.9543
769,Gelderland,,Apeldoorn,7316,52.2293,5.9638
770,Gelderland,,Apeldoorn,7317,52.2355,5.9712
771,Gelderland,,Apeldoorn,7321,52.2139,5.9851
772,Gelderland,,Apeldoorn,7322,52.2212,5.9839
773,Gelderland,,Apeldoorn,7323,52.2305,5.9924
774,Gelderland,,Apeldoorn,7324,52.2409,5.9982
775,Gelderland,,Apeldoorn,7325,52.2148,6.0103
776,Gelderland,,Apeldoorn,7326,52.1953,6.0098
777,Gelderland,,Apeldoorn,7327,52.1892,5.9967
778,Gelderland,,Apeldoorn,7328,52.2022,5.9884
779,Gelderland,,Apeldoorn,7329,52.1973,6.0007
780,Gelderland,,Apeldoorn,7331,52.2009,5.9686
781,Gelderland,,Apeldoorn,7332,52.1977,5.9801
782,Gelderland,,Apeldoorn,7333,52.1887,5.9707
783,Gelderland,,Apeldoorn,7334,52.1892,5.9578
784,Gelderland,,Apeldoorn,7335,52.1981,5.9542
785,Gelderland,,Apeldoorn,7336,52.1967,5.9427
786,Gelderland,,Ugchelen,7339,52.1847,5.9376
787,Gelderland,,Beemte Broekland,7341,52.2544,6.0074
788,Gelderland,,Wenum Wiesel,7345,52.255,5.9548
789,Gelderland,,Hoog Soeren,7346,52.2182,5.8706
790,Gelderland,,Radio Kootwijk,7348,52.1754,5.8306
791,Gelderland,,Hoenderloo,7351,52.1224,5.8969
792,Gelderland,,Beekbergen,7361,52.1511,5.9795
793,Gelderland,,Lieren,7364,52.1613,5.9961
794,Gelderland,,Loenen,7371,52.1189,6.0247
795,Gelderland,,Klarenbeek,7381,52.1681,6.0462
796,Gelderland,,Arnhem,6811,51.9814,5.9064
797,Gelderland,,Arnhem,6812,51.9841,5.8801
798,Gelderland,,Arnhem,6813,51.9922,5.8823
799,Gelderland,,Arnhem,6814,51.9897,5.896
800,Gelderland,,Arnhem,6815,52.0043,5.9071
801,Gelderland,,Arnhem,6816,52.0181,5.8748
802,Gelderland,,Arnhem,6821,51.9898,5.9134
803,Gelderland,,Arnhem,6822,51.9908,5.922
804,Gelderland,,Arnhem,6823,52.0028,5.9383
805,Gelderland,,Arnhem,6824,51.9911,5.9366
806,Gelderland,,Arnhem,6825,51.9831,5.9627
807,Gelderland,,Arnhem,6826,51.9815,5.9488
808,Gelderland,,Arnhem,6827,51.9734,5.9336
809,Gelderland,,Arnhem,6828,51.9809,5.9222
810,Gelderland,,Arnhem,6831,51.9577,5.893
811,Gelderland,,Arnhem,6832,51.9634,5.9106
812,Gelderland,,Arnhem,6833,51.9664,5.9175
813,Gelderland,,Arnhem,6834,51.9561,5.923
814,Gelderland,,Arnhem,6835,51.9533,5.9032
815,Gelderland,,Arnhem,6836,51.9435,5.8935
816,Gelderland,,Arnhem,6841,51.9692,5.8984
817,Gelderland,,Arnhem,6842,51.9585,5.8791
818,Gelderland,,Arnhem,6843,51.9596,5.8618
819,Gelderland,,Arnhem,6844,51.9484,5.8577
820,Gelderland,,Arnhem,6845,51.9466,5.87
821,Gelderland,,Arnhem,6846,51.9538,5.8429
822,Gelderland,,Barneveld,3771,52.1467,5.5877
823,Gelderland,,Barneveld,3772,52.1315,5.582
824,Gelderland,,Barneveld,3773,52.1379,5.6058
825,Gelderland,,Kootwijkerbroek,3774,52.1522,5.672
826,Gelderland,,Kootwijk,3775,52.1873,5.7836
827,Gelderland,,Stroe,3776,52.1874,5.6861
828,Gelderland,,Voorthuizen,3781,52.189,5.6254
829,Gelderland,,Terschuur,3784,52.1637,5.5206
830,Gelderland,,Zwartebroek,3785,52.1785,5.5057
831,Gelderland,,Achterveld,3792,52.1388,5.516
832,Gelderland,,De Glind,3794,52.1199,5.5107
833,Gelderland,,Garderen,3886,52.232,5.7078
834,Gelderland,,Weurt,6551,51.8555,5.8132
835,Gelderland,,Beuningen Gld,6641,51.8605,5.7675
836,Gelderland,,Beuningen Gld,6642,51.8522,5.7627
837,Gelderland,,Ewijk,6644,51.8666,5.7333
838,Gelderland,,Winssen,6645,51.8799,5.705
839,Gelderland,,Eerbeek,6961,52.1042,6.0565
840,Gelderland,,Hall,6964,52.1097,6.0971
841,Gelderland,,Brummen,6971,52.0942,6.1552
842,Gelderland,,Leuvenheim,6974,52.0752,6.1389
843,Gelderland,,Tonden,6975,52.1352,6.128
844,Gelderland,,Empe,7399,52.1515,6.1314
845,Gelderland,,Zoelen,4011,51.9167,5.4083
846,Gelderland,,Kerk-Avezaath,4012,51.8988,5.3796
847,Gelderland,,Kapel-Avezaath,4016,51.8852,5.357
848,Gelderland,,Maurik,4021,51.9614,5.4233
849,Gelderland,,Rijswijk (GLD),4023,51.9564,5.3579
850,Gelderland,,Eck en Wiel,4024,51.9693,5.4551
851,Gelderland,,Ingen,4031,51.9622,5.4856
852,Gelderland,,Ommeren,4032,51.9421,5.4873
853,Gelderland,,Lienden,4033,51.9432,5.516
854,Gelderland,,Zoelmond,4111,51.9419,5.3093
855,Gelderland,,Beusichem,4112,51.9501,5.2896
856,Gelderland,,Asch,4115,51.9305,5.3149
857,Gelderland,,Buren,4116,51.9107,5.3339
858,Gelderland,,Erichem,4117,51.8987,5.3505
859,Gelderland,,Ravenswaaij,4119,51.9495,5.3293
860,Gelderland,,Buurmalsen,4197,51.9027,5.3028
861,Gelderland,,Culemborg,4101,51.9569,5.2297
862,Gelderland,,Culemborg,4102,51.9526,5.243
863,Gelderland,,Culemborg,4103,51.9483,5.2305
864,Gelderland,,Culemborg,4104,51.9423,5.2136
865,Gelderland,,Culemborg,4105,51.9496,5.2097
866,Gelderland,,Culemborg,4106,51.947,5.1943
867,Gelderland,,Culemborg,4107,51.9386,5.1899
868,Gelderland,,Doesburg,6981,52.0139,6.1384
869,Gelderland,,Doesburg,6982,52.0065,6.1452
870,Gelderland,,Doesburg,6983,52.0022,6.1279
871,Gelderland,,Doesburg,6984,52.0219,6.1587
872,Gelderland,,Doetinchem,7001,51.9663,6.2913
873,Gelderland,,Doetinchem,7002,51.9724,6.3118
874,Gelderland,,Doetinchem,7003,51.9632,6.3065
875,Gelderland,,Doetinchem,7004,51.9536,6.3215
876,Gelderland,,Doetinchem,7005,51.9559,6.2945
877,Gelderland,,Doetinchem,7006,51.9635,6.2601
878,Gelderland,,Doetinchem,7007,51.9539,6.2679
879,Gelderland,,Doetinchem,7008,51.9716,6.2712
880,Gelderland,,Doetinchem,7009,51.9765,6.2925
881,Gelderland,,Gaanderen,7011,51.9315,6.3498
882,Gelderland,,Wehl,7031,51.9607,6.206
883,Gelderland,,Horssen,6631,51.8552,5.6105
884,Gelderland,,Druten,6651,51.8882,5.6033
885,Gelderland,,Druten,6652,51.88,5.6038
886,Gelderland,,Deest,6653,51.8879,5.6671
887,Gelderland,,Afferden,6654,51.8802,5.6331
888,Gelderland,,Puiflijk,6655,51.8785,5.5905
889,Gelderland,,Duiven,6921,51.9497,6.0192
890,Gelderland,,Duiven,6922,51.9415,6.0072
891,Gelderland,,Groessen,6923,51.9298,6.0259
892,Gelderland,,Loo Gld,6924,51.9293,5.9897
893,Gelderland,,Duiven,6932,51.952,5.9853
894,Gelderland,,Ede,6711,52.0415,5.6752
895,Gelderland,,Ede,6712,52.0466,5.6604
896,Gelderland,,Ede,6713,52.0372,5.6583
897,Gelderland,,Ede,6714,52.0448,5.6461
898,Gelderland,,Ede,6715,52.0422,5.6347
899,Gelderland,,Ede,6716,52.0223,5.6377
900,Gelderland,,Ede,6717,52.0235,5.6604
901,Gelderland,,Ede,6718,52.0529,5.6412
902,Gelderland,,Bennekom,6721,52.0027,5.674
903,Gelderland,,Otterlo,6731,52.0994,5.7706
904,Gelderland,,Harskamp,6732,52.1308,5.7484
905,Gelderland,,Wekerom,6733,52.1098,5.7151
906,Gelderland,,Lunteren,6741,52.0908,5.6216
907,Gelderland,,Ederveen,6744,52.0604,5.581
908,Gelderland,,De Klomp,6745,52.0432,5.5785
909,Gelderland,,Ede,6745,52.0342,5.5977
910,Gelderland,,Deelen,6877,52.0773,5.9029
911,Gelderland,,Hoenderloo,7351,52.1242,5.8345
912,Gelderland,,Hoenderloo,7352,52.1104,5.8777
913,Gelderland,,Elburg,8081,52.4482,5.8465
914,Gelderland,,Elburg,8082,52.4478,5.8652
915,Gelderland,,'t Harde,8084,52.4143,5.8788
916,Gelderland,,Doornspijk,8085,52.4141,5.8252
917,Gelderland,,Epe,8161,52.3472,5.9922
918,Gelderland,,Epe,8162,52.3488,5.971
919,Gelderland,,Emst,8166,52.3173,5.9643
920,Gelderland,,Oene,8167,52.3448,6.047
921,Gelderland,,Vaassen,8171,52.2895,5.973
922,Gelderland,,Vaassen,8172,52.2822,5.9567
923,Gelderland,,Ermelo,3851,52.2985,5.621
924,Gelderland,,Ermelo,3852,52.2979,5.6498
925,Gelderland,,Ermelo,3853,52.3031,5.5971
926,Gelderland,,Harderwijk,3841,52.3493,5.6225
927,Gelderland,,Harderwijk,3842,52.3445,5.6342
928,Gelderland,,Harderwijk,3843,52.3363,5.6332
929,Gelderland,,Harderwijk,3844,52.338,5.6101
930,Gelderland,,Harderwijk,3845,52.3257,5.6005
931,Gelderland,,Harderwijk,3846,52.3585,5.6326
932,Gelderland,,Harderwijk,3847,52.3278,5.637
933,Gelderland,,Harderwijk,3848,52.3481,5.6463
934,Gelderland,,Hierden,3849,52.353,5.6788
935,Gelderland,,Hattem,8051,52.4724,6.0608
936,Gelderland,,Hattem,8052,52.4812,6.053
937,Gelderland,,Heerde,8181,52.3888,6.0384
938,Gelderland,,Wapenveld,8191,52.4286,6.0733
939,Gelderland,,Vorchten,8193,52.3963,6.1097
940,Gelderland,,Veessen,8194,52.378,6.0922
941,Gelderland,,Malden,6581,51.7821,5.8547
942,Gelderland,,Heumen,6582,51.7674,5.8432
943,Gelderland,,Overasselt,6611,51.7623,5.7882
944,Gelderland,,Nederasselt,6612,51.7722,5.7471
945,Gelderland,,Eefde,7211,52.1683,6.2269
946,Gelderland,,Gorssel,7213,52.2008,6.2032
947,Gelderland,,Epse,7214,52.2246,6.2072
948,Gelderland,,Joppe,7215,52.2063,6.2366
949,Gelderland,,Kring van Dorth,7216,52.2258,6.3092
950,Gelderland,,Harfsen,7217,52.1998,6.2918
951,Gelderland,,Almen,7218,52.1616,6.2992
952,Gelderland,,Lochem,7241,52.1576,6.4102
953,Gelderland,,Lochem,7242,52.1572,6.4036
954,Gelderland,,Barchem,7244,52.124,6.441
955,Gelderland,,Laren,7245,52.197,6.3725
956,Gelderland,,Hedel,5321,51.7484,5.2596
957,Gelderland,,Ammerzoden,5324,51.7497,5.2199
958,Gelderland,,Well,5325,51.7503,5.1975
959,Gelderland,,Hurwenen,5327,51.8098,5.3153
960,Gelderland,,Rossum,5328,51.8005,5.3293
961,Gelderland,,Kerkdriel,5331,51.7716,5.3331
962,Gelderland,,Hoenzadriel,5333,51.7563,5.3311
963,Gelderland,,Velddriel,5334,51.7685,5.3037
964,Gelderland,,Alem,5335,51.7867,5.3445
965,Gelderland,,Heerewaarden,6624,51.8175,5.3929
966,Gelderland,,Nijkerk,3861,52.2268,5.4763
967,Gelderland,,Nijkerk,3862,52.2153,5.5029
968,Gelderland,,Nijkerk,3863,52.2152,5.4622
969,Gelderland,,Nijkerkerveen,3864,52.1954,5.4657
970,Gelderland,,Hoevelaken,3871,52.1748,5.4604
971,Gelderland,,Nijmegen,6511,51.8463,5.8626
972,Gelderland,,Nijmegen,6512,51.8392,5.8558
973,Gelderland,,Lent,6515,51.8792,5.8626
974,Gelderland,,Nijmegen,6515,51.8792,5.8459
975,Gelderland,,Nijmegen,6521,51.839,5.874
976,Gelderland,,Nijmegen,6522,51.8409,5.8816
977,Gelderland,,Nijmegen,6523,51.8318,5.8835
978,Gelderland,,Nijmegen,6524,51.8353,5.865
979,Gelderland,,Nijmegen,6525,51.8198,5.8663
980,Gelderland,,Nijmegen,6531,51.8305,5.8487
981,Gelderland,,Nijmegen,6532,51.8254,5.8358
982,Gelderland,,Nijmegen,6533,51.8151,5.8458
983,Gelderland,,Nijmegen,6534,51.8136,5.822
984,Gelderland,,Nijmegen,6535,51.8056,5.8282
985,Gelderland,,Nijmegen,6536,51.8012,5.8093
986,Gelderland,,Nijmegen,6537,51.8122,5.7952
987,Gelderland,,Nijmegen,6538,51.816,5.8047
988,Gelderland,,Nijmegen,6541,51.8483,5.8444
989,Gelderland,,Nijmegen,6542,51.8407,5.8414
990,Gelderland,,Nijmegen,6543,51.8355,5.8282
991,Gelderland,,Nijmegen,6544,51.8305,5.8144
992,Gelderland,,Nijmegen,6545,51.8318,5.8008
993,Gelderland,,Nijmegen,6546,51.8327,5.7847
994,Gelderland,,Nijmegen,6574,51.83,5.9071
995,Gelderland,,Lent,6663,51.8677,5.8664
996,Gelderland,,Noordeinde Gld,8079,52.5125,5.878
997,Gelderland,,Wezep,8091,52.4625,5.9997
998,Gelderland,,Hattemerbroek,8094,52.4731,6.0199
999,Gelderland,,'t Loo Oldebroek,8095,52.4427,5.9514
1000,Gelderland,,Oldebroek,8096,52.4443,5.9064
1001,Gelderland,,Oosterwolde Gld,8097,52.4664,5.8951
1002,Gelderland,,Putten,3881,52.2509,5.6154
1003,Gelderland,,Putten,3882,52.2548,5.5861
1004,Gelderland,,Oosterbeek,6861,51.9908,5.8393
1005,Gelderland,,Oosterbeek,6862,51.9833,5.846
1006,Gelderland,,Doorwerth,6865,51.9794,5.7951
1007,Gelderland,,Heelsum,6866,51.9814,5.7524
1008,Gelderland,,Renkum,6866,51.9775,5.7459
1009,Gelderland,,Heveadorp,6869,51.9746,5.8111
1010,Gelderland,,Renkum,6871,51.9782,5.7351
1011,Gelderland,,Wolfheze,6874,52.0066,5.7923
1012,Gelderland,,Velp,6881,51.9982,5.9727
1013,Gelderland,,Velp,6882,51.9898,5.9705
1014,Gelderland,,Velp,6883,51.9889,5.9834
1015,Gelderland,,Dieren,6951,52.0558,6.0988
1016,Gelderland,,Dieren,6952,52.052,6.0917
1017,Gelderland,,Dieren,6953,52.0444,6.1076
1018,Gelderland,,Ellecom,6955,52.0313,6.0888
1019,Gelderland,,Spankeren,6956,52.0581,6.1118
1020,Gelderland,,Laag-Soeren,6957,52.0788,6.0745
1021,Gelderland,,Rheden,6991,52.0054,6.0292
1022,Gelderland,,De Steeg,6994,52.0189,6.0631
1023,Gelderland,,Rozendaal,6891,52.0037,5.9611
1024,Gelderland,,Rozendaal,6961,52.0654,6.0003
1025,Gelderland,,Scherpenzeel,3925,52.0804,5.489
1026,Gelderland,,Tiel,4001,51.8864,5.4314
1027,Gelderland,,Tiel,4002,51.8948,5.4221
1028,Gelderland,,Tiel,4003,51.8941,5.4148
1029,Gelderland,,Tiel,4004,51.9103,5.4384
1030,Gelderland,,Tiel,4005,51.8943,5.4437
1031,Gelderland,,Tiel,4006,51.8792,5.4122
1032,Gelderland,,Tiel,4007,51.87,5.3997
1033,Gelderland,,Kapel Avezaath,4013,51.8831,5.3804
1034,Gelderland,,Wadenoijen,4014,51.8713,5.3672
1035,Gelderland,,Kerk Avezaath,4017,51.8871,5.3964
1036,Gelderland,,Zennewijnen,4062,51.8596,5.4079
1037,Gelderland,,Klarenbeek,7382,52.173,6.0719
1038,Gelderland,,Voorst,7383,52.172,6.1372
1039,Gelderland,,Wilp,7384,52.2157,6.1196
1040,Gelderland,,Twello,7384,52.2444,6.1429
1041,Gelderland,,Twello,7391,52.235,6.1018
1042,Gelderland,,Wilp,7391,52.2454,6.1421
1043,Gelderland,,Twello,7392,52.235,6.1212
1044,Gelderland,,Teuge,7395,52.237,6.0481
1045,Gelderland,,Terwolde,7396,52.2792,6.0915
1046,Gelderland,,Nijbroek,7397,52.2956,6.0575
1047,Gelderland,,Steenenkamer,7439,52.2454,6.1479
1048,Gelderland,,Wageningen,6701,51.9657,5.6643
1049,Gelderland,,Wageningen,6702,51.9636,5.6518
1050,Gelderland,,Wageningen,6703,51.9681,5.68
1051,Gelderland,,Wageningen,6704,51.9834,5.6925
1052,Gelderland,,Wageningen,6705,51.9893,5.6946
1053,Gelderland,,Wageningen,6706,51.9755,5.676
1054,Gelderland,,Wageningen,6707,51.9717,5.665
1055,Gelderland,,Wageningen,6708,51.9793,5.6573
1056,Gelderland,,Wageningen,6709,51.969,5.648
1057,Gelderland,,Westervoort,6931,51.9589,5.9704
1058,Gelderland,,Westervoort,6932,51.9483,5.9772
1059,Gelderland,,Winterswijk,7101,51.9712,6.7233
1060,Gelderland,,Winterswijk,7102,51.9674,6.7058
1061,Gelderland,,Winterswijk,7103,51.9797,6.7223
1062,Gelderland,,Winterswijk Meddo,7104,52.0107,6.7027
1063,Gelderland,,Winterswijk Huppel,7105,52.0008,6.7561
1064,Gelderland,,Winterswijk Ratum,7106,51.9796,6.8044
1065,Gelderland,,Winterswijk Kotten,7107,51.9404,6.7716
1066,Gelderland,,Winterswijk Woold,7108,51.9295,6.7155
1067,Gelderland,,Winterswijk Miste,7109,51.9433,6.6657
1068,Gelderland,,Winterswijk Henxel,7113,51.9839,6.7617
1069,Gelderland,,Winterswijk Brinkheurne,7115,51.9524,6.7494
1070,Gelderland,,Winterswijk Corle,7119,51.9663,6.6607
1071,Gelderland,,Wijchen,6601,51.8138,5.7207
1072,Gelderland,,Wijchen,6602,51.8073,5.7255
1073,Gelderland,,Wijchen,6603,51.802,5.7537
1074,Gelderland,,Wijchen,6604,51.8224,5.7386
1075,Gelderland,,Wijchen,6605,51.798,5.726
1076,Gelderland,,Niftrik,6606,51.7976,5.6753
1077,Gelderland,,Balgoij,6613,51.7819,5.7151
1078,Gelderland,,Leur,6615,51.8228,5.6985
1079,Gelderland,,Hernen,6616,51.8331,5.6815
1080,Gelderland,,Bergharen,6617,51.8526,5.6663
1081,Gelderland,,Batenburg,6634,51.8241,5.6301
1082,Gelderland,,Zaltbommel,5301,51.8071,5.2469
1083,Gelderland,,Zaltbommel,5302,51.7993,5.2506
1084,Gelderland,,Zuilichem,5305,51.8068,5.1343
1085,Gelderland,,Brakel,5306,51.8166,5.0913
1086,Gelderland,,Poederoijen,5307,51.7883,5.0781
1087,Gelderland,,Aalst,5308,51.7822,5.1298
1088,Gelderland,,Gameren,5311,51.8004,5.2025
1089,Gelderland,,Nieuwaal,5313,51.8083,5.177
1090,Gelderland,,Bruchem,5314,51.7862,5.2374
1091,Gelderland,,Kerkwijk,5315,51.7753,5.2177
1092,Gelderland,,Delwijnen,5316,51.7711,5.1865
1093,Gelderland,,Nederhemert,5317,51.7643,5.1637
1094,Gelderland,,Bern,5318,51.7483,5.1686
1095,Gelderland,,Zevenaar,6901,51.9292,6.0771
1096,Gelderland,,Zevenaar,6902,51.9321,6.0917
1097,Gelderland,,Zevenaar,6903,51.9391,6.0694
1098,Gelderland,,Zevenaar,6904,51.9317,6.0595
1099,Gelderland,,Zevenaar,6905,51.9197,6.0854
1100,Gelderland,,Babberich,6909,51.9068,6.1181
1101,Gelderland,,Pannerden,6911,51.8909,6.0392
1102,Gelderland,,Aerdt,6913,51.8923,6.0819
1103,Gelderland,,Herwen,6914,51.883,6.1022
1104,Gelderland,,Lobith,6914,51.8714,6.1083
1105,Gelderland,,Lobith,6915,51.8623,6.1165
1106,Gelderland,,Tolkamer,6916,51.855,6.1031
1107,Gelderland,,Spijk,6917,51.8503,6.1482
1108,Gelderland,,Angerlo,6986,51.9947,6.1337
1109,Gelderland,,Giesbeek,6987,51.994,6.0677
1110,Gelderland,,Lathum,6988,51.9902,6.0345
1111,Gelderland,,Zutphen,7201,52.1411,6.1977
1112,Gelderland,,Zutphen,7202,52.1495,6.195
1113,Gelderland,,Zutphen,7203,52.1504,6.2138
1114,Gelderland,,Zutphen,7204,52.136,6.2077
1115,Gelderland,,Zutphen,7205,52.1409,6.1804
1116,Gelderland,,Zutphen,7206,52.1244,6.2001
1117,Gelderland,,Zutphen,7207,52.1253,6.2312
1118,Gelderland,,Warnsveld,7231,52.1384,6.2321
1119,Gelderland,,Zutphen,7231,52.1174,6.2692
1120,Gelderland,,Warnsveld,7232,52.1319,6.2336
1121,Gelderland,,Nunspeet,8071,52.3781,5.7769
1122,Gelderland,,Nunspeet,8072,52.3837,5.8012
1123,Gelderland,,Elspeet,8075,52.2929,5.7813
1124,Gelderland,,Vierhouten,8076,52.3355,5.821
1125,Gelderland,,Hulshorst,8077,52.3658,5.7247
1126,Gelderland,,Dreumel,6621,51.8489,5.4326
1127,Gelderland,,Alphen,6626,51.8246,5.4714
1128,Gelderland,,Maasbommel,6627,51.8262,5.5359
1129,Gelderland,,Altforst,6628,51.8504,5.5622
1130,Gelderland,,Appeltern,6629,51.8338,5.5819
1131,Gelderland,,Boven-Leeuwen,6657,51.8838,5.5494
1132,Gelderland,,Beneden-Leeuwen,6658,51.8807,5.5158
1133,Gelderland,,Wamel,6659,51.8788,5.47
1134,Gelderland,,Varsseveld,7051,51.9435,6.4586
1135,Gelderland,,Westendorp,7054,51.9502,6.417
1136,Gelderland,,Heelweg,7055,51.9627,6.4793
1137,Gelderland,,Terborg,7061,51.9214,6.3546
1138,Gelderland,,Silvolde,7064,51.9094,6.3877
1139,Gelderland,,Sinderen,7065,51.9161,6.4514
1140,Gelderland,,Ulft,7071,51.8916,6.3773
1141,Gelderland,,Etten,7075,51.916,6.3343
1142,Gelderland,,Varsselder,7076,51.8875,6.3573
1143,Gelderland,,Netterden,7077,51.8552,6.3146
1144,Gelderland,,Megchelen,7078,51.8409,6.3903
1145,Gelderland,,Gendringen,7081,51.8727,6.375
1146,Gelderland,,Voorst,7083,51.8722,6.4207
1147,Gelderland,,Breedenbroek,7084,51.8811,6.4636
1148,Gelderland,,Lichtenvoorde,7131,51.9875,6.5695
1149,Gelderland,,Lichtenvoorde,7132,51.9802,6.5534
1150,Gelderland,,Vragender,7134,51.986,6.6127
1151,Gelderland,,Harreveld,7135,51.979,6.5142
1152,Gelderland,,Zieuwent,7136,52.0066,6.5186
1153,Gelderland,,Lievelde,7137,52.0111,6.5953
1154,Gelderland,,Groenlo,7141,52.0412,6.6118
1155,Gelderland,,Groenlo,7142,52.0339,6.6541
1156,Gelderland,,Mariënvelde,7263,52.0115,6.4752
1157,Gelderland,,Bemmel,6681,51.8934,5.8995
1158,Gelderland,,Ressen,6684,51.8905,5.8693
1159,Gelderland,,Haalderen,6685,51.8875,5.9291
1160,Gelderland,,Doornenburg,6686,51.8912,5.9986
1161,Gelderland,,Angeren,6687,51.9147,5.955
1162,Gelderland,,Gendt,6691,51.8784,5.9678
1163,Gelderland,,Huissen,6851,51.9319,5.9353
1164,Gelderland,,Huissen,6852,51.9432,5.9254
1165,Gelderland,,Loo Gld,6924,51.9306,5.968
1166,Gelderland,,Elst,6661,51.9227,5.8494
1167,Gelderland,,Elst,6662,51.9146,5.8419
1168,Gelderland,,Driel,6665,51.9585,5.813
1169,Gelderland,,Heteren,6666,51.9558,5.7547
1170,Gelderland,,Randwijk,6668,51.9509,5.7073
1171,Gelderland,,Zetten,6671,51.9275,5.7136
1172,Gelderland,,Hemmen,6672,51.933,5.6989
1173,Gelderland,,Andelst,6673,51.909,5.7269
1174,Gelderland,,Herveld,6674,51.9085,5.7406
1175,Gelderland,,Valburg,6675,51.9119,5.7894
1176,Gelderland,,Homoet,6676,51.9345,5.7876
1177,Gelderland,,Slijk-Ewijk,6677,51.8871,5.7882
1178,Gelderland,,Oosterhout,6678,51.8795,5.8254
1179,Gelderland,,Kesteren,4041,51.9328,5.5714
1180,Gelderland,,Opheusden,4043,51.9314,5.6291
1181,Gelderland,,Ochten,4051,51.9113,5.5707
1182,Gelderland,,IJzendoorn,4053,51.9083,5.5332
1183,Gelderland,,Echteld,4054,51.9102,5.4924
1184,Gelderland,,Dodewaard,6669,51.9117,5.6578
1185,Gelderland,,Eibergen,7151,52.0995,6.6412
1186,Gelderland,,Eibergen,7152,52.0953,6.661
1187,Gelderland,,Beltrum,7156,52.0638,6.565
1188,Gelderland,,Rekken,7157,52.0963,6.7244
1189,Gelderland,,Neede,7161,52.1367,6.6088
1190,Gelderland,,Rietmolen,7165,52.1443,6.6584
1191,Gelderland,,Ruurlo,7261,52.0827,6.4523
1192,Gelderland,,Borculo,7271,52.1156,6.5196
1193,Gelderland,,Haarlo,7273,52.1104,6.5769
1194,Gelderland,,Geesteren,7274,52.1391,6.5218
1195,Gelderland,,Gelselaar,7275,52.17,6.5261
1196,Gelderland,,Drempt,6996,52.0135,6.179
1197,Gelderland,,Hoog-Keppel,6997,52.0048,6.2028
1198,Gelderland,,Laag-Keppel,6998,51.9955,6.2165
1199,Gelderland,,Hummelo,6999,52.0044,6.2385
1200,Gelderland,,Zelhem,7021,52.0077,6.3464
1201,Gelderland,,Halle,7025,51.9959,6.4268
1202,Gelderland,,Steenderen,7221,52.0646,6.1873
1203,Gelderland,,Baak,7223,52.0729,6.2315
1204,Gelderland,,Rha,7224,52.0536,6.149
1205,Gelderland,,Olburgen,7225,52.0442,6.1276
1206,Gelderland,,Bronkhorst,7226,52.0771,6.1829
1207,Gelderland,,Toldijk,7227,52.048,6.2256
1208,Gelderland,,Vierakker,7233,52.1028,6.2445
1209,Gelderland,,Wichmond,7234,52.088,6.2617
1210,Gelderland,,Vorden,7251,52.1046,6.3176
1211,Gelderland,,Hengelo (Gld),7255,52.0515,6.3179
1212,Gelderland,,Keijenborg,7256,52.0301,6.2953
1213,Gelderland,,Groesbeek,6561,51.7838,5.9292
1214,Gelderland,,Groesbeek,6562,51.7696,5.9425
1215,Gelderland,,Heilig Landstichting,6564,51.8175,5.8852
1216,Gelderland,,Millingen aan de Rijn,6566,51.8629,6.0464
1217,Gelderland,,Berg en Dal,6571,51.8231,5.912
1218,Gelderland,,Berg en Dal,6572,51.8235,5.9183
1219,Gelderland,,Beek,6573,51.8288,5.9282
1220,Gelderland,,Ubbergen,6574,51.8358,5.9028
1221,Gelderland,,Persingen,6575,51.8419,5.9374
1222,Gelderland,,Ooij,6576,51.8569,5.9359
1223,Gelderland,,Erlecom,6577,51.8497,5.9585
1224,Gelderland,,Leuth,6578,51.8392,5.9922
1225,Gelderland,,Kekerdom,6579,51.8632,6.0105
1226,Gelderland,,Didam,6941,51.9473,6.1294
1227,Gelderland,,Didam,6942,51.9375,6.1358
1228,Gelderland,,Kilder,7035,51.9377,6.2338
1229,Gelderland,,Loerbeek,7036,51.9275,6.1998
1230,Gelderland,,Beek,7037,51.9086,6.1876
1231,Gelderland,,Zeddam,7038,51.9032,6.2601
1232,Gelderland,,Stokkum,7039,51.8787,6.2226
1233,Gelderland,,'s-Heerenberg,7041,51.8774,6.2529
1234,Gelderland,,Lengel,7044,51.8837,6.2661
1235,Gelderland,,Azewijn,7045,51.887,6.3041
1236,Gelderland,,Vethuizen,7046,51.9125,6.2993
1237,Gelderland,,Braamt,7047,51.9256,6.2638
1238,Gelderland,,Wijnbergen,7048,51.934,6.2804
1239,Gelderland,,Ophemert,4061,51.8457,5.3822
1240,Gelderland,,Zennewijnen,4062,51.8533,5.4064
1241,Gelderland,,Heesselt,4063,51.8157,5.3512
1242,Gelderland,,Varik,4064,51.8249,5.3699
1243,Gelderland,,Asperen,4147,51.8814,5.1085
1244,Gelderland,,Acquoy,4151,51.8852,5.1337
1245,Gelderland,,Rhenoy,4152,51.8868,5.1521
1246,Gelderland,,Beesd,4153,51.8896,5.1919
1247,Gelderland,,Gellicum,4155,51.8758,5.1535
1248,Gelderland,,Rumpt,4156,51.8818,5.1779
1249,Gelderland,,Enspijk,4157,51.8812,5.2118
1250,Gelderland,,Deil,4158,51.8839,5.2414
1251,Gelderland,,Heukelum,4161,51.8708,5.0727
1252,Gelderland,,Herwijnen,4171,51.827,5.1317
1253,Gelderland,,Hellouw,4174,51.8277,5.177
1254,Gelderland,,Haaften,4175,51.8185,5.2115
1255,Gelderland,,Tuil,4176,51.8248,5.2405
1256,Gelderland,,Neerijnen,4181,51.8451,5.2707
1257,Gelderland,,Waardenburg,4181,51.8342,5.2552
1258,Gelderland,,Neerijnen,4182,51.841,5.2837
1259,Gelderland,,Opijnen,4184,51.8289,5.3008
1260,Gelderland,,Est,4185,51.8518,5.3153
1261,Gelderland,,Geldermalsen,4191,51.8811,5.2943
1262,Gelderland,,Meteren,4194,51.8693,5.2848
1263,Gelderland,,Tricht,4196,51.8914,5.2666
1264,Gelderland,,Buurmalsen,4197,51.8932,5.2906
1265,Gelderland,,Spijk,4211,51.8558,5.0126
1266,Gelderland,,Spijk,4212,51.852,5.0114
1267,Gelderland,,Vuren,4214,51.8275,5.0527
1268,Groningen,,Appingedam,9901,53.3226,6.856
1269,Groningen,,Appingedam,9902,53.3156,6.8671
1270,Groningen,,Appingedam,9903,53.3175,6.8471
1271,Groningen,,Krewerd,9904,53.3536,6.8469
1272,Groningen,,Holwierde,9905,53.3585,6.8737
1273,Groningen,,Bierum,9906,53.3823,6.8607
1274,Groningen,,Losdorp,9907,53.3752,6.8353
1275,Groningen,,Godlinze,9908,53.3726,6.8138
1276,Groningen,,Spijk,9909,53.3913,6.8389
1277,Groningen,,Delfzijl,9931,53.3348,6.9021
1278,Groningen,,Delfzijl,9932,53.3204,6.8959
1279,Groningen,,Delfzijl,9933,53.3396,6.9121
1280,Groningen,,Delfzijl,9934,53.329,6.9169
1281,Groningen,,Farmsum,9936,53.3196,6.9304
1282,Groningen,,Meedhuizen,9937,53.288,6.9135
1283,Groningen,,Wagenborgen,9945,53.2549,6.9332
1284,Groningen,,Woldendorp,9946,53.2722,7.0305
1285,Groningen,,Termunten,9947,53.2955,7.0457
1286,Groningen,,Termunterzijl,9948,53.2999,7.034
1287,Groningen,,Borgsweer,9949,53.297,7.0161
1288,Groningen,,Noordlaren,9479,53.1227,6.6625
1289,Groningen,,Meerstad,9613,53.2269,6.6538
1290,Groningen,,Harkstede GN,9614,53.2151,6.6654
1291,Groningen,,Lageland GN,9622,53.2405,6.6713
1292,Groningen,,Groningen,9711,53.2167,6.5698
1293,Groningen,,Groningen,9712,53.2216,6.5629
1294,Groningen,,Groningen,9713,53.2253,6.5813
1295,Groningen,,Groningen,9714,53.2301,6.5725
1296,Groningen,,Groningen,9715,53.2329,6.5679
1297,Groningen,,Groningen,9716,53.2336,6.5616
1298,Groningen,,Groningen,9717,53.2244,6.5519
1299,Groningen,,Groningen,9718,53.2166,6.5509
1300,Groningen,,Groningen,9721,53.195,6.5728
1301,Groningen,,Groningen,9722,53.1976,6.5866
1302,Groningen,,Groningen,9723,53.2108,6.599
1303,Groningen,,Groningen,9724,53.2115,6.5779
1304,Groningen,,Groningen,9725,53.2076,6.5695
1305,Groningen,,Groningen,9726,53.2124,6.5538
1306,Groningen,,Groningen,9727,53.2052,6.5493
1307,Groningen,,Groningen,9728,53.1925,6.5551
1308,Groningen,,Groningen,9731,53.2347,6.5905
1309,Groningen,,Groningen,9732,53.2341,6.6202
1310,Groningen,,Groningen,9733,53.2389,6.622
1311,Groningen,,Groningen,9734,53.2351,6.6212
1312,Groningen,,Groningen,9735,53.2376,6.6042
1313,Groningen,,Groningen,9736,53.2494,6.6007
1314,Groningen,,Groningen,9737,53.2475,6.589
1315,Groningen,,Groningen,9738,53.2464,6.5693
1316,Groningen,,Groningen,9741,53.2334,6.5526
1317,Groningen,,Groningen,9742,53.2293,6.5413
1318,Groningen,,Groningen,9743,53.2257,6.5286
1319,Groningen,,Groningen,9744,53.2064,6.5051
1320,Groningen,,Groningen,9745,53.2192,6.5068
1321,Groningen,,Groningen,9746,53.2358,6.5163
1322,Groningen,,Groningen,9747,53.2425,6.5326
1323,Groningen,,Haren Gn,9751,53.1738,6.6109
1324,Groningen,,Haren Gn,9752,53.1695,6.598
1325,Groningen,,Haren Gn,9753,53.1722,6.6261
1326,Groningen,,Onnen,9755,53.1552,6.6422
1327,Groningen,,Glimmen,9756,53.1398,6.6298
1328,Groningen,,Ten Boer,9791,53.2771,6.6957
1329,Groningen,,Ten Post,9792,53.2963,6.7302
1330,Groningen,,Winneweer,9793,53.3102,6.7443
1331,Groningen,,Lellens,9794,53.3013,6.7096
1332,Groningen,,Woltersum,9795,53.272,6.7316
1333,Groningen,,Sint Annen,9796,53.2977,6.6649
1334,Groningen,,Thesinge,9797,53.2688,6.6512
1335,Groningen,,Garmerwolde,9798,53.2473,6.6539
1336,Groningen,,Oosterwijtwerd,9911,53.3369,6.8149
1337,Groningen,,Leermens,9912,53.3471,6.7984
1338,Groningen,,Eenum,9913,53.3388,6.7812
1339,Groningen,,Zeerijp,9914,53.3489,6.7604
1340,Groningen,,'t Zandt,9915,53.3679,6.775
1341,Groningen,,Wirdum,9917,53.3183,6.7875
1342,Groningen,,Garrelsweer,9918,53.31,6.7664
1343,Groningen,,Loppersum,9919,53.3314,6.747
1344,Groningen,,Stedum,9921,53.3223,6.6946
1345,Groningen,,Westeremden,9922,53.345,6.7104
1346,Groningen,,Garsthuizen,9923,53.369,6.7166
1347,Groningen,,Startenhuizen,9924,53.369,6.7098
1348,Groningen,,Zijldijk,9987,53.3938,6.7587
1349,Groningen,,Middelstum,9991,53.3457,6.6422
1350,Groningen,,Huizinge,9992,53.3466,6.6747
1351,Groningen,,Westerwijtwerd,9993,53.3328,6.6459
1352,Groningen,,Toornwerd,9994,53.354,6.6381
1353,Groningen,,Stadskanaal,9501,52.9939,6.9495
1354,Groningen,,Stadskanaal,9502,52.9908,6.9721
1355,Groningen,,Stadskanaal,9503,52.9898,6.9443
1356,Groningen,,Musselkanaal,9581,52.9378,7.009
1357,Groningen,,Mussel,9584,52.9579,7.0434
1358,Groningen,,Vledderveen,9585,52.9807,7.0112
1359,Groningen,,Onstwedde,9591,53.0342,7.0413
1360,Groningen,,Alteveer,9661,53.0486,7.0018
1361,Groningen,,Borgercompagnie,9631,53.1104,6.8241
1362,Groningen,,Veendam,9641,53.1043,6.877
1363,Groningen,,Veendam,9642,53.0972,6.8593
1364,Groningen,,Veendam,9644,53.0928,6.9139
1365,Groningen,,Veendam,9645,53.1155,6.8805
1366,Groningen,,Veendam,9646,53.1125,6.8661
1367,Groningen,,Wildervank,9648,53.0789,6.8609
1368,Groningen,,Nieuwe Pekela,9663,53.0725,6.9594
1369,Groningen,,Oude Pekela,9665,53.1039,7.0081
1370,Groningen,,Winschoten,9671,53.1434,7.0344
1371,Groningen,,Winschoten,9672,53.1426,7.0501
1372,Groningen,,Winschoten,9673,53.1358,7.0322
1373,Groningen,,Winschoten,9674,53.1457,7.0189
1374,Groningen,,Winschoten,9675,53.1536,7.032
1375,Groningen,,Heiligerlee,9677,53.1567,7.0106
1376,Groningen,,Westerlee,9678,53.1461,6.9883
1377,Groningen,,Scheemda,9679,53.1736,6.9739
1378,Groningen,,Midwolda,9681,53.1924,7.0131
1379,Groningen,,Oostwold,9682,53.1985,7.0475
1380,Groningen,,Finsterwolde,9684,53.1965,7.0909
1381,Groningen,,Blauwestad,9685,53.1713,7.047
1382,Groningen,,Beerta,9686,53.1744,7.0937
1383,Groningen,,Nieuw Beerta,9687,53.19,7.1621
1384,Groningen,,Drieborg,9688,53.2092,7.1819
1385,Groningen,,Oudezijl,9691,53.1881,7.2009
1386,Groningen,,Bad Nieuweschans,9693,53.1817,7.2081
1387,Groningen,,'t Waar,9942,53.2236,6.9483
1388,Groningen,,Nieuw Scheemda,9943,53.2107,6.9423
1389,Groningen,,Nieuwolda,9944,53.2442,6.9805
1390,Groningen,,Vlagtwedde,9541,53.0263,7.1146
1391,Groningen,,Bourtange,9545,53.0084,7.1864
1392,Groningen,,Sellingen,9551,52.9497,7.1371
1393,Groningen,,Ter Apel,9561,52.877,7.0594
1394,Groningen,,Ter Apelkanaal,9563,52.9146,7.0489
1395,Groningen,,Veelerveen,9566,53.0539,7.1294
1396,Groningen,,Bellingwolde,9695,53.1087,7.1642
1397,Groningen,,Oudeschans,9696,53.1441,7.1422
1398,Groningen,,Blijham,9697,53.1076,7.0751
1399,Groningen,,Wedde,9698,53.0741,7.0772
1400,Groningen,,Vriescheloo,9699,53.0742,7.1261
1401,Groningen,,Hoogezand,9601,53.1643,6.7589
1402,Groningen,,Hoogezand,9602,53.1533,6.7459
1403,Groningen,,Hoogezand,9603,53.1544,6.7653
1404,Groningen,,Kiel-Windeweer,9605,53.1143,6.777
1405,Groningen,,Kropswolde,9606,53.1432,6.7146
1406,Groningen,,Foxhol,9607,53.1685,6.7201
1407,Groningen,,Westerbroek,9608,53.1841,6.6843
1408,Groningen,,Waterhuizen,9609,53.1866,6.6483
1409,Groningen,,Sappemeer,9611,53.1638,6.7876
1410,Groningen,,Kolham,9615,53.1791,6.7418
1411,Groningen,,Scharmer,9616,53.1982,6.7067
1412,Groningen,,Harkstede,9617,53.212,6.6987
1413,Groningen,,Woudbloem,9618,53.2191,6.7399
1414,Groningen,,Froombosch,9619,53.1933,6.7794
1415,Groningen,,Slochteren,9621,53.2161,6.7985
1416,Groningen,,Schildwolde,9621,53.2215,6.8052
1417,Groningen,,Lageland,9623,53.2395,6.7153
1418,Groningen,,Luddeweer,9624,53.2507,6.7386
1419,Groningen,,Overschild,9625,53.2764,6.7795
1420,Groningen,,Schildwolde,9626,53.2324,6.8109
1421,Groningen,,Hellum,9627,53.2403,6.8394
1422,Groningen,,Siddeburen,9628,53.2486,6.8681
1423,Groningen,,Steendam,9629,53.2721,6.8407
1424,Groningen,,Borgercompagnie,9632,53.1337,6.8069
1425,Groningen,,Tripscompagnie,9633,53.1425,6.8253
1426,Groningen,,Noordbroek,9635,53.1951,6.87
1427,Groningen,,Zuidbroek,9636,53.1649,6.862
1428,Groningen,,Muntendam,9649,53.1339,6.869
1429,Groningen,,Meeden,9651,53.1372,6.924
1430,Groningen,,Tjuchem,9939,53.278,6.8802
1431,Groningen,,Sauwerd,9771,53.2935,6.5355
1432,Groningen,,Wetsinge,9773,53.303,6.5312
1433,Groningen,,Adorp,9774,53.2753,6.5341
1434,Groningen,,Bedum,9781,53.3005,6.6018
1435,Groningen,,Noordwolde,9784,53.2751,6.587
1436,Groningen,,Zuidwolde,9785,53.2619,6.5928
1437,Groningen,,Zuurdijk,9883,53.3147,6.3558
1438,Groningen,,Startenhuizen,9925,53.3759,6.7118
1439,Groningen,,Winsum,9951,53.3311,6.5216
1440,Groningen,,Baflo,9953,53.3614,6.5152
1441,Groningen,,Tinallinge,9954,53.355,6.5404
1442,Groningen,,Rasquert,9955,53.3686,6.5182
1443,Groningen,,Den Andel,9956,53.3926,6.513
1444,Groningen,,Saaxumhuizen,9957,53.3815,6.4857
1445,Groningen,,Onderdendam,9959,53.334,6.5872
1446,Groningen,,Mensingeweer,9961,53.3494,6.4648
1447,Groningen,,Schouwerzijl,9962,53.3313,6.4491
1448,Groningen,,Warfhuizen,9963,53.3391,6.4243
1449,Groningen,,Wehe-den Hoorn,9964,53.3589,6.4198
1450,Groningen,,Leens,9965,53.3594,6.38
1451,Groningen,,Zuurdijk,9965,53.3506,6.3691
1452,Groningen,,Zuurdijk,9966,53.3366,6.3779
1453,Groningen,,Eenrum,9967,53.3632,6.4599
1454,Groningen,,Pieterburen,9968,53.3999,6.4475
1455,Groningen,,Westernieland,9969,53.4025,6.4814
1456,Groningen,,Ulrum,9971,53.359,6.3348
1457,Groningen,,Niekerk,9972,53.3417,6.3281
1458,Groningen,,Houwerzijl,9973,53.3365,6.3408
1459,Groningen,,Zoutkamp,9974,53.3385,6.3041
1460,Groningen,,Vierhuizen,9975,53.3622,6.2944
1461,Groningen,,Lauwersoog,9976,53.3974,6.2139
1462,Groningen,,Kloosterburen,9977,53.3878,6.3895
1463,Groningen,,Hornhuizen,9978,53.3872,6.3536
1464,Groningen,,Eemshaven,9979,53.4439,6.8297
1465,Groningen,,Uithuizen,9981,53.408,6.6731
1466,Groningen,,Uithuizermeeden,9982,53.4157,6.7272
1467,Groningen,,Roodeschool,9983,53.4193,6.7708
1468,Groningen,,Oudeschip,9984,53.4302,6.8162
1469,Groningen,,Oosternieland,9985,53.4025,6.752
1470,Groningen,,Oldenzijl,9986,53.3932,6.7183
1471,Groningen,,Usquert,9988,53.4039,6.6118
1472,Groningen,,Warffum,9989,53.392,6.5577
1473,Groningen,,Kantens,9995,53.3652,6.6337
1474,Groningen,,Eppenhuizen,9996,53.3796,6.6959
1475,Groningen,,Zandeweer,9997,53.3875,6.6798
1476,Groningen,,Rottum,9998,53.3826,6.621
1477,Groningen,,Stitswerd,9999,53.3606,6.5981
1478,Groningen,,Leek,9351,53.1605,6.3773
1479,Groningen,,Zevenhuizen,9354,53.1221,6.344
1480,Groningen,,Midwolde,9355,53.1905,6.3867
1481,Groningen,,Tolbert,9356,53.1664,6.3621
1482,Groningen,,Boerakker,9359,53.1969,6.3378
1483,Groningen,,Boerakker,9361,53.1851,6.333
1484,Groningen,,Boerakker,9362,53.1863,6.3266
1485,Groningen,,Marum,9363,53.1434,6.2635
1486,Groningen,,Nuis,9364,53.151,6.303
1487,Groningen,,Niebert,9365,53.1571,6.3265
1488,Groningen,,Jonkersvaart,9366,53.1307,6.3107
1489,Groningen,,De Wilp,9367,53.1184,6.259
1490,Groningen,,Zuidhorn,9801,53.2462,6.4021
1491,Groningen,,Noordhorn,9804,53.2613,6.3952
1492,Groningen,,Briltil,9805,53.2408,6.3905
1493,Groningen,,Enumatil,9811,53.2155,6.4099
1494,Groningen,,Enumatil,9812,53.2163,6.408
1495,Groningen,,Oldekerk,9821,53.2222,6.3364
1496,Groningen,,Niekerk,9822,53.2258,6.3552
1497,Groningen,,Noordwijk,9824,53.1683,6.2552
1498,Groningen,,Lucaswolde,9825,53.1842,6.2962
1499,Groningen,,Lettelbert,9827,53.1928,6.4154
1500,Groningen,,Oostwold,9828,53.2024,6.4422
1501,Groningen,,Aduard,9831,53.2559,6.4605
1502,Groningen,,Den Horn,9832,53.2267,6.452
1503,Groningen,,Den Ham,9833,53.2703,6.4438
1504,Groningen,,Niezijl,9841,53.2676,6.3467
1505,Groningen,,Niezijl,9842,53.267,6.34
1506,Groningen,,Grijpskerk,9843,53.2622,6.3062
1507,Groningen,,Pieterzijl,9844,53.2827,6.2699
1508,Groningen,,Visvliet,9845,53.2651,6.2496
1509,Groningen,,Grootegast,9861,53.2123,6.2748
1510,Groningen,,Sebaldeburen,9862,53.2209,6.3075
1511,Groningen,,Doezum,9863,53.2003,6.2476
1512,Groningen,,Kornhorn,9864,53.1814,6.2442
1513,Groningen,,Opende,9865,53.1693,6.2004
1514,Groningen,,Lutjegast,9866,53.2347,6.2586
1515,Groningen,,Kommerzijl,9881,53.2867,6.3212
1516,Groningen,,Kommerzijl,9882,53.2868,6.3264
1517,Groningen,,Oldehove,9883,53.3022,6.3938
1518,Groningen,,Niehove,9884,53.2892,6.362
1519,Groningen,,Lauwerzijl,9885,53.3128,6.3045
1520,Groningen,,Saaksum,9886,53.3144,6.4189
1521,Groningen,,Ezinge,9891,53.3087,6.4432
1522,Groningen,,Feerwerd,9892,53.3047,6.4685
1523,Groningen,,Garnwerd,9893,53.3007,6.4928
1524,Limburg,,Landgraaf,6371,50.9013,6.0158
1525,Limburg,,Landgraaf,6371,50.9013,6.0158
1526,Limburg,,Landgraaf,6372,50.8877,6.0158
1527,Limburg,,Landgraaf,6372,50.8877,6.0158
1528,Limburg,,Landgraaf,6373,50.9074,6.0303
1529,Limburg,,Landgraaf,6373,50.9074,6.0303
1530,Limburg,,Landgraaf,6374,50.9156,6.0481
1531,Limburg,,Landgraaf,6374,50.9156,6.0481
1532,Limburg,,Spaubeek,6176,50.9401,5.8391
1533,Limburg,,Spaubeek,6176,50.9401,5.8391
1534,Limburg,,Beek,6191,50.941,5.8016
1535,Limburg,,Beek,6191,50.941,5.8016
1536,Limburg,,Maastricht-Airport,6199,50.9215,5.7775
1537,Limburg,,Maastricht-Airport,6199,50.9215,5.7775
1538,Limburg,,Reuver,5953,51.283,6.0789
1539,Limburg,,Reuver,5953,51.283,6.0789
1540,Limburg,,Beesel,5954,51.2673,6.0422
1541,Limburg,,Beesel,5954,51.2673,6.0422
1542,Limburg,,Afferden L,5851,51.6354,6.0159
1543,Limburg,,Afferden L,5851,51.6354,6.0159
1544,Limburg,,Siebengewald,5853,51.6505,6.0982
1545,Limburg,,Siebengewald,5853,51.6505,6.0982
1546,Limburg,,Bergen L,5854,51.6028,6.0524
1547,Limburg,,Bergen L,5854,51.6028,6.0524
1548,Limburg,,Well L,5855,51.5583,6.0896
1549,Limburg,,Well L,5855,51.5583,6.0896
1550,Limburg,,Wellerlooi,5856,51.5353,6.1428
1551,Limburg,,Wellerlooi,5856,51.5353,6.1428
1552,Limburg,,Brunssum,6441,50.9499,5.9665
1553,Limburg,,Brunssum,6441,50.9499,5.9665
1554,Limburg,,Brunssum,6442,50.9515,5.98
1555,Limburg,,Brunssum,6442,50.9515,5.98
1556,Limburg,,Brunssum,6443,50.9414,5.9761
1557,Limburg,,Brunssum,6443,50.9414,5.9761
1558,Limburg,,Brunssum,6444,50.9413,5.9596
1559,Limburg,,Brunssum,6444,50.9413,5.9596
1560,Limburg,,Brunssum,6445,50.9337,5.9751
1561,Limburg,,Brunssum,6445,50.9337,5.9751
1562,Limburg,,Brunssum,6446,50.9342,5.9427
1563,Limburg,,Brunssum,6446,50.9342,5.9427
1564,Limburg,,Gennep,6591,51.6954,5.977
1565,Limburg,,Gennep,6591,51.6954,5.977
1566,Limburg,,Ottersum,6595,51.7048,5.9874
1567,Limburg,,Ottersum,6595,51.7048,5.9874
1568,Limburg,,Milsbeek,6596,51.7264,5.9481
1569,Limburg,,Milsbeek,6596,51.7264,5.9481
1570,Limburg,,Heijen,6598,51.6729,5.9911
1571,Limburg,,Heijen,6598,51.6729,5.9911
1572,Limburg,,Ven-Zelderheide,6599,51.7134,6.0216
1573,Limburg,,Ven-Zelderheide,6599,51.7134,6.0216
1574,Limburg,,Heerlen,6411,50.8875,5.9756
1575,Limburg,,Heerlen,6411,50.8875,5.9756
1576,Limburg,,Heerlen,6412,50.8972,5.9683
1577,Limburg,,Heerlen,6412,50.8972,5.9683
1578,Limburg,,Heerlen,6413,50.9157,5.9551
1579,Limburg,,Heerlen,6413,50.9157,5.9551
1580,Limburg,,Heerlen,6414,50.9212,5.9696
1581,Limburg,,Heerlen,6414,50.9212,5.9696
1582,Limburg,,Heerlen,6415,50.8967,5.9893
1583,Limburg,,Heerlen,6415,50.8967,5.9893
1584,Limburg,,Heerlen,6416,50.8839,5.9965
1585,Limburg,,Heerlen,6416,50.8839,5.9965
1586,Limburg,,Heerlen,6417,50.8751,5.9821
1587,Limburg,,Heerlen,6417,50.8751,5.9821
1588,Limburg,,Heerlen,6418,50.8685,6.0048
1589,Limburg,,Heerlen,6418,50.8685,6.0048
1590,Limburg,,Heerlen,6419,50.8757,5.9659
1591,Limburg,,Heerlen,6419,50.8757,5.9659
1592,Limburg,,Heerlen,6421,50.9276,5.9518
1593,Limburg,,Heerlen,6421,50.9276,5.9518
1594,Limburg,,Heerlen,6422,50.8453,6.0025
1595,Limburg,,Heerlen,6422,50.8453,6.0025
1596,Limburg,,Hoensbroek,6431,50.9257,5.9306
1597,Limburg,,Hoensbroek,6431,50.9257,5.9306
1598,Limburg,,Hoensbroek,6432,50.9225,5.9166
1599,Limburg,,Hoensbroek,6432,50.9225,5.9166
1600,Limburg,,Hoensbroek,6433,50.9124,5.9287
1601,Limburg,,Hoensbroek,6433,50.9124,5.9287
1602,Limburg,,Kerkrade,6461,50.8642,6.0679
1603,Limburg,,Kerkrade,6461,50.8642,6.0679
1604,Limburg,,Kerkrade,6462,50.8543,6.069
1605,Limburg,,Kerkrade,6462,50.8543,6.069
1606,Limburg,,Kerkrade,6463,50.8732,6.0668
1607,Limburg,,Kerkrade,6463,50.8732,6.0668
1608,Limburg,,Kerkrade,6464,50.8806,6.0703
1609,Limburg,,Kerkrade,6464,50.8806,6.0703
1610,Limburg,,Kerkrade,6465,50.8503,6.0239
1611,Limburg,,Kerkrade,6465,50.8503,6.0239
1612,Limburg,,Kerkrade,6466,50.8594,6.0274
1613,Limburg,,Kerkrade,6466,50.8594,6.0274
1614,Limburg,,Kerkrade,6467,50.8664,6.0258
1615,Limburg,,Kerkrade,6467,50.8664,6.0258
1616,Limburg,,Kerkrade,6468,50.8754,6.0472
1617,Limburg,,Kerkrade,6468,50.8754,6.0472
1618,Limburg,,Kerkrade,6469,50.892,6.0464
1619,Limburg,,Kerkrade,6469,50.892,6.0464
1620,Limburg,,Eygelshoven,6471,50.8932,6.0589
1621,Limburg,,Eygelshoven,6471,50.8932,6.0589
1622,Limburg,,Maastricht,6211,50.8502,5.688
1623,Limburg,,Maastricht,6211,50.8502,5.688
1624,Limburg,,Maastricht,6212,50.8381,5.6898
1625,Limburg,,Maastricht,6212,50.8381,5.6898
1626,Limburg,,Maastricht,6213,50.8381,5.6666
1627,Limburg,,Maastricht,6213,50.8381,5.6666
1628,Limburg,,Maastricht,6214,50.8459,5.6742
1629,Limburg,,Maastricht,6214,50.8459,5.6742
1630,Limburg,,Maastricht,6215,50.8413,5.6502
1631,Limburg,,Maastricht,6215,50.8413,5.6502
1632,Limburg,,Maastricht,6216,50.849,5.6589
1633,Limburg,,Maastricht,6216,50.849,5.6589
1634,Limburg,,Maastricht,6217,50.8562,5.6694
1635,Limburg,,Maastricht,6217,50.8562,5.6694
1636,Limburg,,Maastricht,6218,50.8636,5.6572
1637,Limburg,,Maastricht,6218,50.8636,5.6572
1638,Limburg,,Maastricht,6219,50.8641,5.688
1639,Limburg,,Maastricht,6219,50.8641,5.688
1640,Limburg,,Maastricht,6221,50.8474,5.703
1641,Limburg,,Maastricht,6221,50.8474,5.703
1642,Limburg,,Maastricht,6222,50.8654,5.712
1643,Limburg,,Maastricht,6222,50.8654,5.712
1644,Limburg,,Maastricht,6223,50.8844,5.6935
1645,Limburg,,Maastricht,6223,50.8844,5.6935
1646,Limburg,,Maastricht,6224,50.8504,5.7124
1647,Limburg,,Maastricht,6224,50.8504,5.7124
1648,Limburg,,Maastricht,6225,50.8624,5.7316
1649,Limburg,,Maastricht,6225,50.8624,5.7316
1650,Limburg,,Maastricht,6226,50.8483,5.7257
1651,Limburg,,Maastricht,6226,50.8483,5.7257
1652,Limburg,,Maastricht,6227,50.8384,5.7275
1653,Limburg,,Maastricht,6227,50.8384,5.7275
1654,Limburg,,Maastricht,6228,50.8268,5.7246
1655,Limburg,,Maastricht,6228,50.8268,5.7246
1656,Limburg,,Maastricht,6229,50.8297,5.7082
1657,Limburg,,Maastricht,6229,50.8297,5.7082
1658,Limburg,,Meerssen,6231,50.8848,5.7494
1659,Limburg,,Meerssen,6231,50.8848,5.7494
1660,Limburg,,Ulestraten,6235,50.905,5.7797
1661,Limburg,,Ulestraten,6235,50.905,5.7797
1662,Limburg,,Meerssen,6235,50.9013,5.794
1663,Limburg,,Meerssen,6235,50.9013,5.794
1664,Limburg,,Moorveld,6237,50.9196,5.7645
1665,Limburg,,Moorveld,6237,50.9196,5.7645
1666,Limburg,,Bunde,6241,50.8965,5.7331
1667,Limburg,,Bunde,6241,50.8965,5.7331
1668,Limburg,,Geulle,6243,50.9225,5.7502
1669,Limburg,,Geulle,6243,50.9225,5.7502
1670,Limburg,,Moorveld,6243,50.9155,5.7599
1671,Limburg,,Moorveld,6243,50.9155,5.7599
1672,Limburg,,Molenhoek,6584,51.7679,5.8745
1673,Limburg,,Molenhoek,6584,51.7679,5.8745
1674,Limburg,,Mook,6585,51.7524,5.885
1675,Limburg,,Mook,6585,51.7524,5.885
1676,Limburg,,Plasmolen,6586,51.737,5.9199
1677,Limburg,,Plasmolen,6586,51.737,5.9199
1678,Limburg,,Middelaar,6587,51.7266,5.9146
1679,Limburg,,Middelaar,6587,51.7266,5.9146
1680,Limburg,,Nederweert,6031,51.2855,5.7476
1681,Limburg,,Nederweert,6031,51.2855,5.7476
1682,Limburg,,Nederweert-Eind,6034,51.2773,5.7833
1683,Limburg,,Nederweert-Eind,6034,51.2773,5.7833
1684,Limburg,,Ospel,6035,51.303,5.7894
1685,Limburg,,Ospel,6035,51.303,5.7894
1686,Limburg,,Leveroy,6091,51.2496,5.8366
1687,Limburg,,Leveroy,6091,51.2496,5.8366
1688,Limburg,,Leveroy,6092,51.2495,5.8482
1689,Limburg,,Leveroy,6092,51.2495,5.8482
1690,Limburg,,Roermond,6041,51.1936,5.9864
1691,Limburg,,Roermond,6041,51.1936,5.9864
1692,Limburg,,Roermond,6042,51.1984,6.0118
1693,Limburg,,Roermond,6042,51.1984,6.0118
1694,Limburg,,Roermond,6043,51.1883,6.0089
1695,Limburg,,Roermond,6043,51.1883,6.0089
1696,Limburg,,Roermond,6044,51.1823,6.0092
1697,Limburg,,Roermond,6044,51.1823,6.0092
1698,Limburg,,Roermond,6045,51.1774,6.0049
1699,Limburg,,Roermond,6045,51.1774,6.0049
1700,Limburg,,Herten,6049,51.1769,5.9639
1701,Limburg,,Herten,6049,51.1769,5.9639
1702,Limburg,,Swalmen,6071,51.2309,6.0423
1703,Limburg,,Swalmen,6071,51.2309,6.0423
1704,Limburg,,Bocholtz,6351,50.8185,6.0051
1705,Limburg,,Bocholtz,6351,50.8185,6.0051
1706,Limburg,,Baneheide,6353,50.8185,5.9735
1707,Limburg,,Baneheide,6353,50.8185,5.9735
1708,Limburg,,Simpelveld,6369,50.8354,5.9804
1709,Limburg,,Simpelveld,6369,50.8354,5.9804
1710,Limburg,,Urmond,6129,50.996,5.7723
1711,Limburg,,Urmond,6129,50.996,5.7723
1712,Limburg,,Stein,6171,50.9686,5.7676
1713,Limburg,,Stein,6171,50.9686,5.7676
1714,Limburg,,Elsloo,6181,50.9505,5.7681
1715,Limburg,,Elsloo,6181,50.9505,5.7681
1716,Limburg,,Vaals,6291,50.772,6.0152
1717,Limburg,,Vaals,6291,50.772,6.0152
1718,Limburg,,Vijlen,6294,50.7856,5.9614
1719,Limburg,,Vijlen,6294,50.7856,5.9614
1720,Limburg,,Lemiers,6295,50.7847,5.9903
1721,Limburg,,Lemiers,6295,50.7847,5.9903
1722,Limburg,,Venlo,5911,51.371,6.1716
1723,Limburg,,Venlo,5911,51.371,6.1716
1724,Limburg,,Venlo,5912,51.3606,6.1659
1725,Limburg,,Venlo,5912,51.3606,6.1659
1726,Limburg,,Venlo,5913,51.3681,6.1844
1727,Limburg,,Venlo,5913,51.3681,6.1844
1728,Limburg,,Venlo,5914,51.3803,6.177
1729,Limburg,,Venlo,5914,51.3803,6.177
1730,Limburg,,Venlo,5915,51.3574,6.187
1731,Limburg,,Venlo,5915,51.3574,6.187
1732,Limburg,,Venlo,5916,51.386,6.195
1733,Limburg,,Venlo,5916,51.386,6.195
1734,Limburg,,Venlo,5921,51.3675,6.1476
1735,Limburg,,Venlo,5921,51.3675,6.1476
1736,Limburg,,Venlo,5922,51.3743,6.1429
1737,Limburg,,Venlo,5922,51.3743,6.1429
1738,Limburg,,Venlo,5923,51.3615,6.1417
1739,Limburg,,Venlo,5923,51.3615,6.1417
1740,Limburg,,Venlo,5924,51.3672,6.131
1741,Limburg,,Venlo,5924,51.3672,6.131
1742,Limburg,,Venlo,5925,51.376,6.129
1743,Limburg,,Venlo,5925,51.376,6.129
1744,Limburg,,Venlo,5926,51.358,6.1297
1745,Limburg,,Venlo,5926,51.358,6.1297
1746,Limburg,,Venlo,5927,51.3759,6.1161
1747,Limburg,,Venlo,5927,51.3759,6.1161
1748,Limburg,,Venlo,5928,51.3891,6.1328
1749,Limburg,,Venlo,5928,51.3891,6.1328
1750,Limburg,,Tegelen,5931,51.344,6.1402
1751,Limburg,,Tegelen,5931,51.344,6.1402
1752,Limburg,,Tegelen,5932,51.3337,6.152
1753,Limburg,,Tegelen,5932,51.3337,6.152
1754,Limburg,,Steyl,5935,51.3338,6.1279
1755,Limburg,,Steyl,5935,51.3338,6.1279
1756,Limburg,,Velden,5941,51.4146,6.1687
1757,Limburg,,Velden,5941,51.4146,6.1687
1758,Limburg,,Lomm,5943,51.4477,6.173
1759,Limburg,,Lomm,5943,51.4477,6.173
1760,Limburg,,Arcen,5944,51.4832,6.1907
1761,Limburg,,Arcen,5944,51.4832,6.1907
1762,Limburg,,Belfeld,5951,51.3114,6.1184
1763,Limburg,,Belfeld,5951,51.3114,6.1184
1764,Limburg,,Venray,5801,51.5237,5.9679
1765,Limburg,,Venray,5801,51.5237,5.9679
1766,Limburg,,Venray,5802,51.5224,5.9873
1767,Limburg,,Venray,5802,51.5224,5.9873
1768,Limburg,,Venray,5803,51.5322,5.9918
1769,Limburg,,Venray,5803,51.5322,5.9918
1770,Limburg,,Venray,5804,51.5366,5.9705
1771,Limburg,,Venray,5804,51.5366,5.9705
1772,Limburg,,Oostrum,5807,51.5278,6.0173
1773,Limburg,,Oostrum,5807,51.5278,6.0173
1774,Limburg,,Oirlo,5808,51.5096,6.0344
1775,Limburg,,Oirlo,5808,51.5096,6.0344
1776,Limburg,,Leunen,5809,51.5079,5.9788
1777,Limburg,,Leunen,5809,51.5079,5.9788
1778,Limburg,,Castenray,5811,51.4902,6.0333
1779,Limburg,,Castenray,5811,51.4902,6.0333
1780,Limburg,,Heide,5812,51.5054,5.9476
1781,Limburg,,Heide,5812,51.5054,5.9476
1782,Limburg,,Ysselsteyn,5813,51.488,5.8979
1783,Limburg,,Ysselsteyn,5813,51.488,5.8979
1784,Limburg,,Veulen,5814,51.4817,5.957
1785,Limburg,,Veulen,5814,51.4817,5.957
1786,Limburg,,Merselo,5815,51.5302,5.9278
1787,Limburg,,Merselo,5815,51.5302,5.9278
1788,Limburg,,Vredepeel,5816,51.5475,5.8666
1789,Limburg,,Vredepeel,5816,51.5475,5.8666
1790,Limburg,,Smakt,5817,51.5641,6.0037
1791,Limburg,,Smakt,5817,51.5641,6.0037
1792,Limburg,,Wanssum,5861,51.5356,6.0757
1793,Limburg,,Wanssum,5861,51.5356,6.0757
1794,Limburg,,Geijsteren,5862,51.5505,6.0484
1795,Limburg,,Geijsteren,5862,51.5505,6.0484
1796,Limburg,,Blitterswijck,5863,51.5289,6.108
1797,Limburg,,Blitterswijck,5863,51.5289,6.108
1798,Limburg,,Ransdaal,6311,50.8645,5.8911
1799,Limburg,,Ransdaal,6311,50.8645,5.8911
1800,Limburg,,Ransdaal,6312,50.8632,5.8926
1801,Limburg,,Ransdaal,6312,50.8632,5.8926
1802,Limburg,,Klimmen,6343,50.8777,5.8855
1803,Limburg,,Klimmen,6343,50.8777,5.8855
1804,Limburg,,Voerendaal,6367,50.8739,5.9331
1805,Limburg,,Voerendaal,6367,50.8739,5.9331
1806,Limburg,,Weert,6001,51.254,5.7062
1807,Limburg,,Weert,6001,51.254,5.7062
1808,Limburg,,Weert,6002,51.2592,5.6784
1809,Limburg,,Weert,6002,51.2592,5.6784
1810,Limburg,,Weert,6003,51.2668,5.7082
1811,Limburg,,Weert,6003,51.2668,5.7082
1812,Limburg,,Weert,6004,51.2542,5.7269
1813,Limburg,,Weert,6004,51.2542,5.7269
1814,Limburg,,Weert,6005,51.2342,5.7338
1815,Limburg,,Weert,6005,51.2342,5.7338
1816,Limburg,,Weert,6006,51.2409,5.6999
1817,Limburg,,Weert,6006,51.2409,5.6999
1818,Limburg,,Stramproy,6039,51.194,5.7155
1819,Limburg,,Stramproy,6039,51.194,5.7155
1820,Limburg,,Valkenburg,6301,50.865,5.8264
1821,Limburg,,Valkenburg,6301,50.865,5.8264
1822,Limburg,,Schin op Geul,6305,50.8522,5.8686
1823,Limburg,,Schin op Geul,6305,50.8522,5.8686
1824,Limburg,,Berg en Terblijt,6325,50.8609,5.7887
1825,Limburg,,Berg en Terblijt,6325,50.8609,5.7887
1826,Limburg,,Walem,6341,50.8639,5.8701
1827,Limburg,,Walem,6341,50.8639,5.8701
1828,Limburg,,Walem,6342,50.8608,5.8661
1829,Limburg,,Walem,6342,50.8608,5.8661
1830,Limburg,,Griendtsveen,5766,51.4434,5.8846
1831,Limburg,,Griendtsveen,5766,51.4434,5.8846
1832,Limburg,,Meerlo,5864,51.5122,6.0857
1833,Limburg,,Meerlo,5864,51.5122,6.0857
1834,Limburg,,Tienray,5865,51.4946,6.0944
1835,Limburg,,Tienray,5865,51.4946,6.0944
1836,Limburg,,Swolgen,5866,51.4931,6.1191
1837,Limburg,,Swolgen,5866,51.4931,6.1191
1838,Limburg,,Broekhuizenvorst,5871,51.4959,6.157
1839,Limburg,,Broekhuizenvorst,5871,51.4959,6.157
1840,Limburg,,Broekhuizen,5872,51.4843,6.1601
1841,Limburg,,Broekhuizen,5872,51.4843,6.1601
1842,Limburg,,Horst,5961,51.4544,6.0523
1843,Limburg,,Horst,5961,51.4544,6.0523
1844,Limburg,,Melderslo,5962,51.4611,6.0862
1845,Limburg,,Melderslo,5962,51.4611,6.0862
1846,Limburg,,Hegelsom,5963,51.4371,6.0392
1847,Limburg,,Hegelsom,5963,51.4371,6.0392
1848,Limburg,,Meterik,5964,51.4535,6.0223
1849,Limburg,,Meterik,5964,51.4535,6.0223
1850,Limburg,,America,5966,51.4458,5.9652
1851,Limburg,,America,5966,51.4458,5.9652
1852,Limburg,,Grubbenvorst,5971,51.4198,6.1408
1853,Limburg,,Grubbenvorst,5971,51.4198,6.1408
1854,Limburg,,Lottum,5973,51.459,6.154
1855,Limburg,,Lottum,5973,51.459,6.154
1856,Limburg,,Sevenum,5975,51.4084,6.0328
1857,Limburg,,Sevenum,5975,51.4084,6.0328
1858,Limburg,,Kronenberg,5976,51.4158,5.9982
1859,Limburg,,Kronenberg,5976,51.4158,5.9982
1860,Limburg,,Evertsoord,5977,51.4019,5.9505
1861,Limburg,,Evertsoord,5977,51.4019,5.9505
1862,Limburg,,Ell,6011,51.2191,5.7948
1863,Limburg,,Ell,6011,51.2191,5.7948
1864,Limburg,,Haler,6012,51.1892,5.7804
1865,Limburg,,Haler,6012,51.1892,5.7804
1866,Limburg,,Hunsel,6013,51.1901,5.8112
1867,Limburg,,Hunsel,6013,51.1901,5.8112
1868,Limburg,,Ittervoort,6014,51.1723,5.8217
1869,Limburg,,Ittervoort,6014,51.1723,5.8217
1870,Limburg,,Neeritter,6015,51.1652,5.802
1871,Limburg,,Neeritter,6015,51.1652,5.802
1872,Limburg,,Kelpen-Oler,6037,51.2213,5.8261
1873,Limburg,,Kelpen-Oler,6037,51.2213,5.8261
1874,Limburg,,Haelen,6081,51.2341,5.9547
1875,Limburg,,Haelen,6081,51.2341,5.9547
1876,Limburg,,Buggenum,6082,51.2334,5.9776
1877,Limburg,,Buggenum,6082,51.2334,5.9776
1878,Limburg,,Nunhem,6083,51.2449,5.9621
1879,Limburg,,Nunhem,6083,51.2449,5.9621
1880,Limburg,,Horn,6085,51.2114,5.9424
1881,Limburg,,Horn,6085,51.2114,5.9424
1882,Limburg,,Neer,6086,51.2628,5.9879
1883,Limburg,,Neer,6086,51.2628,5.9879
1884,Limburg,,Roggel,6088,51.2667,5.9261
1885,Limburg,,Roggel,6088,51.2667,5.9261
1886,Limburg,,Heibloem,6089,51.2989,5.8975
1887,Limburg,,Heibloem,6089,51.2989,5.8975
1888,Limburg,,Heythuysen,6093,51.2514,5.8931
1889,Limburg,,Heythuysen,6093,51.2514,5.8931
1890,Limburg,,Baexem,6095,51.2269,5.8809
1891,Limburg,,Baexem,6095,51.2269,5.8809
1892,Limburg,,Grathem,6096,51.1949,5.8579
1893,Limburg,,Grathem,6096,51.1949,5.8579
1894,Limburg,,Thorn,6017,51.1639,5.8412
1895,Limburg,,Thorn,6017,51.1639,5.8412
1896,Limburg,,Wessem,6019,51.1619,5.8801
1897,Limburg,,Wessem,6019,51.1619,5.8801
1898,Limburg,,Maasbracht,6051,51.1433,5.891
1899,Limburg,,Maasbracht,6051,51.1433,5.891
1900,Limburg,,Linne,6067,51.155,5.9384
1901,Limburg,,Linne,6067,51.155,5.9384
1902,Limburg,,Heel,6097,51.1821,5.8915
1903,Limburg,,Heel,6097,51.1821,5.8915
1904,Limburg,,Beegden,6099,51.1901,5.9174
1905,Limburg,,Beegden,6099,51.1901,5.9174
1906,Limburg,,Stevensweert,6107,51.1306,5.8497
1907,Limburg,,Stevensweert,6107,51.1306,5.8497
1908,Limburg,,Ohé en Laak,6109,51.1129,5.8309
1909,Limburg,,Ohé en Laak,6109,51.1129,5.8309
1910,Limburg,,Posterholt,6061,51.1222,6.0312
1911,Limburg,,Posterholt,6061,51.1222,6.0312
1912,Limburg,,Vlodrop,6063,51.1356,6.0831
1913,Limburg,,Vlodrop,6063,51.1356,6.0831
1914,Limburg,,Montfort,6065,51.1275,5.9479
1915,Limburg,,Montfort,6065,51.1275,5.9479
1916,Limburg,,Melick,6074,51.16,6.017
1917,Limburg,,Melick,6074,51.16,6.017
1918,Limburg,,Herkenbosch,6075,51.1557,6.069
1919,Limburg,,Herkenbosch,6075,51.1557,6.069
1920,Limburg,,Sint Odiliënberg,6077,51.1423,6.001
1921,Limburg,,Sint Odiliënberg,6077,51.1423,6.001
1922,Limburg,,Echt,6101,51.1056,5.8743
1923,Limburg,,Echt,6101,51.1056,5.8743
1924,Limburg,,Echt,6102,51.0957,5.8915
1925,Limburg,,Echt,6102,51.0957,5.8915
1926,Limburg,,Koningsbosch,6104,51.0534,5.9522
1927,Limburg,,Koningsbosch,6104,51.0534,5.9522
1928,Limburg,,Maria Hoop,6105,51.0885,5.9682
1929,Limburg,,Maria Hoop,6105,51.0885,5.9682
1930,Limburg,,Sint Joost,6111,51.1144,5.9004
1931,Limburg,,Sint Joost,6111,51.1144,5.9004
1932,Limburg,,Sint Joost,6112,51.1181,5.9007
1933,Limburg,,Sint Joost,6112,51.1181,5.9007
1934,Limburg,,Susteren,6114,51.0664,5.8595
1935,Limburg,,Susteren,6114,51.0664,5.8595
1936,Limburg,,Roosteren,6116,51.0811,5.8165
1937,Limburg,,Roosteren,6116,51.0811,5.8165
1938,Limburg,,Nieuwstadt,6118,51.0372,5.8621
1939,Limburg,,Nieuwstadt,6118,51.0372,5.8621
1940,Limburg,,Gulpen,6271,50.8137,5.8881
1941,Limburg,,Gulpen,6271,50.8137,5.8881
1942,Limburg,,Ingber,6273,50.8175,5.8595
1943,Limburg,,Ingber,6273,50.8175,5.8595
1944,Limburg,,Reijmerstok,6274,50.7997,5.8386
1945,Limburg,,Reijmerstok,6274,50.7997,5.8386
1946,Limburg,,Heijenrath,6276,50.7755,5.8757
1947,Limburg,,Heijenrath,6276,50.7755,5.8757
1948,Limburg,,Slenaken,6277,50.769,5.8588
1949,Limburg,,Slenaken,6277,50.769,5.8588
1950,Limburg,,Beutenaken,6278,50.7821,5.8556
1951,Limburg,,Beutenaken,6278,50.7821,5.8556
1952,Limburg,,Mechelen,6281,50.7932,5.9252
1953,Limburg,,Mechelen,6281,50.7932,5.9252
1954,Limburg,,Epen,6285,50.7726,5.9104
1955,Limburg,,Epen,6285,50.7726,5.9104
1956,Limburg,,Wittem,6286,50.8096,5.9376
1957,Limburg,,Wittem,6286,50.8096,5.9376
1958,Limburg,,Eys,6287,50.8268,5.9404
1959,Limburg,,Eys,6287,50.8268,5.9404
1960,Limburg,,Elkenrade,6289,50.8413,5.9193
1961,Limburg,,Elkenrade,6289,50.8413,5.9193
1962,Limburg,,Wijlre,6321,50.8361,5.892
1963,Limburg,,Wijlre,6321,50.8361,5.892
1964,Limburg,,Born,6121,51.0335,5.81
1965,Limburg,,Born,6121,51.0335,5.81
1966,Limburg,,Buchten,6122,51.0423,5.8106
1967,Limburg,,Buchten,6122,51.0423,5.8106
1968,Limburg,,Holtum,6123,51.0477,5.8213
1969,Limburg,,Holtum,6123,51.0477,5.8213
1970,Limburg,,Papenhoven,6124,51.0418,5.784
1971,Limburg,,Papenhoven,6124,51.0418,5.784
1972,Limburg,,Obbicht,6125,51.028,5.7811
1973,Limburg,,Obbicht,6125,51.028,5.7811
1974,Limburg,,Grevenbicht,6127,51.0401,5.7738
1975,Limburg,,Grevenbicht,6127,51.0401,5.7738
1976,Limburg,,Sittard,6131,50.9987,5.8662
1977,Limburg,,Sittard,6131,50.9987,5.8662
1978,Limburg,,Sittard,6132,50.9921,5.8859
1979,Limburg,,Sittard,6132,50.9921,5.8859
1980,Limburg,,Sittard,6133,50.988,5.8597
1981,Limburg,,Sittard,6133,50.988,5.8597
1982,Limburg,,Sittard,6134,50.9905,5.8506
1983,Limburg,,Sittard,6134,50.9905,5.8506
1984,Limburg,,Sittard,6135,51.0079,5.8537
1985,Limburg,,Sittard,6135,51.0079,5.8537
1986,Limburg,,Sittard,6136,51.0073,5.8717
1987,Limburg,,Sittard,6136,51.0073,5.8717
1988,Limburg,,Sittard,6137,51.0005,5.8882
1989,Limburg,,Sittard,6137,51.0005,5.8882
1990,Limburg,,Limbricht,6141,51.0119,5.8376
1991,Limburg,,Limbricht,6141,51.0119,5.8376
1992,Limburg,,Einighausen,6142,51.0004,5.8274
1993,Limburg,,Einighausen,6142,51.0004,5.8274
1994,Limburg,,Guttecoven,6143,51.0143,5.8189
1995,Limburg,,Guttecoven,6143,51.0143,5.8189
1996,Limburg,,Munstergeleen,6151,50.9746,5.8642
1997,Limburg,,Munstergeleen,6151,50.9746,5.8642
1998,Limburg,,Windraak,6153,50.9727,5.8869
1999,Limburg,,Windraak,6153,50.9727,5.8869
2000,Limburg,,Geleen,6161,50.9676,5.8235
2001,Limburg,,Geleen,6161,50.9676,5.8235
2002,Limburg,,Geleen,6162,50.9763,5.833
2003,Limburg,,Geleen,6162,50.9763,5.833
2004,Limburg,,Geleen,6163,50.9833,5.8195
2005,Limburg,,Geleen,6163,50.9833,5.8195
2006,Limburg,,Geleen,6164,50.9555,5.8283
2007,Limburg,,Geleen,6164,50.9555,5.8283
2008,Limburg,,Geleen,6165,50.9621,5.8283
2009,Limburg,,Geleen,6165,50.9621,5.8283
2010,Limburg,,Geleen,6166,50.9718,5.8413
2011,Limburg,,Geleen,6166,50.9718,5.8413
2012,Limburg,,Geleen,6167,50.9892,5.798
2013,Limburg,,Geleen,6167,50.9892,5.798
2014,Limburg,,Meijel,5768,51.3433,5.8831
2015,Limburg,,Meijel,5768,51.3433,5.8831
2016,Limburg,,Panningen,5981,51.3276,5.9795
2017,Limburg,,Panningen,5981,51.3276,5.9795
2018,Limburg,,Koningslust,5984,51.3578,5.9947
2019,Limburg,,Koningslust,5984,51.3578,5.9947
2020,Limburg,,Grashoek,5985,51.3622,5.9403
2021,Limburg,,Grashoek,5985,51.3622,5.9403
2022,Limburg,,Beringe,5986,51.3365,5.9428
2023,Limburg,,Beringe,5986,51.3365,5.9428
2024,Limburg,,Egchel,5987,51.3138,5.9718
2025,Limburg,,Egchel,5987,51.3138,5.9718
2026,Limburg,,Helden,5988,51.3219,5.9986
2027,Limburg,,Helden,5988,51.3219,5.9986
2028,Limburg,,Baarlo,5991,51.33,6.0934
2029,Limburg,,Baarlo,5991,51.33,6.0934
2030,Limburg,,Maasbree,5993,51.3607,6.0473
2031,Limburg,,Maasbree,5993,51.3607,6.0473
2032,Limburg,,Kessel,5995,51.292,6.0477
2033,Limburg,,Kessel,5995,51.292,6.0477
2034,Limburg,,Eijsden,6245,50.779,5.7131
2035,Limburg,,Eijsden,6245,50.779,5.7131
2036,Limburg,,Gronsveld,6247,50.8073,5.7295
2037,Limburg,,Gronsveld,6247,50.8073,5.7295
2038,Limburg,,Eckelrade,6251,50.8071,5.7661
2039,Limburg,,Eckelrade,6251,50.8071,5.7661
2040,Limburg,,Eckelrade,6252,50.8053,5.7654
2041,Limburg,,Eckelrade,6252,50.8053,5.7654
2042,Limburg,,Noorbeek,6255,50.772,5.8194
2043,Limburg,,Noorbeek,6255,50.772,5.8194
2044,Limburg,,Mheer,6261,50.7816,5.7934
2045,Limburg,,Mheer,6261,50.7816,5.7934
2046,Limburg,,Banholt,6262,50.7902,5.8085
2047,Limburg,,Banholt,6262,50.7902,5.8085
2048,Limburg,,Sint Geertruid,6265,50.7955,5.77
2049,Limburg,,Sint Geertruid,6265,50.7955,5.77
2050,Limburg,,Cadier en Keer,6267,50.83,5.7644
2051,Limburg,,Cadier en Keer,6267,50.83,5.7644
2052,Limburg,,Bemelen,6268,50.8455,5.7715
2053,Limburg,,Bemelen,6268,50.8455,5.7715
2054,Limburg,,Margraten,6269,50.8215,5.8218
2055,Limburg,,Margraten,6269,50.8215,5.8218
2056,Limburg,,Scheulder,6307,50.8289,5.844
2057,Limburg,,Scheulder,6307,50.8289,5.844
2058,Limburg,,Puth,6155,50.9538,5.8723
2059,Limburg,,Puth,6155,50.9538,5.8723
2060,Limburg,,Sweikhuizen,6174,50.9536,5.8482
2061,Limburg,,Sweikhuizen,6174,50.9536,5.8482
2062,Limburg,,Schimmert,6333,50.9037,5.8213
2063,Limburg,,Schimmert,6333,50.9037,5.8213
2064,Limburg,,Hulsberg,6336,50.8898,5.8539
2065,Limburg,,Hulsberg,6336,50.8898,5.8539
2066,Limburg,,Nuth,6361,50.9183,5.8866
2067,Limburg,,Nuth,6361,50.9183,5.8866
2068,Limburg,,Wijnandsrade,6363,50.9058,5.8865
2069,Limburg,,Wijnandsrade,6363,50.9058,5.8865
2070,Limburg,,Schinnen,6365,50.9411,5.8824
2071,Limburg,,Schinnen,6365,50.9411,5.8824
2072,Limburg,,Amstenrade,6436,50.9393,5.922
2073,Limburg,,Amstenrade,6436,50.9393,5.922
2074,Limburg,,Oirsbeek,6438,50.9494,5.9109
2075,Limburg,,Oirsbeek,6438,50.9494,5.9109
2076,Limburg,,Doenrade,6439,50.9671,5.908
2077,Limburg,,Doenrade,6439,50.9671,5.908
2078,Limburg,,Merkelbeek,6447,50.9551,5.9354
2079,Limburg,,Merkelbeek,6447,50.9551,5.9354
2080,Limburg,,Schinveld,6451,50.9685,5.9816
2081,Limburg,,Schinveld,6451,50.9685,5.9816
2082,Limburg,,Jabeek,6454,50.98,5.9412
2083,Limburg,,Jabeek,6454,50.98,5.9412
2084,Limburg,,Bingelrade,6456,50.9702,5.937
2085,Limburg,,Bingelrade,6456,50.9702,5.937
2086,Noord-Brabant,,Asten,5721,51.4046,5.7512
2087,Noord-Brabant,,Asten,5722,51.4097,5.7606
2088,Noord-Brabant,,Ommel,5724,51.4247,5.7434
2089,Noord-Brabant,,Heusden,5725,51.3805,5.7684
2090,Noord-Brabant,,Baarle-Nassau,5111,51.4398,4.9325
2091,Noord-Brabant,,Ulicoten,5113,51.4551,4.8625
2092,Noord-Brabant,,Castelre,5114,51.4195,4.7865
2093,Noord-Brabant,,Bergen op Zoom,4611,51.495,4.286
2094,Noord-Brabant,,Bergen op Zoom,4612,51.4994,4.2679
2095,Noord-Brabant,,Bergen op Zoom,4613,51.5051,4.2817
2096,Noord-Brabant,,Bergen op Zoom,4614,51.5078,4.2943
2097,Noord-Brabant,,Bergen op Zoom,4615,51.4853,4.2879
2098,Noord-Brabant,,Bergen op Zoom,4616,51.4783,4.2889
2099,Noord-Brabant,,Bergen op Zoom,4617,51.478,4.2748
2100,Noord-Brabant,,Bergen op Zoom,4621,51.4935,4.3017
2101,Noord-Brabant,,Bergen op Zoom,4622,51.5022,4.3131
2102,Noord-Brabant,,Bergen op Zoom,4623,51.4932,4.313
2103,Noord-Brabant,,Bergen op Zoom,4624,51.4854,4.3045
2104,Noord-Brabant,,Bergen op Zoom,4625,51.4755,4.3058
2105,Noord-Brabant,,Halsteren,4661,51.5278,4.2773
2106,Noord-Brabant,,Lepelstraat,4664,51.5498,4.2756
2107,Noord-Brabant,,Best,5681,51.5188,5.4094
2108,Noord-Brabant,,Best,5682,51.5164,5.3906
2109,Noord-Brabant,,Best,5683,51.5082,5.3997
2110,Noord-Brabant,,Best,5684,51.502,5.3888
2111,Noord-Brabant,,Best,5685,51.501,5.3735
2112,Noord-Brabant,,Boekel,5427,51.6028,5.6781
2113,Noord-Brabant,,Venhorst,5428,51.6089,5.7358
2114,Noord-Brabant,,Oeffelt,5441,51.6981,5.9327
2115,Noord-Brabant,,Rijkevoort,5447,51.6584,5.8867
2116,Noord-Brabant,,Vierlingsbeek,5821,51.5955,6.007
2117,Noord-Brabant,,Maashees,5823,51.5706,6.0325
2118,Noord-Brabant,,Holthees,5824,51.5749,6.0068
2119,Noord-Brabant,,Overloon,5825,51.5712,5.9458
2120,Noord-Brabant,,Groeningen,5826,51.6076,5.9961
2121,Noord-Brabant,,Vortum-Mullem,5827,51.6188,5.9757
2122,Noord-Brabant,,Boxmeer,5831,51.6483,5.9457
2123,Noord-Brabant,,Beugen,5835,51.673,5.9342
2124,Noord-Brabant,,Sambeek,5836,51.635,5.9645
2125,Noord-Brabant,,Boxtel,5281,51.5858,5.3207
2126,Noord-Brabant,,Boxtel,5282,51.5965,5.3128
2127,Noord-Brabant,,Boxtel,5283,51.5895,5.339
2128,Noord-Brabant,,Liempde,5298,51.5697,5.3703
2129,Noord-Brabant,,Breda,4811,51.5882,4.7756
2130,Noord-Brabant,,Breda,4812,51.5764,4.7538
2131,Noord-Brabant,,Breda,4813,51.5755,4.7399
2132,Noord-Brabant,,Breda,4814,51.5876,4.7544
2133,Noord-Brabant,,Breda,4815,51.5977,4.7675
2134,Noord-Brabant,,Breda,4816,51.5991,4.7921
2135,Noord-Brabant,,Breda,4817,51.5904,4.8093
2136,Noord-Brabant,,Breda,4818,51.5787,4.7849
2137,Noord-Brabant,,Breda,4819,51.5754,4.7687
2138,Noord-Brabant,,Breda,4822,51.6126,4.7295
2139,Noord-Brabant,,Breda,4823,51.6229,4.7379
2140,Noord-Brabant,,Breda,4824,51.609,4.7456
2141,Noord-Brabant,,Breda,4825,51.6123,4.7703
2142,Noord-Brabant,,Breda,4826,51.6095,4.7844
2143,Noord-Brabant,,Breda,4827,51.6073,4.7968
2144,Noord-Brabant,,Breda,4834,51.5711,4.8031
2145,Noord-Brabant,,Breda,4835,51.5699,4.7865
2146,Noord-Brabant,,Breda,4836,51.5307,4.7576
2147,Noord-Brabant,,Breda,4837,51.5688,4.7693
2148,Noord-Brabant,,Breda,4838,51.5598,4.717
2149,Noord-Brabant,,Breda,4839,51.5843,4.7112
2150,Noord-Brabant,,Prinsenbeek,4841,51.5994,4.7118
2151,Noord-Brabant,,Teteringen,4847,51.6099,4.8216
2152,Noord-Brabant,,Ulvenhout,4851,51.5481,4.8009
2153,Noord-Brabant,,Bavel,4854,51.5666,4.8277
2154,Noord-Brabant,,Deurne,5751,51.4613,5.7946
2155,Noord-Brabant,,Deurne,5752,51.4778,5.7995
2156,Noord-Brabant,,Deurne,5753,51.4506,5.7908
2157,Noord-Brabant,,Deurne,5754,51.4637,5.8136
2158,Noord-Brabant,,Vlierden,5756,51.4461,5.757
2159,Noord-Brabant,,Liessel,5757,51.4142,5.8231
2160,Noord-Brabant,,Neerkant,5758,51.3694,5.8662
2161,Noord-Brabant,,Helenaveen,5759,51.3912,5.9138
2162,Noord-Brabant,,Dongen,5101,51.6261,4.9255
2163,Noord-Brabant,,Dongen,5102,51.6335,4.9298
2164,Noord-Brabant,,Dongen,5103,51.6295,4.95
2165,Noord-Brabant,,Dongen,5104,51.6239,4.9432
2166,Noord-Brabant,,Dongen,5105,51.6152,4.9728
2167,Noord-Brabant,,Dongen,5106,51.6429,4.9656
2168,Noord-Brabant,,Dongen,5107,51.6167,4.929
2169,Noord-Brabant,,'s Gravenmoer,5109,51.6582,4.9438
2170,Noord-Brabant,,Knegsel,5504,51.3892,5.373
2171,Noord-Brabant,,Knegsel,5511,51.3969,5.3458
2172,Noord-Brabant,,Vessem,5512,51.4216,5.2861
2173,Noord-Brabant,,Wintelre,5513,51.4457,5.3395
2174,Noord-Brabant,,Eersel,5521,51.3564,5.3163
2175,Noord-Brabant,,Steensel,5524,51.3768,5.3543
2176,Noord-Brabant,,Duizel,5525,51.3692,5.2953
2177,Noord-Brabant,,Eindhoven,5611,51.4366,5.4801
2178,Noord-Brabant,,Eindhoven,5612,51.4484,5.4727
2179,Noord-Brabant,,Eindhoven,5613,51.4387,5.4969
2180,Noord-Brabant,,Eindhoven,5614,51.4284,5.4921
2181,Noord-Brabant,,Eindhoven,5615,51.4293,5.4746
2182,Noord-Brabant,,Eindhoven,5616,51.4396,5.4592
2183,Noord-Brabant,,Eindhoven,5617,51.447,5.4573
2184,Noord-Brabant,,Eindhoven,5621,51.4549,5.457
2185,Noord-Brabant,,Eindhoven,5622,51.4593,5.4644
2186,Noord-Brabant,,Eindhoven,5623,51.4595,5.4782
2187,Noord-Brabant,,Eindhoven,5624,51.4696,5.457
2188,Noord-Brabant,,Eindhoven,5625,51.4719,5.4754
2189,Noord-Brabant,,Eindhoven,5626,51.4781,5.4302
2190,Noord-Brabant,,Eindhoven,5627,51.4853,5.444
2191,Noord-Brabant,,Eindhoven,5628,51.4801,5.4724
2192,Noord-Brabant,,Eindhoven,5629,51.4884,5.4734
2193,Noord-Brabant,,Eindhoven,5631,51.4605,5.4945
2194,Noord-Brabant,,Eindhoven,5632,51.4767,5.4956
2195,Noord-Brabant,,Eindhoven,5633,51.4899,5.4954
2196,Noord-Brabant,,Eindhoven,5641,51.4466,5.5198
2197,Noord-Brabant,,Eindhoven,5642,51.4389,5.5144
2198,Noord-Brabant,,Eindhoven,5643,51.4235,5.5011
2199,Noord-Brabant,,Eindhoven,5644,51.4183,5.4887
2200,Noord-Brabant,,Eindhoven,5645,51.4242,5.5109
2201,Noord-Brabant,,Eindhoven,5646,51.4184,5.5095
2202,Noord-Brabant,,Eindhoven,5647,51.4225,5.5235
2203,Noord-Brabant,,Eindhoven,5651,51.45,5.4433
2204,Noord-Brabant,,Eindhoven,5652,51.4394,5.438
2205,Noord-Brabant,,Eindhoven,5653,51.4236,5.4446
2206,Noord-Brabant,,Eindhoven,5654,51.4215,5.4582
2207,Noord-Brabant,,Eindhoven,5655,51.4152,5.4399
2208,Noord-Brabant,,Eindhoven,5656,51.4112,5.4561
2209,Noord-Brabant,,Eindhoven,5657,51.4512,5.4008
2210,Noord-Brabant,,Eindhoven,5658,51.4405,5.4098
2211,Noord-Brabant,,Etten-Leur,4871,51.5858,4.6513
2212,Noord-Brabant,,Etten-Leur,4872,51.5748,4.65
2213,Noord-Brabant,,Etten-Leur,4873,51.5648,4.6491
2214,Noord-Brabant,,Etten-Leur,4874,51.5773,4.6274
2215,Noord-Brabant,,Etten-Leur,4875,51.5711,4.6311
2216,Noord-Brabant,,Etten-Leur,4876,51.5617,4.6351
2217,Noord-Brabant,,Etten-Leur,4877,51.573,4.6127
2218,Noord-Brabant,,Etten-Leur,4878,51.5664,4.6077
2219,Noord-Brabant,,Etten-Leur,4879,51.5607,4.6188
2220,Noord-Brabant,,Geertruidenberg,4931,51.7017,4.8546
2221,Noord-Brabant,,Raamsdonksveer,4941,51.6969,4.8746
2222,Noord-Brabant,,Raamsdonksveer,4942,51.7033,4.877
2223,Noord-Brabant,,Raamsdonk,4944,51.6887,4.9079
2224,Noord-Brabant,,Rijen,5121,51.589,4.9182
2225,Noord-Brabant,,Rijen,5122,51.5895,4.9293
2226,Noord-Brabant,,Molenschot,5124,51.5695,4.8864
2227,Noord-Brabant,,Hulten,5125,51.5749,4.9568
2228,Noord-Brabant,,Gilze,5126,51.5435,4.9392
2229,Noord-Brabant,,Riel,5051,51.5113,5.0214
2230,Noord-Brabant,,Goirle,5051,51.5221,5.0639
2231,Noord-Brabant,,Goirle,5052,51.527,5.0492
2232,Noord-Brabant,,Goirle,5053,51.5321,5.079
2233,Noord-Brabant,,Riel,5133,51.5247,5.0197
2234,Noord-Brabant,,Grave,5361,51.7557,5.7385
2235,Noord-Brabant,,Velp,5363,51.7498,5.7188
2236,Noord-Brabant,,Escharen,5364,51.7405,5.7457
2237,Noord-Brabant,,Gassel,5438,51.7395,5.7792
2238,Noord-Brabant,,Biezenmortel,5074,51.6221,5.1803
2239,Noord-Brabant,,Haaren,5076,51.6033,5.2267
2240,Noord-Brabant,,Helvoirt,5268,51.6342,5.2267
2241,Noord-Brabant,,Esch,5296,51.6117,5.2918
2242,Noord-Brabant,,Helmond,5701,51.481,5.6644
2243,Noord-Brabant,,Helmond,5702,51.4933,5.6681
2244,Noord-Brabant,,Helmond,5703,51.4796,5.6839
2245,Noord-Brabant,,Helmond,5704,51.4639,5.7026
2246,Noord-Brabant,,Helmond,5705,51.4703,5.6698
2247,Noord-Brabant,,Helmond,5706,51.4627,5.6319
2248,Noord-Brabant,,Helmond,5707,51.4771,5.6421
2249,Noord-Brabant,,Helmond,5708,51.4726,5.6147
2250,Noord-Brabant,,Helmond,5709,51.4814,5.7003
2251,Noord-Brabant,,'s-Hertogenbosch,5211,51.6894,5.3036
2252,Noord-Brabant,,'s-Hertogenbosch,5212,51.697,5.3093
2253,Noord-Brabant,,'s-Hertogenbosch,5213,51.6949,5.326
2254,Noord-Brabant,,'s-Hertogenbosch,5215,51.6895,5.3306
