,USPS,ST,NAME,ZCTA5,LAT,LON
0,Lower Silesia,,Milików,56-730,51.1872,15.4125
1,Lower Silesia,,Kraśnik Górny,59-700,51.2911,15.6349
2,Lower Silesia,,Kozłów,59-700,51.4327,15.5989
3,Lower Silesia,,Dąbrowa Bolesławiecka,59-700,51.3265,15.5772
4,Lower Silesia,,Kolonia Pietruszka,59-700,51.1976,15.452
5,Lower Silesia,,Nowa Wieś,59-700,51.33,15.6101
6,Lower Silesia,,Trzebień Mały,59-700,51.3968,15.5782
7,Lower Silesia,,Bolesławice,59-700,51.2799,15.5485
8,Lower Silesia,,Chościszowice,59-700,51.2871,15.5894
9,Lower Silesia,,Nowe Jaroszowice,59-700,51.2154,15.5682
10,Lower Silesia,,Krępnica,59-700,51.3223,15.5596
11,Lower Silesia,,Kraśnik Dolny,59-700,51.307,15.6079
12,Lower Silesia,,Kolonia Śliszów,59-700,51.2111,15.5056
13,Lower Silesia,,Nowa,59-700,51.1933,15.5237
14,Lower Silesia,,Suszki,59-700,51.1955,15.5729
15,Lower Silesia,,Dobra,59-700,51.2774,15.517
16,Lower Silesia,,Rakowice,59-700,51.2448,15.5347
17,Lower Silesia,,Parkoszów,59-700,51.3753,15.581
18,Lower Silesia,,Stare Jaroszowice,59-700,51.2097,15.6174
19,Lower Silesia,,Kruszyn,59-700,51.2608,15.6152
20,Lower Silesia,,Golnice,59-700,51.3504,15.5852
21,Lower Silesia,,Lipiany,59-700,51.3414,15.6344
22,Lower Silesia,,Mierzwin,59-700,51.2278,15.482
23,Lower Silesia,,Bolesławiec,59-700,51.2628,15.5601
24,Lower Silesia,,Brzeźnik,59-700,51.2442,15.4682
25,Lower Silesia,,Bożejowice,59-700,51.2427,15.5516
26,Lower Silesia,,Pstrąże,59-700,51.4396,15.5568
27,Lower Silesia,,Trzebień,59-700,51.387,15.6018
28,Lower Silesia,,Stara Oleszna,59-700,51.4156,15.5994
29,Lower Silesia,,Ocice,59-700,51.2037,15.4813
30,Lower Silesia,,Łąka,59-700,51.2987,15.5702
31,Lower Silesia,,Otok,59-700,51.2355,15.5261
32,Lower Silesia,,Kraszowice,59-700,51.2112,15.5252
33,Lower Silesia,,Łaziska,59-700,51.2421,15.6075
34,Lower Silesia,,Żeliszów,59-700,51.1917,15.6355
35,Lower Silesia,,Bolesławiec,59-701,51.2551,15.5767
36,Lower Silesia,,Bolesławiec,59-702,51.2515,15.5775
37,Lower Silesia,,Bolesławiec,59-703,51.2637,15.5619
38,Lower Silesia,,Wierzbowa,59-706,51.3987,15.7616
39,Lower Silesia,,Różyniec,59-706,51.319,15.7125
40,Lower Silesia,,Pasternik,59-706,51.4063,15.8038
41,Lower Silesia,,Borówki,59-706,51.362,15.7307
42,Lower Silesia,,Osła,59-706,51.32,15.7537
43,Lower Silesia,,Motyle,59-706,51.3992,15.7927
44,Lower Silesia,,Krzyżowa,59-706,51.3271,15.6785
45,Lower Silesia,,Gromadka,59-706,51.3582,15.7607
46,Lower Silesia,,Patoka,59-706,51.3579,15.8175
47,Lower Silesia,,Modła,59-706,51.3598,15.8043
48,Lower Silesia,,Nowa Kuźnia,59-706,51.3915,15.8179
49,Lower Silesia,,Trzebień Mały,59-707,51.4032,15.5794
50,Lower Silesia,,Trzebień,59-707,51.3853,15.6008
51,Lower Silesia,,Kruszyn,59-707,51.2582,15.6236
52,Lower Silesia,,Krępnica,59-707,51.317,15.5629
53,Lower Silesia,,Jurków,59-720,51.1931,15.748
54,Lower Silesia,,Raciborowice Górne,59-720,51.1819,15.7005
55,Lower Silesia,,Wartowice,59-720,51.2216,15.6442
56,Lower Silesia,,Iwiny,59-720,51.2191,15.7162
57,Lower Silesia,,Warta Bolesławiecka,59-720,51.2343,15.6656
58,Lower Silesia,,Iwiny-Osiedle,59-720,51.2167,15.7243
59,Lower Silesia,,Raciborowice Dolne,59-720,51.1987,15.6969
60,Lower Silesia,,Lubków,59-720,51.237,15.7144
61,Lower Silesia,,Ocice,59-720,51.2009,15.4859
62,Lower Silesia,,Tomaszów Bolesławiecki,59-720,51.2661,15.6834
63,Lower Silesia,,Wilczy Las,59-720,51.2707,15.7595
64,Lower Silesia,,Szczytnica,59-720,51.2858,15.719
65,Lower Silesia,,Osiecznica,59-724,51.3302,15.4179
66,Lower Silesia,,Kliczków,59-724,51.3315,15.4318
67,Lower Silesia,,Osieczów,59-724,51.2976,15.433
68,Lower Silesia,,Poświętne,59-724,51.3916,15.2767
69,Lower Silesia,,Świętoszów,59-724,51.47,15.3932
70,Lower Silesia,,Ołobok,59-724,51.3386,15.2851
71,Lower Silesia,,Przejęsław,59-724,51.3636,15.4206
72,Lower Silesia,,Ławszowa,59-724,51.3918,15.4174
73,Lower Silesia,,Parowa,59-724,51.3623,15.2838
74,Lower Silesia,,Leśny Dwór,59-724,51.5268,15.4366
75,Lower Silesia,,Bronowiec,59-724,51.3707,15.2948
76,Lower Silesia,,Tomisław,59-724,51.2936,15.4215
77,Lower Silesia,,Osiecznica,59-726,51.3336,15.4091
78,Lower Silesia,,Luboszów,59-726,51.4263,15.3938
79,Lower Silesia,,Tomisław,59-726,51.2791,15.4144
80,Lower Silesia,,Świętoszów,59-726,51.4734,15.3912
81,Lower Silesia,,Kliczków,59-726,51.3344,15.4331
82,Lower Silesia,,Nowa,59-730,51.1936,15.5256
83,Lower Silesia,,Bieniec,59-730,51.2773,15.3972
84,Lower Silesia,,Nowogrodziec,59-730,51.1966,15.3956
85,Lower Silesia,,Czerna,59-730,51.2283,15.356
86,Lower Silesia,,Zebrzydowa,59-730,51.2409,15.3917
87,Lower Silesia,,Wykroty,59-730,51.2373,15.2785
88,Lower Silesia,,Gościszów,59-730,51.1579,15.447
89,Lower Silesia,,Ocice,59-730,51.202,15.4889
90,Lower Silesia,,Godzieszów,59-730,51.2136,15.2543
91,Lower Silesia,,Gierałtów,59-730,51.2027,15.3151
92,Lower Silesia,,Zabłocie,59-730,51.2216,15.4432
93,Lower Silesia,,Zagajnik,59-730,51.2561,15.292
94,Lower Silesia,,Parzyce,59-730,51.2269,15.4034
95,Lower Silesia,,Nowa Wieś,59-730,51.2639,15.408
96,Lower Silesia,,Milików,59-730,51.1924,15.4146
97,Lower Silesia,,Kierżno,59-730,51.2602,15.4216
98,Lower Silesia,,Zebrzydowa,79-730,51.2317,15.3925
99,Lower Silesia,,Pieszyce,52-500,50.7108,16.5712
100,Lower Silesia,,Nowizna,58-116,50.756,16.614
101,Lower Silesia,,Dzierżoniów,58-200,50.7324,16.6477
102,Lower Silesia,,Pieszyce,58-200,50.7446,16.5906
103,Lower Silesia,,Myśliszów,58-200,50.6481,16.639
104,Lower Silesia,,Dzierżoniów,58-204,50.7368,16.6527
105,Lower Silesia,,Włóki,58-207,50.7754,16.6413
106,Lower Silesia,,Książnica,58-207,50.8111,16.6088
107,Lower Silesia,,Pieszyce,58-209,50.7203,16.5875
108,Lower Silesia,,Sienice,58-210,50.774,16.8752
109,Lower Silesia,,Trzebnik,58-210,50.8222,16.8685
110,Lower Silesia,,Ratajno,58-210,50.7815,16.803
111,Lower Silesia,,Sieniawka,58-210,50.7786,16.7714
112,Lower Silesia,,Mniowice,58-210,50.7821,16.7703
113,Lower Silesia,,Oleszna,58-210,50.8141,16.8026
114,Lower Silesia,,Przystronie,58-210,50.7644,16.8249
115,Lower Silesia,,Jaźwina,58-210,50.7971,16.6989
116,Lower Silesia,,Ligota Wielka,58-210,50.7595,16.7875
117,Lower Silesia,,Sokolniki,58-210,50.8202,16.8362
118,Lower Silesia,,Radzików,58-210,50.8124,16.8572
119,Lower Silesia,,Janczowice,58-210,50.7847,16.743
120,Lower Silesia,,Łagiewniki,58-210,50.7912,16.8395
121,Lower Silesia,,Uciechów,58-211,50.7621,16.6788
122,Lower Silesia,,Kołaczów,58-211,50.7648,16.7252
123,Lower Silesia,,Uliczno,58-212,50.8098,16.7202
124,Lower Silesia,,Słupice,58-212,50.8147,16.7447
125,Lower Silesia,,Kuchary,58-212,50.7973,16.7309
126,Lower Silesia,,Jaźwina,58-212,50.797,16.7015
127,Lower Silesia,,Janczowice,58-212,50.7851,16.7456
128,Lower Silesia,,Stoszów,58-212,50.7823,16.725
129,Lower Silesia,,Oleszna,58-214,50.8138,16.8023
130,Lower Silesia,,Młynica,58-214,50.8177,16.7612
131,Lower Silesia,,Domaszów,58-214,50.8162,16.7745
132,Lower Silesia,,Roztocznik,58-217,50.7432,16.7348
133,Lower Silesia,,Byszów,58-217,50.7293,16.7404
134,Lower Silesia,,Gilów,58-217,50.7222,16.7709
135,Lower Silesia,,Dębowa Góra,58-217,50.7665,16.7341
136,Lower Silesia,,Gola Dzierżoniowska,58-217,50.7386,16.7925
137,Lower Silesia,,Niemcza,58-230,50.7176,16.8336
138,Lower Silesia,,Nowa Wieś Niemczańska,58-231,50.694,16.8183
139,Lower Silesia,,Ligota Mała,58-231,50.6708,16.8106
140,Lower Silesia,,Przerzeczyn-Zdrój,58-231,50.6845,16.8242
141,Lower Silesia,,Podlesie,58-231,50.6928,16.8524
142,Lower Silesia,,Ruszkowice,58-231,50.6927,16.8702
143,Lower Silesia,,Piława Górna,58-240,50.683,16.7526
144,Lower Silesia,,Piława Dolna,58-241,50.7002,16.6901
145,Lower Silesia,,Pieszyce,58-250,50.7134,16.5719
146,Lower Silesia,,Bielawa,58-260,50.6824,16.6156
147,Lower Silesia,,Myśliszów,58-262,50.6673,16.6434
148,Lower Silesia,,Józefówek,58-262,50.6595,16.624
149,Lower Silesia,,Pieszyce,58-500,50.716,16.5899
150,Lower Silesia,,Grodziec Mały,67-200,51.6871,16.0757
151,Lower Silesia,,Szczyglice,67-200,51.6314,16.1219
152,Lower Silesia,,Bytnik,67-200,51.6393,16.1533
153,Lower Silesia,,Serby,67-200,51.6839,16.1124
154,Lower Silesia,,Golowice,67-200,51.5738,16.0793
155,Lower Silesia,,Turów,67-200,51.6156,16.1192
156,Lower Silesia,,Krzekotów,67-200,51.7052,16.1585
157,Lower Silesia,,Głogów,67-200,51.6557,16.0894
158,Lower Silesia,,Jaczów,67-200,51.6266,16.076
159,Lower Silesia,,Borek,67-200,51.6461,16.1677
160,Lower Silesia,,Klucze,67-200,51.6826,16.16
161,Lower Silesia,,Stare Serby,67-200,51.685,16.1377
162,Lower Silesia,,Przedmoście,67-200,51.6269,16.1641
163,Lower Silesia,,Zabornia,67-200,51.656,16.1605
164,Lower Silesia,,Ruszowice,67-200,51.6443,16.0842
165,Lower Silesia,,Wilków,67-200,51.6941,16.1999
166,Lower Silesia,,Jaczów,67-210,51.6284,16.076
167,Lower Silesia,,Bytnik,67-210,51.638,16.1543
168,Lower Silesia,,Modła,67-210,51.6327,16.0423
169,Lower Silesia,,Stare Serby,67-210,51.6832,16.1407
170,Lower Silesia,,Grodziec Mały,67-210,51.6809,16.0849
171,Lower Silesia,,Ruszowice,67-210,51.6388,16.0794
172,Lower Silesia,,Kurowice,67-210,51.638,16.037
173,Lower Silesia,,Borek,67-210,51.6481,16.16
174,Lower Silesia,,Wilków,67-210,51.6975,16.1993
175,Lower Silesia,,Szczyglice,67-210,51.6316,16.1225
176,Lower Silesia,,Klucze,67-210,51.6839,16.1674
177,Lower Silesia,,Serby,67-210,51.685,16.1114
178,Lower Silesia,,Zabornia,67-210,51.6541,16.1619
179,Lower Silesia,,Przedmoście,67-210,51.6285,16.1618
180,Lower Silesia,,Białołęka,67-221,51.6473,16.2123
181,Lower Silesia,,Golkowice,67-221,51.683,16.2347
182,Lower Silesia,,Droglowice,67-221,51.6647,16.2294
183,Lower Silesia,,Leszkowice,67-221,51.614,16.3245
184,Lower Silesia,,Wietszyce,67-221,51.6487,16.2959
185,Lower Silesia,,Borków,67-221,51.6753,16.1953
186,Lower Silesia,,Turów,67-221,51.625,16.2358
187,Lower Silesia,,Wierzchownia,67-221,51.637,16.2641
188,Lower Silesia,,Wojszyn,67-221,51.6635,16.1931
189,Lower Silesia,,Kaczyce,67-221,51.6263,16.2977
190,Lower Silesia,,Pęcław,67-221,51.6451,16.2399
191,Lower Silesia,,Piersna,67-221,51.6279,16.2766
192,Lower Silesia,,Mileszyn,67-221,51.6652,16.2639
193,Lower Silesia,,Kotowice,67-221,51.6275,16.3246
194,Lower Silesia,,Nowe Osiedle,67-222,51.5623,16.0322
195,Lower Silesia,,Kurów Mały,67-222,51.5922,16.0847
196,Lower Silesia,,Bądzów,67-222,51.5704,16.0506
197,Lower Silesia,,Kurowice,67-222,51.6375,16.0369
198,Lower Silesia,,Łagoszów Mały,67-222,51.6155,16.0262
199,Lower Silesia,,Modła,67-222,51.6338,16.0445
200,Lower Silesia,,Jerzmanowa,67-222,51.5918,16.0448
201,Lower Silesia,,Smardzów,67-222,51.6133,16.0705
202,Lower Silesia,,Zofiówka,67-222,51.5589,15.9864
203,Lower Silesia,,Maniów,67-222,51.6056,16.025
204,Lower Silesia,,Golowice,67-222,51.5737,16.0739
205,Lower Silesia,,Gaiki,67-222,51.5751,16.0138
206,Lower Silesia,,Potoczek,67-222,51.5686,16.0194
207,Lower Silesia,,Czerna,67-231,51.7111,15.9058
208,Lower Silesia,,Słone,67-231,51.6584,16.0227
209,Lower Silesia,,Nielubia,67-231,51.6396,15.9958
210,Lower Silesia,,Zabłocie,67-231,51.637,15.9701
211,Lower Silesia,,Bukwica,67-231,51.6224,15.9933
212,Lower Silesia,,Mierzów,67-231,51.6807,15.8523
213,Lower Silesia,,Dankowice,67-231,51.6213,15.9766
214,Lower Silesia,,Wiekowice,67-231,51.6943,15.8693
215,Lower Silesia,,Brzeg Głogowski,67-231,51.6955,15.9161
216,Lower Silesia,,Góra Świętej Anny,67-231,51.6738,15.8568
217,Lower Silesia,,Żukowice,67-231,51.6711,15.9829
218,Lower Silesia,,Kłoda,67-231,51.6588,15.9496
219,Lower Silesia,,Glinica,67-231,51.6487,15.9749
220,Lower Silesia,,Kamiona,67-231,51.658,16.0039
221,Lower Silesia,,Dobrzejowice,67-231,51.7115,15.8856
222,Lower Silesia,,Domaniowice,67-231,51.6733,15.9177
223,Lower Silesia,,Kromolin,67-231,51.6854,15.8855
224,Lower Silesia,,Zameczno,67-231,51.6708,15.9302
225,Lower Silesia,,Szczepów,67-231,51.6747,15.8834
226,Lower Silesia,,Słoćwina,67-231,51.6723,15.9488
227,Lower Silesia,,Brzeg Głogowski,67-232,51.6959,15.9163
228,Lower Silesia,,Chociemyśl,67-240,51.7346,16.0025
229,Lower Silesia,,Kozie Doły,67-240,51.726,16.0177
230,Lower Silesia,,Zabiele,67-240,51.7101,16.0333
231,Lower Silesia,,Sobczyce,67-240,51.7047,16.0738
232,Lower Silesia,,Zaszków,67-240,51.7597,16.0789
233,Lower Silesia,,Grochowice,67-240,51.7848,16.0155
234,Lower Silesia,,Pękoszów,67-240,51.7314,15.9335
235,Lower Silesia,,Skidniów,67-240,51.7191,15.9495
236,Lower Silesia,,Skórzyn,67-240,51.7681,16.0488
237,Lower Silesia,,Kotla,67-240,51.7446,16.04
238,Lower Silesia,,Skidniówek,67-240,51.7219,15.9705
239,Lower Silesia,,Moszowice,67-240,51.7218,16.0664
240,Lower Silesia,,Kulów,67-240,51.7525,16.0951
241,Lower Silesia,,Leśna Dolina,67-240,51.7382,16.143
242,Lower Silesia,,Krzekotówek,67-240,51.7116,16.1004
243,Lower Silesia,,Krążkówko,67-240,51.7712,16.0763
244,Lower Silesia,,Głogówko,67-240,51.7331,16.0939
245,Lower Silesia,,Dorzecze,67-240,51.7133,15.9397
246,Lower Silesia,,Ceber,67-240,51.7126,16.0016
247,Lower Silesia,,Glinka,56-200,51.7079,16.5293
248,Lower Silesia,,Borszyn Wielki,56-200,51.6725,16.6315
249,Lower Silesia,,Bronów,56-200,51.6497,16.6642
250,Lower Silesia,,Kruszyniec,56-200,51.6899,16.5849
251,Lower Silesia,,Witoszyce,56-200,51.7444,16.5107
252,Lower Silesia,,Polanowo,56-200,51.7212,16.5029
253,Lower Silesia,,Osetno,56-200,51.6353,16.4596
254,Lower Silesia,,Stara Góra,56-200,51.6574,16.5158
255,Lower Silesia,,Żarki,56-200,51.6905,16.6473
256,Lower Silesia,,Wierzowice Wielkie,56-200,51.6013,16.5922
257,Lower Silesia,,Ligota,56-200,51.7023,16.6097
258,Lower Silesia,,Włodków Dolny,56-200,51.6855,16.5592
259,Lower Silesia,,Chróścina,56-200,51.7434,16.5367
260,Lower Silesia,,Wieruszowice,56-200,51.6206,16.6392
261,Lower Silesia,,Sławęcice,56-200,51.6993,16.5239
262,Lower Silesia,,Ułanka,56-200,51.7024,16.4843
263,Lower Silesia,,Góra,56-200,51.6668,16.5373
264,Lower Silesia,,Sułków,56-200,51.7045,16.6522
265,Lower Silesia,,Ryczeń,56-200,51.6166,16.5131
266,Lower Silesia,,Strumienna,56-200,51.693,16.4937
267,Lower Silesia,,Wierzowice Małe,56-200,51.5954,16.5686
268,Lower Silesia,,Osetno Małe,56-200,51.6261,16.4545
269,Lower Silesia,,Czernina,56-200,51.7201,16.6164
270,Lower Silesia,,Łagiszyn,56-200,51.7329,16.4881
271,Lower Silesia,,Radosław,56-200,51.7631,16.4847
272,Lower Silesia,,Kłoda Górowska,56-200,51.6561,16.5864
273,Lower Silesia,,Brzeżany,56-200,51.7136,16.4827
274,Lower Silesia,,Kietlów,56-200,51.6301,16.441
275,Lower Silesia,,Gola Górowska,56-200,51.6624,16.4664
276,Lower Silesia,,Borszyn Mały,56-200,51.6757,16.5997
277,Lower Silesia,,Polanowiec,56-200,51.7212,16.511
278,Lower Silesia,,Zawieścice,56-200,51.6396,16.5759
279,Lower Silesia,,Włodków Górny,56-200,51.6545,16.5301
280,Lower Silesia,,Szedziec,56-200,51.652,16.6135
281,Lower Silesia,,Strumyk,56-200,51.6925,16.612
282,Lower Silesia,,Ślubów,56-200,51.6304,16.6245
283,Lower Silesia,,Rogów Górowski,56-200,51.6457,16.4929
284,Lower Silesia,,Nowa Wioska,56-200,51.7807,16.4458
285,Lower Silesia,,Laskowa,56-200,51.7698,16.5282
286,Lower Silesia,,Jastrzębia,56-200,51.674,16.4884
287,Lower Silesia,,Grabowno,56-200,51.6377,16.5887
288,Lower Silesia,,Czernina Górna,56-200,51.7161,16.6268
289,Lower Silesia,,Czernina Dolna,56-200,51.7235,16.6
290,Lower Silesia,,Jemielno,56-209,51.5246,16.5422
291,Lower Silesia,,Lubów,56-209,51.5673,16.4709
292,Lower Silesia,,Łęczyca,56-209,51.5246,16.5699
293,Lower Silesia,,Zdziesławice,56-209,51.5436,16.5219
294,Lower Silesia,,Smolne,56-209,51.5089,16.4924
295,Lower Silesia,,Bieliszów,56-209,51.534,16.4838
296,Lower Silesia,,Borki,56-209,51.5103,16.5135
297,Lower Silesia,,Osłowice,56-209,51.5464,16.6177
298,Lower Silesia,,Piotrowice Małe,56-209,51.5251,16.6248
299,Lower Silesia,,Piskorze,56-209,51.5101,16.5729
300,Lower Silesia,,Luboszyce,56-209,51.6062,16.4219
301,Lower Silesia,,Równa,56-209,51.6087,16.4002
302,Lower Silesia,,Psary,56-209,51.5412,16.5871
303,Lower Silesia,,Zawiszów,56-209,51.5547,16.5626
304,Lower Silesia,,Uszczonów,56-209,51.6069,16.4082
305,Lower Silesia,,Kietlów,56-209,51.6239,16.4359
306,Lower Silesia,,Śleszów,56-209,51.5467,16.5359
307,Lower Silesia,,Czeladź Mała,56-209,51.5205,16.5916
308,Lower Silesia,,Ciechanów,56-209,51.5819,16.4322
309,Lower Silesia,,Chobienia,56-209,51.5465,16.4587
310,Lower Silesia,,Luboszyce Małe,56-209,51.5946,16.4492
311,Lower Silesia,,Irządze,56-209,51.592,16.4247
312,Lower Silesia,,Chorągwice,56-209,51.5819,16.4709
313,Lower Silesia,,Majówka,56-209,51.5477,16.49
314,Lower Silesia,,Daszów,56-209,51.5574,16.6017
315,Lower Silesia,,Cieszyny,56-209,51.5407,16.5568
316,Lower Silesia,,Stanowice,56-209,51.5698,16.6
317,Lower Silesia,,Kobylniki,56-210,51.5216,16.6805
318,Lower Silesia,,Chocieborowice,56-210,51.5345,16.6512
319,Lower Silesia,,Drozdowice Wielkie,56-210,51.5198,16.6573
320,Lower Silesia,,Lubiel,56-210,51.4948,16.7521
321,Lower Silesia,,Marysin,56-210,51.525,16.6462
322,Lower Silesia,,Sądowel,56-210,51.5945,16.6103
323,Lower Silesia,,Lechitów,56-210,51.5976,16.6235
324,Lower Silesia,,Płoski,56-210,51.5269,16.6884
325,Lower Silesia,,Wodniki,56-210,51.5889,16.7506
326,Lower Silesia,,Ługi,56-210,51.5293,16.7676
327,Lower Silesia,,Dochowa,56-210,51.6188,16.6771
328,Lower Silesia,,Sułów Wielki,56-210,51.6446,16.6848
329,Lower Silesia,,Młynary,56-210,51.5675,16.7291
330,Lower Silesia,,Baranowice,56-210,51.5594,16.6228
331,Lower Silesia,,Wąsosz,56-210,51.5645,16.6945
332,Lower Silesia,,Podmieście,56-210,51.5776,16.717
333,Lower Silesia,,Bartków,56-210,51.5135,16.7807
334,Lower Silesia,,Rudna Mała,56-210,51.6318,16.6823
335,Lower Silesia,,Pobiel,56-210,51.5655,16.7477
336,Lower Silesia,,Stefanów,56-210,51.5609,16.6529
337,Lower Silesia,,Wiewierz,56-210,51.6263,16.7175
338,Lower Silesia,,Zubrza,56-210,51.5516,16.7901
339,Lower Silesia,,Unisławice,56-210,51.5335,16.7831
340,Lower Silesia,,Wrząca Wielka,56-210,51.4995,16.7002
341,Lower Silesia,,Kowalowo,56-210,51.5543,16.6654
342,Lower Silesia,,Wrząca Śląska,56-210,51.5011,16.6609
343,Lower Silesia,,Czeladź Wielka,56-210,51.5687,16.6355
344,Lower Silesia,,Świniary,56-210,51.5792,16.7706
345,Lower Silesia,,Rudna Wielka,56-210,51.6361,16.6831
346,Lower Silesia,,Ostrawa,56-210,51.5213,16.7323
347,Lower Silesia,,Zbaków Dolny,56-210,51.6182,16.7346
348,Lower Silesia,,Cieszkowice,56-210,51.5973,16.677
349,Lower Silesia,,Borowna,56-210,51.5846,16.7961
350,Lower Silesia,,Bełcz Mały,56-210,51.5777,16.6545
351,Lower Silesia,,Bełcz Górny,56-210,51.6096,16.6475
352,Lower Silesia,,Zbaków Górny,56-210,51.6097,16.7081
353,Lower Silesia,,Czarnoborsko,56-210,51.6146,16.6981
354,Lower Silesia,,Czaple,56-210,51.4966,16.7327
355,Lower Silesia,,Wiklina,56-210,51.6016,16.7252
356,Lower Silesia,,Drozdowice Małe,56-210,51.5102,16.6596
357,Lower Silesia,,Gola Wąsoska,56-210,51.5859,16.6993
358,Lower Silesia,,Górka Wąsoska,56-210,51.5784,16.6852
359,Lower Silesia,,Jawor,56-210,51.5157,16.6452
360,Lower Silesia,,Kąkolno,56-210,51.5646,16.8126
361,Lower Silesia,,Kamień Górowski,56-210,51.5092,16.7025
362,Lower Silesia,,Naratów,56-215,51.6935,16.4301
363,Lower Silesia,,Bogucin,56-215,51.7044,16.4594
364,Lower Silesia,,Szaszorowice,56-215,51.6496,16.3853
365,Lower Silesia,,Głobice,56-215,51.6414,16.3459
366,Lower Silesia,,Bełcz Wielki,56-215,51.6173,16.3621
367,Lower Silesia,,Lipowiec,56-215,51.6413,16.3788
368,Lower Silesia,,Żuchlów,56-215,51.6808,16.4025
369,Lower Silesia,,Masełkowice,56-215,51.6263,16.4141
370,Lower Silesia,,Klimontów,56-215,51.6971,16.3332
371,Lower Silesia,,Łękanów,56-215,51.7146,16.4156
372,Lower Silesia,,Świerczów,56-215,51.6775,16.287
373,Lower Silesia,,Wroniniec,56-215,51.6818,16.4423
374,Lower Silesia,,Bartodzieje,56-215,51.6805,16.3261
375,Lower Silesia,,Wronów,56-215,51.7527,16.4446
376,Lower Silesia,,Miechów,56-215,51.6599,16.4182
377,Lower Silesia,,Żabin,56-215,51.6596,16.3536
378,Lower Silesia,,Wągroda,56-215,51.6613,16.3334
379,Lower Silesia,,Niechlów,56-215,51.6891,16.3652
380,Lower Silesia,,Wioska,56-215,51.7449,16.4617
381,Lower Silesia,,Siciny,56-215,51.727,16.4269
382,Lower Silesia,,Tarpno,56-215,51.7249,16.4614
383,Lower Silesia,,Karów,56-215,51.6659,16.3153
384,Lower Silesia,,Jawor,59-400,51.054,16.1888
385,Lower Silesia,,Marcinowice,59-407,51.062,16.318
386,Lower Silesia,,Luboradz,59-407,51.0591,16.2912
387,Lower Silesia,,Grzegorzów,59-407,51.0579,16.2372
388,Lower Silesia,,Drzymałowice,59-407,51.0559,16.3125
389,Lower Silesia,,Zimnik,59-407,51.0102,16.2564
390,Lower Silesia,,Godziszowa,59-407,51.0948,16.2107
391,Lower Silesia,,Rybno,59-407,51.0496,16.2402
392,Lower Silesia,,Siekierzyce,59-407,51.0268,16.2341
393,Lower Silesia,,Barycz,59-407,51.098,16.2531
394,Lower Silesia,,Mściwojów,59-407,51.0423,16.2714
395,Lower Silesia,,Snowidza,59-407,51.0811,16.2544
396,Lower Silesia,,Niedaszów,59-407,51.0209,16.2616
397,Lower Silesia,,Targoszyn,59-407,51.0308,16.3058
398,Lower Silesia,,Myślibórz,59-411,51.0257,16.1187
399,Lower Silesia,,Nowa Wieś Wielka,59-411,50.9928,16.0449
400,Lower Silesia,,Grobla,59-411,50.9833,16.1148
401,Lower Silesia,,Paszowice,59-411,51.02,16.1693
402,Lower Silesia,,Zębowice,59-411,51.04,16.2094
403,Lower Silesia,,Kwietniki,59-411,50.9702,16.1387
404,Lower Silesia,,Bolkowice,59-411,50.9927,16.1982
405,Lower Silesia,,Wiadrów,59-411,50.9789,16.1787
406,Lower Silesia,,Pogwizdów,59-411,50.965,16.0945
407,Lower Silesia,,Nowa Wieś Mała,59-411,50.9843,16.0578
408,Lower Silesia,,Sokola,59-411,50.9756,16.1567
409,Lower Silesia,,Jakuszowa,59-411,51.011,16.1083
410,Lower Silesia,,Kłonice,59-411,50.9984,16.1394
411,Lower Silesia,,Siedmica,59-411,50.9959,16.0917
412,Lower Silesia,,Sady Górne,59-420,50.878,16.1613
413,Lower Silesia,,Stare Rochowice,59-420,50.9221,16.0476
414,Lower Silesia,,Lipa,59-420,50.9712,16.0202
415,Lower Silesia,,Jastrowiec,59-420,50.9668,16.0531
416,Lower Silesia,,Radzimowice,59-420,50.9399,15.9727
417,Lower Silesia,,Półwsie,59-420,50.8805,16.1026
418,Lower Silesia,,Gorzanowice,59-420,50.944,16.0782
419,Lower Silesia,,Wierzchosławice,59-420,50.8975,16.0907
420,Lower Silesia,,Wierzchosławiczki,59-420,50.909,16.0662
421,Lower Silesia,,Świny,59-420,50.9352,16.1149
422,Lower Silesia,,Kaczorów,59-420,50.9091,15.9553
423,Lower Silesia,,Mysłów,59-420,50.9302,15.9783
424,Lower Silesia,,Płonina,59-420,50.9046,16.0025
425,Lower Silesia,,Wolbromek,59-420,50.9311,16.1457
426,Lower Silesia,,Muchówek,59-420,50.9866,16.0048
427,Lower Silesia,,Sady Dolne,59-420,50.9037,16.1684
428,Lower Silesia,,Nowe Rochowice,59-420,50.9355,16.0317
429,Lower Silesia,,Bolków,59-420,50.9245,16.1037
430,Lower Silesia,,Grudno,59-420,50.9575,16.0347
431,Lower Silesia,,Kaczorów,59-421,50.9087,15.9583
432,Lower Silesia,,Muchów,59-424,51.0181,16.0145
433,Lower Silesia,,Chroślice,59-424,51.0848,16.083
434,Lower Silesia,,Kondratów,59-424,51.0501,15.9658
435,Lower Silesia,,Słup,59-424,51.0976,16.1013
436,Lower Silesia,,Sichów,59-424,51.0968,16.0479
437,Lower Silesia,,Pomocne,59-424,51.0444,16.0194
438,Lower Silesia,,Męcinka,59-424,51.0733,16.0935
439,Lower Silesia,,Przybyłowice,59-424,51.1228,16.1539
440,Lower Silesia,,Myślinów,59-424,51.0279,16.0794
441,Lower Silesia,,Jerzyków,59-424,51.0401,16.0978
442,Lower Silesia,,Małuszów,59-424,51.1155,16.1753
443,Lower Silesia,,Chełmiec,59-424,51.0428,16.1109
444,Lower Silesia,,Piotrowice,59-424,51.059,16.14
445,Lower Silesia,,Bogaczów,59-424,51.072,16.0676
446,Lower Silesia,,Piotrowice-Osiedle,59-424,51.0548,16.1643
447,Lower Silesia,,Stanisławów,59-424,51.066,16.0153
448,Lower Silesia,,Raczyce,59-424,51.0404,16.0815
449,Lower Silesia,,Słup-Osiedle,59-424,51.0862,16.1494
450,Lower Silesia,,Nowa Męcinka,59-424,51.0714,16.1148
451,Lower Silesia,,Sichówek,59-424,51.1092,16.0641
452,Lower Silesia,,Pawłowice Wielkie,59-430,51.1049,16.2744
453,Lower Silesia,,Wądroże Wielkie,59-430,51.1151,16.3319
454,Lower Silesia,,Kępy,59-430,51.1183,16.3906
455,Lower Silesia,,Wierzchowice,59-430,51.1228,16.3524
456,Lower Silesia,,Granowice,59-430,51.077,16.3497
457,Lower Silesia,,Skała,59-430,51.0857,16.3045
458,Lower Silesia,,Budziszów Mały,59-430,51.0961,16.4615
459,Lower Silesia,,Kosiska,59-430,51.1207,16.4154
460,Lower Silesia,,Przybędów,59-430,51.0977,16.2554
461,Lower Silesia,,Biernatki,59-430,51.1397,16.3544
462,Lower Silesia,,Budziszów Wielki,59-430,51.0899,16.4289
463,Lower Silesia,,Wądroże Małe,59-430,51.1089,16.311
464,Lower Silesia,,Mierczyce,59-430,51.0924,16.3128
465,Lower Silesia,,Gądków,59-430,51.0827,16.3955
466,Lower Silesia,,Augustów,59-430,51.1084,16.3515
467,Lower Silesia,,Jenków,59-430,51.0691,16.3899
468,Lower Silesia,,Rąbienice,59-430,51.0962,16.3982
469,Lower Silesia,,Sobolew,59-430,51.121,16.4344
470,Lower Silesia,,Bielany,59-430,51.0814,16.4129
471,Lower Silesia,,Postolice,59-430,51.1071,16.426
472,Lower Silesia,,Wojanów,58-500,50.875,15.8264
473,Lower Silesia,,Staniszów,58-500,50.8539,15.7312
474,Lower Silesia,,Zachełmie,58-500,50.8228,15.6583
475,Lower Silesia,,Bobrów,58-500,50.8719,15.8386
476,Lower Silesia,,Dąbrowica,58-500,50.893,15.8071
477,Lower Silesia,,Sosnówka,58-500,50.8284,15.7283
478,Lower Silesia,,Ścięgny,58-500,50.7918,15.7768
479,Lower Silesia,,Miłków,58-500,50.8007,15.7566
480,Lower Silesia,,Komarno,58-508,50.925,15.8643
481,Lower Silesia,,Janówek,58-508,50.9957,15.7632
482,Lower Silesia,,Siedlęcin,58-508,50.9355,15.6833
483,Lower Silesia,,Wojanów,58-508,50.8706,15.8212
484,Lower Silesia,,Dziwiszów,58-508,50.9309,15.7932
485,Lower Silesia,,Łomnica,58-508,50.8659,15.7959
486,Lower Silesia,,Chromiec,58-512,50.892,15.5124
487,Lower Silesia,,Kopaniec,58-512,50.8855,15.5473
488,Lower Silesia,,Nowa Kamienica,58-512,50.9269,15.5252
489,Lower Silesia,,Mała Kamienica,58-512,50.9098,15.5372
490,Lower Silesia,,Antoniów,58-512,50.8991,15.4988
491,Lower Silesia,,Rybnica,58-512,50.9141,15.6279
492,Lower Silesia,,Międzylesie,58-512,50.898,15.5297
493,Lower Silesia,,Barcinek,58-512,50.9401,15.6002
494,Lower Silesia,,Kromnów,58-512,50.8928,15.5791
495,Lower Silesia,,Stara Kamienica,58-512,50.9191,15.5736
496,Lower Silesia,,Radomierz,58-520,50.9028,15.9073
497,Lower Silesia,,Miedzianka,58-520,50.8782,15.9419
498,Lower Silesia,,Trzcińsko,58-520,50.876,15.8811
499,Lower Silesia,,Janowice Wielkie,58-520,50.8766,15.9211
500,Lower Silesia,,Mniszków,58-520,50.8611,15.943
501,Lower Silesia,,Wrzeszczyn,58-521,50.9438,15.6542
502,Lower Silesia,,Siedlęcin,58-521,50.9343,15.6873
503,Lower Silesia,,Janówek,58-521,50.9958,15.7586
504,Lower Silesia,,Płoszczyna,58-521,50.9605,15.7422
505,Lower Silesia,,Dziwiszów,58-521,50.9375,15.7989
506,Lower Silesia,,Chrośnica,58-521,50.9776,15.7914
507,Lower Silesia,,Czernica,58-521,50.9804,15.7141
508,Lower Silesia,,Jeżów Sudecki,58-521,50.9315,15.7436
509,Lower Silesia,,Kowary,58-530,50.794,15.8349
510,Lower Silesia,,Łomnica,58-531,50.8672,15.7945
511,Lower Silesia,,Kostrzyca,58-532,50.8163,15.8033
512,Lower Silesia,,Bobrów,58-533,50.8679,15.8332
513,Lower Silesia,,Karpniki,58-533,50.851,15.8629
514,Lower Silesia,,Dąbrowica,58-533,50.8968,15.8108
515,Lower Silesia,,Mysłakowice,58-533,50.837,15.7835
516,Lower Silesia,,Gruszków,58-533,50.8264,15.864
517,Lower Silesia,,Wojanów,58-533,50.8769,15.8278
518,Lower Silesia,,Kostrzyca,58-533,50.8188,15.7996
519,Lower Silesia,,Bukowiec,58-533,50.8206,15.8235
520,Lower Silesia,,Krogulec,58-533,50.8392,15.8396
521,Lower Silesia,,Łomnica,58-533,50.8571,15.7947
522,Lower Silesia,,Strużnica,58-533,50.8379,15.8875
523,Lower Silesia,,Miłków,58-535,50.8053,15.7584
524,Lower Silesia,,Głębock,58-535,50.8248,15.7483
525,Lower Silesia,,Ścięgny,58-535,50.7915,15.7779
526,Lower Silesia,,Karpacz,58-540,50.776,15.7575
527,Lower Silesia,,Wojcieszyce,58-560,50.8812,15.6377
528,Lower Silesia,,Zachełmie (Podzamcze),58-562,50.8363,15.662
529,Lower Silesia,,Przesieka,58-562,50.8085,15.6652
530,Lower Silesia,,Podgórzyn,58-562,50.8284,15.6811
531,Lower Silesia,,Zachełmie,58-562,50.8249,15.6588
532,Lower Silesia,,Borowice,58-564,50.792,15.6973
533,Lower Silesia,,Marczyce,58-564,50.8363,15.7098
534,Lower Silesia,,Sosnówka,58-564,50.8172,15.7218
535,Lower Silesia,,Piechowice,58-573,50.851,15.5961
536,Lower Silesia,,Szklarska Poręba,58-580,50.8303,15.5252
537,Lower Silesia,,Nowa Białka,58-400,50.7547,15.9346
538,Lower Silesia,,Kochanów,58-400,50.6956,16.1466
539,Lower Silesia,,Pisarzowice,58-400,50.7862,15.9568
540,Lower Silesia,,Janiszów,58-400,50.7622,15.9906
541,Lower Silesia,,Dobromyśl,58-400,50.6927,16.1256
542,Lower Silesia,,Krzeszówek,58-400,50.7163,16.0914
543,Lower Silesia,,Jawiszów,58-400,50.7073,16.0697
544,Lower Silesia,,Dębrznik,58-400,50.8117,16.0389
545,Lower Silesia,,Lipienica,58-400,50.719,16.0466
546,Lower Silesia,,Czarnów,58-400,50.801,15.9142
547,Lower Silesia,,Szarocin,58-400,50.7686,15.9281
548,Lower Silesia,,Gorzeszów,58-400,50.7057,16.1099
549,Lower Silesia,,Ogorzelec,58-400,50.7651,15.8858
550,Lower Silesia,,Kamienna Góra,58-400,50.7805,16.0325
551,Lower Silesia,,Przedwojów,58-400,50.7545,16.0167
552,Lower Silesia,,Rędziny,58-400,50.8119,15.9414
553,Lower Silesia,,Olszyny,58-400,50.6807,16.0676
554,Lower Silesia,,Leszczyniec,58-400,50.7779,15.9072
555,Lower Silesia,,Czadrów,58-400,50.7625,16.0581
556,Lower Silesia,,Krzeszów,58-400,50.7363,16.0523
557,Lower Silesia,,Ptaszków,58-400,50.7958,16.0429
558,Lower Silesia,,Raszów,58-400,50.8024,15.9818
559,Lower Silesia,,Krzeszów,58-405,50.7349,16.0682
560,Lower Silesia,,Chełmsko Śląskie,58-407,50.6674,16.0696
561,Lower Silesia,,Marciszów,58-410,50.8441,16.0202
562,Lower Silesia,,Wieściszowice,58-410,50.838,15.9724
563,Lower Silesia,,Sędzisław,58-410,50.8177,16.0629
564,Lower Silesia,,Pastewnik,58-410,50.8862,16.0299
565,Lower Silesia,,Domanów,58-410,50.8688,16.064
566,Lower Silesia,,Pustelnik,58-410,50.8568,16.0513
567,Lower Silesia,,Świdnik,58-410,50.8902,15.9974
568,Lower Silesia,,Ciechanowice,58-410,50.8633,15.9832
569,Lower Silesia,,Nagórnik,58-410,50.8669,16.0937
570,Lower Silesia,,Jarkowice,58-420,50.7234,15.8938
571,Lower Silesia,,Błażkowa,58-420,50.7392,15.9863
572,Lower Silesia,,Okrzeszyn,58-420,50.6148,16.0262
573,Lower Silesia,,Uniemyśl,58-420,50.6323,16.0466
574,Lower Silesia,,Niedamirów,58-420,50.6895,15.8807
575,Lower Silesia,,Błażejów,58-420,50.6653,16.0506
576,Lower Silesia,,Bukówka,58-420,50.7093,15.9618
577,Lower Silesia,,Lubawka,58-420,50.7041,16.0011
578,Lower Silesia,,Chełmsko Śląskie,58-420,50.6679,16.0716
579,Lower Silesia,,Opawa,58-420,50.7007,15.8947
580,Lower Silesia,,Szczepanów,58-420,50.6968,15.9471
581,Lower Silesia,,Paprotki,58-420,50.7273,15.9511
582,Lower Silesia,,Paczyn,58-420,50.7384,15.9151
583,Lower Silesia,,Miszkowice,58-420,50.7209,15.9365
584,Lower Silesia,,Stara Białka,58-420,50.7414,15.957
585,Lower Silesia,,Miszkowice,58-422,50.7172,15.9235
586,Lower Silesia,,Bolesławów,57-000,50.2563,16.8923
587,Lower Silesia,,Morzyszów,57-300,50.4965,16.6914
588,Lower Silesia,,Młynów,57-300,50.4886,16.6649
589,Lower Silesia,,Kłodzko,57-300,50.4394,16.6555
590,Lower Silesia,,Ruszowice,57-300,50.4631,16.573
591,Lower Silesia,,Wojciechowice,57-300,50.4548,16.7048
592,Lower Silesia,,Jaszkówka,57-300,50.4381,16.7003
593,Lower Silesia,,Podtynie,57-300,50.4851,16.6789
594,Lower Silesia,,Ścinawica,57-300,50.4716,16.6474
595,Lower Silesia,,Piszkowice,57-300,50.4692,16.5925
596,Lower Silesia,,Korytów,57-300,50.4564,16.6028
597,Lower Silesia,,Mikowice,57-300,50.4425,16.6066
598,Lower Silesia,,Boguszyn,57-300,50.4647,16.6754
599,Lower Silesia,,Wolany,57-300,50.432,16.5142
600,Lower Silesia,,Kamieniec,57-300,50.4574,16.5475
601,Lower Silesia,,Ławica,57-300,50.4773,16.6652
602,Lower Silesia,,Roszyce,57-300,50.4464,16.5823
603,Lower Silesia,,Jaszkowa Dolna,57-312,50.4168,16.6801
604,Lower Silesia,,Podzamek,57-312,50.4329,16.7422
605,Lower Silesia,,Droszków,57-312,50.394,16.7833
606,Lower Silesia,,Jaszkowa Górna,57-312,50.4064,16.7452
607,Lower Silesia,,Stary Wielisław,57-313,50.4018,16.5678
608,Lower Silesia,,Szalejów Górny,57-314,50.4283,16.5487
609,Lower Silesia,,Szalejów Dolny,57-314,50.426,16.5874
610,Lower Silesia,,Gołogłowy,57-315,50.4682,16.6246
611,Lower Silesia,,Bierkowice,57-315,50.4769,16.6039
612,Lower Silesia,,Niwa,57-320,50.4547,16.509
613,Lower Silesia,,Polanica-Zdrój,57-320,50.4038,16.5118
614,Lower Silesia,,Studzienno,57-320,50.4629,16.445
615,Lower Silesia,,Chocieszów,57-320,50.4561,16.483
616,Lower Silesia,,Szczytna,57-330,50.4142,16.4422
617,Lower Silesia,,Słoszów,57-340,50.4117,16.3686
618,Lower Silesia,,Dolina,57-340,50.4104,16.4042
619,Lower Silesia,,Łężyce,57-340,50.4326,16.3616
620,Lower Silesia,,Złotno,57-340,50.4212,16.3929
621,Lower Silesia,,Duszniki-Zdrój,57-340,50.393,16.3871
622,Lower Silesia,,Jerzykowice Małe,57-343,50.3901,16.3127
623,Lower Silesia,,Jerzykowice Wielkie,57-343,50.4374,16.2719
624,Lower Silesia,,Kulin Kłodzki,57-343,50.4205,16.3319
625,Lower Silesia,,Dańczów,57-343,50.4272,16.2852
626,Lower Silesia,,Witów,57-343,50.4008,16.325
627,Lower Silesia,,Zielone Ludowe,57-343,50.4017,16.3513
628,Lower Silesia,,Taszów,57-343,50.3793,16.2784
629,Lower Silesia,,Kocioł,57-343,50.3848,16.2999
630,Lower Silesia,,Jawornica,57-343,50.3922,16.3289
631,Lower Silesia,,Zimne Wody,57-343,50.386,16.3352
632,Lower Silesia,,Jeleniów,57-343,50.4196,16.2606
633,Lower Silesia,,Gołaczów,57-343,50.4303,16.3092
634,Lower Silesia,,Leśna,57-343,50.4149,16.3113
635,Lower Silesia,,Lewin Kłodzki,57-343,50.4054,16.2909
636,Lower Silesia,,Jarków,57-343,50.4011,16.265
637,Lower Silesia,,Darnków,57-343,50.4431,16.3159
638,Lower Silesia,,Krzyżanów,57-343,50.3962,16.2859
639,Lower Silesia,,Karłów,57-350,50.4727,16.3434
640,Lower Silesia,,Kudowa-Zdrój,57-350,50.4413,16.2408
641,Lower Silesia,,Jerzykowice Wielkie,57-350,50.4377,16.2732
642,Lower Silesia,,Pasterka,57-350,50.4911,16.3227
643,Lower Silesia,,Rogówek,57-360,50.3776,16.7444
644,Lower Silesia,,Ołdrzychowice Kłodzkie,57-360,50.3619,16.7151
645,Lower Silesia,,Marcinów,57-360,50.3875,16.6894
646,Lower Silesia,,Żelazno,57-361,50.3749,16.6713
647,Lower Silesia,,Romanowo,57-361,50.3447,16.7138
648,Lower Silesia,,Krosnowice,57-362,50.3892,16.6354
649,Lower Silesia,,Starków,57-362,50.3751,16.5717
650,Lower Silesia,,Nowa Ruda,57-400,50.571,16.522
651,Lower Silesia,,Nowa Ruda,57-401,50.6054,16.4926
652,Lower Silesia,,Nowa Ruda,57-402,50.5342,16.5577
653,Lower Silesia,,Tłumaczów,57-408,50.5545,16.4275
654,Lower Silesia,,Ścinawka Dolna,57-409,50.4966,16.5308
655,Lower Silesia,,Raszków,57-409,50.4809,16.4923
656,Lower Silesia,,Suszyna,57-409,50.4764,16.5215
657,Lower Silesia,,Ścinawka Średnia,57-410,50.5202,16.4981
658,Lower Silesia,,Ścinawka Górna,57-410,50.5361,16.4714
659,Lower Silesia,,Ratno Dolne,57-411,50.5032,16.4458
660,Lower Silesia,,Wambierzyce,57-411,50.485,16.4469
661,Lower Silesia,,Radków,57-420,50.5016,16.3953
662,Lower Silesia,,Gajów,57-420,50.5296,16.415
663,Lower Silesia,,Ratno Górne,57-420,50.5047,16.4145
664,Lower Silesia,,Wolibórz,57-431,50.5879,16.5589
665,Lower Silesia,,Święcko,57-441,50.4968,16.5918
666,Lower Silesia,,Gorzuchów,57-441,50.4892,16.575
667,Lower Silesia,,Łączna,57-442,50.4938,16.6323
668,Lower Silesia,,Wojbórz,57-442,50.5124,16.6454
669,Lower Silesia,,Wilcza,57-442,50.5342,16.6596
670,Lower Silesia,,Ludwikowice Kłodzkie,57-450,50.6249,16.4761
671,Lower Silesia,,Bystrzyca Kłodzka,57-500,50.2986,16.6462
672,Lower Silesia,,Bystrzyca Kłodzka,57-501,50.2986,16.6462
673,Lower Silesia,,Długopole Górne,57-520,50.2213,16.6442
674,Lower Silesia,,Długopole-Zdrój,57-520,50.2465,16.6305
675,Lower Silesia,,Gorzanów,57-521,50.3501,16.636
676,Lower Silesia,,Domaszków,57-522,50.2143,16.6805
677,Lower Silesia,,Gniewoszów,57-522,50.2021,16.6049
678,Lower Silesia,,Boboszów,57-530,50.1113,16.6949
679,Lower Silesia,,Gajnik,57-530,50.1919,16.7119
680,Lower Silesia,,Dolnik,57-530,50.1417,16.6992
681,Lower Silesia,,Goworów,57-530,50.1747,16.7202
682,Lower Silesia,,Jaworek,57-530,50.2156,16.738
683,Lower Silesia,,Jodłów,57-530,50.1618,16.7534
684,Lower Silesia,,Międzylesie,57-530,50.1474,16.6646
685,Lower Silesia,,Lądek-Zdrój,57-540,50.3446,16.8772
686,Lower Silesia,,Karpno,57-540,50.324,16.9177
687,Lower Silesia,,Radochów,57-540,50.3469,16.8307
688,Lower Silesia,,Skrzynka,57-540,50.3717,16.7743
689,Lower Silesia,,Lutynia,57-540,50.3613,16.8999
690,Lower Silesia,,Trzebieszowice,57-540,50.3478,16.7764
691,Lower Silesia,,Kąty Bystrzyckie,57-540,50.3152,16.8337
692,Lower Silesia,,Wrzosówka,57-540,50.3786,16.9031
693,Lower Silesia,,Stójków,57-540,50.3244,16.8823
694,Lower Silesia,,Orłowiec,57-540,50.3873,16.8573
695,Lower Silesia,,Wójtówka,57-540,50.3716,16.8759
696,Lower Silesia,,Konradów,57-540,50.3019,16.8
697,Lower Silesia,,Skrzynka,57-541,50.3723,16.7786
698,Lower Silesia,,Trzebieszowice,57-541,50.3465,16.781
699,Lower Silesia,,Konradów,57-541,50.3093,16.7963
700,Lower Silesia,,Strachocin,57-550,50.3049,16.8757
701,Lower Silesia,,Młynowiec,57-550,50.2747,16.9064
702,Lower Silesia,,Stara Morawa,57-550,50.266,16.8891
703,Lower Silesia,,Janowa Góra,57-550,50.2623,16.8344
704,Lower Silesia,,Sienna,57-550,50.2612,16.8264
705,Lower Silesia,,Stronie Śląskie -Wieś,57-550,50.2843,16.8564
706,Lower Silesia,,Kletno,57-550,50.2584,16.8649
707,Lower Silesia,,Bielice,57-550,50.2697,17.0034
708,Lower Silesia,,Kamienica,57-550,50.2411,16.8847
709,Lower Silesia,,Goszów,57-550,50.2955,16.8912
710,Lower Silesia,,Stronie Śląskie,57-550,50.2935,16.8773
711,Lower Silesia,,Nowa Morawa,57-550,50.2427,16.9056
712,Lower Silesia,,Stary Gierałtów,57-550,50.3059,16.9285
713,Lower Silesia,,Nowy Gierałtów,57-550,50.2975,16.9785
714,Lower Silesia,,Rokitki,29-225,51.3291,15.8965
715,Lower Silesia,,Okmiany,50-225,51.2677,15.7679
716,Lower Silesia,,Dobroszów,58-225,51.2481,16.0019
717,Lower Silesia,,Spalona,59-216,51.244,16.2803
718,Lower Silesia,,Pątnów Legnicki,59-216,51.2451,16.2165
719,Lower Silesia,,Kunice,59-216,51.2239,16.2526
720,Lower Silesia,,Grzybiany,59-216,51.1957,16.2744
721,Lower Silesia,,Ziemnice,59-216,51.2002,16.2452
722,Lower Silesia,,Szczytniki Nad Kaczawą,59-216,51.2755,16.2871
723,Lower Silesia,,Bieniowice,59-216,51.2598,16.2569
724,Lower Silesia,,Rosochata,59-216,51.2022,16.3087
725,Lower Silesia,,Piotrówek,59-216,51.1969,16.3457
726,Lower Silesia,,Jaśkowice Legnickie,59-216,51.2217,16.3143
727,Lower Silesia,,Miłogostowice,59-216,51.2803,16.2178
728,Lower Silesia,,Szczytniki Małe,59-216,51.2402,16.2649
729,Lower Silesia,,Golanka Górna,59-216,51.2493,16.301
730,Lower Silesia,,Gniewomirowice,59-222,51.2226,16.0724
731,Lower Silesia,,Goślinów,59-222,51.2117,16.058
732,Lower Silesia,,Grzymalin,59-222,51.276,16.1009
733,Lower Silesia,,Studnica,59-222,51.2398,16.0256
734,Lower Silesia,,Dobrzejów,59-222,51.2508,16.1838
735,Lower Silesia,,Ulesie,59-222,51.2215,16.1089
736,Lower Silesia,,Lipce,59-222,51.212,16.1085
737,Lower Silesia,,Rzeszotary,59-222,51.2503,16.1615
738,Lower Silesia,,Siedliska,59-222,51.2545,16.0389
739,Lower Silesia,,Miłkowice,59-222,51.2561,16.0645
740,Lower Silesia,,Kochlice,59-222,51.2862,16.158
741,Lower Silesia,,Pątnówek,59-222,51.2443,16.1303
742,Lower Silesia,,Głuchowice,59-222,51.2886,16.1378
743,Lower Silesia,,Bobrów,59-222,51.2369,16.1371
744,Lower Silesia,,Jakuszów,59-222,51.2427,16.1155
745,Lower Silesia,,Jezierzany,59-222,51.2388,16.1006
746,Lower Silesia,,Winnica,59-223,51.119,16.0851
747,Lower Silesia,,Tyńczyk Legnicki,59-223,51.1408,16.1225
748,Lower Silesia,,Krajów,59-223,51.1244,16.0615
749,Lower Silesia,,Krotoszyce,59-223,51.1499,16.0466
750,Lower Silesia,,Kościelec,59-223,51.1456,16.1359
751,Lower Silesia,,Święciany,59-223,51.1433,16.0724
752,Lower Silesia,,Janowice Duże,59-223,51.1405,16.0999
753,Lower Silesia,,Czerwony Kościół,59-223,51.1867,16.0616
754,Lower Silesia,,Szymanowice,59-223,51.1736,16.0889
755,Lower Silesia,,Prostynia,59-223,51.1597,16.1247
756,Lower Silesia,,Babin,59-223,51.1538,16.1314
757,Lower Silesia,,Złotniki,59-223,51.1574,16.1551
758,Lower Silesia,,Wilczyce,59-223,51.1645,16.0518
759,Lower Silesia,,Bielowice,59-223,51.1129,16.1133
760,Lower Silesia,,Kozice,59-223,51.1453,16.1133
761,Lower Silesia,,Warmątowice Sienkiewiczowskie,59-223,51.1308,16.1342
762,Lower Silesia,,Dunino,59-223,51.1556,16.0874
763,Lower Silesia,,Pawłowice Małe,59-223,51.1872,16.0946
764,Lower Silesia,,Gołocin,59-225,51.2361,15.9687
765,Lower Silesia,,Czernikowice,59-225,51.3091,15.8918
766,Lower Silesia,,Chojnów,59-225,51.272,15.9355
767,Lower Silesia,,Biskupin,59-225,51.3237,15.8578
768,Lower Silesia,,Konradówka,59-225,51.2622,15.9075
769,Lower Silesia,,Witkówek,59-225,51.2828,15.844
770,Lower Silesia,,Jerzmanowice,59-225,51.2794,15.8928
771,Lower Silesia,,Żerów,59-225,51.2213,15.9649
772,Lower Silesia,,Jaroszówka,59-225,51.325,15.9748
773,Lower Silesia,,Stary Łom,59-225,51.3169,15.8015
774,Lower Silesia,,Kolonia Kołłątaja,59-225,51.2895,15.9549
775,Lower Silesia,,Michów,59-225,51.2638,15.9533
776,Lower Silesia,,Okmiany,59-225,51.2609,15.7819
777,Lower Silesia,,Budziwojów,59-225,51.2292,15.9496
778,Lower Silesia,,Krzywa,59-225,51.2791,15.8181
779,Lower Silesia,,Niedźwiedzice,59-225,51.2844,16.0343
780,Lower Silesia,,Piotrowice,59-225,51.2675,15.9074
781,Lower Silesia,,Osetnica,59-225,51.2598,15.8682
782,Lower Silesia,,Gołaczów,59-225,51.2529,15.9278
783,Lower Silesia,,Witków,59-225,51.2907,15.8568
784,Lower Silesia,,Groble,59-225,51.296,15.8153
785,Lower Silesia,,Pawlikowice,59-225,51.2296,15.9892
786,Lower Silesia,,Dobroszów,59-225,51.2494,16.0015
787,Lower Silesia,,Zamienice,59-225,51.3326,15.9289
788,Lower Silesia,,Goliszów,59-225,51.2801,15.9797
789,Lower Silesia,,Strupice,59-225,51.2119,15.9702
790,Lower Silesia,,Rokitki,59-225,51.332,15.8988
791,Lower Silesia,,Biała,59-225,51.2964,15.9389
792,Lower Silesia,,Jaroszówka,59-226,51.3181,15.9813
793,Lower Silesia,,Czernikowice,59-226,51.3113,15.8914
794,Lower Silesia,,Zamienice,59-226,51.3257,15.9405
795,Lower Silesia,,Biskupin,59-226,51.3222,15.8504
796,Lower Silesia,,Rokitki,59-226,51.3403,15.8952
797,Lower Silesia,,Kolonia Kołłątaja,59-226,51.2902,15.9566
798,Lower Silesia,,Groble,59-227,51.296,15.8176
799,Lower Silesia,,Stary Łom,59-227,51.3149,15.7998
800,Lower Silesia,,Krzywa,59-227,51.2787,15.8134
801,Lower Silesia,,Szczedrzykowice,59-230,51.2291,16.3477
802,Lower Silesia,,Kwiatkowice,59-230,51.2744,16.4037
803,Lower Silesia,,Kawice,59-230,51.2321,16.4256
804,Lower Silesia,,Rogów Legnicki,59-230,51.2574,16.4273
805,Lower Silesia,,Mierzowice,59-230,51.3062,16.347
806,Lower Silesia,,Szczedrzykowice-Stacja,59-230,51.2148,16.3523
807,Lower Silesia,,Golanka Dolna,59-230,51.2564,16.325
808,Lower Silesia,,Motyczyn,59-230,51.2447,16.3646
809,Lower Silesia,,Prochowice,59-230,51.273,16.3671
810,Lower Silesia,,Dąbie,59-230,51.2247,16.3685
811,Lower Silesia,,Lisowice,59-230,51.2868,16.3528
812,Lower Silesia,,Cichobórz,59-230,51.2267,16.3945
813,Lower Silesia,,Gromadzyń,59-230,51.3243,16.3441
814,Lower Silesia,,Koskowice,59-241,51.1834,16.2478
815,Lower Silesia,,Gniewomierz,59-241,51.1604,16.2169
816,Lower Silesia,,Czarnków,59-241,51.1162,16.2045
817,Lower Silesia,,Księginice,59-241,51.152,16.2706
818,Lower Silesia,,Taczalin,59-241,51.1549,16.3029
819,Lower Silesia,,Kłębanowice,59-241,51.1809,16.279
820,Lower Silesia,,Mikołajowice,59-241,51.1282,16.2832
821,Lower Silesia,,Psary,59-241,51.1662,16.2384
822,Lower Silesia,,Bartoszów,59-241,51.1857,16.2109
823,Lower Silesia,,Lubień,59-241,51.1228,16.2298
824,Lower Silesia,,Ogonowice,59-241,51.1122,16.2406
825,Lower Silesia,,Nowa Wieś Legnicka,59-241,51.1562,16.1765
826,Lower Silesia,,Raczkowa,59-241,51.1403,16.2001
827,Lower Silesia,,Strachowice,59-241,51.126,16.2593
828,Lower Silesia,,Koiszków,59-241,51.1398,16.1722
829,Lower Silesia,,Legnickie Pole,59-241,51.1443,16.2417
830,Lower Silesia,,Biskupice,59-241,51.1358,16.2149
831,Lower Silesia,,Mąkolice,59-241,51.1284,16.1795
832,Lower Silesia,,Rogoźnik,59-243,51.1724,16.3332
833,Lower Silesia,,Komorniki,59-243,51.1844,16.373
834,Lower Silesia,,Polanka,59-243,51.1536,16.3482
835,Lower Silesia,,Wągrodno,59-243,51.1993,16.3841
836,Lower Silesia,,Usza,59-243,51.133,16.4287
837,Lower Silesia,,Ruja,59-243,51.1736,16.4105
838,Lower Silesia,,Dzierżkowice,59-243,51.1562,16.4134
839,Lower Silesia,,Brennik,59-243,51.1503,16.3759
840,Lower Silesia,,Janowice,59-243,51.1342,16.4102
841,Lower Silesia,,Strzałkowice,59-243,51.1556,16.4448
842,Lower Silesia,,Lasowice,59-243,51.1965,16.4371
843,Lower Silesia,,Tyniec Legnicki,59-243,51.1581,16.3869
844,Lower Silesia,,Henryków Lubański,59-800,51.1678,15.2556
845,Lower Silesia,,Mściszów,59-800,51.1369,15.4051
846,Lower Silesia,,Kościelniki Dolne,59-800,51.078,15.2988
847,Lower Silesia,,Nawojów Łużycki,59-800,51.1741,15.3365
848,Lower Silesia,,Pisarzowice,59-800,51.1407,15.2427
849,Lower Silesia,,Nawojów Śląski,59-800,51.1663,15.3379
850,Lower Silesia,,Radostów Górny,59-800,51.1058,15.3686
851,Lower Silesia,,Lubań,59-800,51.1187,15.2866
852,Lower Silesia,,Kościelnik,59-800,51.0841,15.2918
853,Lower Silesia,,Siekierczyn,59-800,51.1073,15.1935
854,Lower Silesia,,Zaręba,59-800,51.1052,15.2326
855,Lower Silesia,,Radostów Dolny,59-800,51.1398,15.3538
856,Lower Silesia,,Jałowiec,59-800,51.091,15.3093
857,Lower Silesia,,Radostów Średni,59-800,51.1226,15.3622
858,Lower Silesia,,Wesołówka,59-800,51.1193,15.2204
859,Lower Silesia,,Uniegoszcz,59-800,51.1174,15.3155
860,Lower Silesia,,Radogoszcz,59-800,51.1468,15.3102
861,Lower Silesia,,Złotniki Lubańskie,59-814,51.0134,15.3401
862,Lower Silesia,,Leśna,59-814,51.028,15.2634
863,Lower Silesia,,Wolimierz,59-814,50.9549,15.3188
864,Lower Silesia,,Pobiedna,59-814,50.9391,15.2973
865,Lower Silesia,,Przylasek,59-816,51.0459,15.2055
866,Lower Silesia,,Zalipie,59-816,51.0383,15.1744
867,Lower Silesia,,Włosień,59-816,51.0781,15.1517
868,Lower Silesia,,Platerówka,59-816,51.0572,15.1711
869,Lower Silesia,,Zaręba,59-818,51.1107,15.23
870,Lower Silesia,,Rudzica,59-818,51.1132,15.1464
871,Lower Silesia,,Wesołówka,59-818,51.1204,15.2188
872,Lower Silesia,,Nowa Karczma,59-818,51.1476,15.1756
873,Lower Silesia,,Siekierczyn,59-818,51.1172,15.1896
874,Lower Silesia,,Ponikowo,59-818,51.0968,15.2324
875,Lower Silesia,,Pisaczów,59-818,51.1231,15.2389
876,Lower Silesia,,Wyręba,59-818,51.1583,15.1678
877,Lower Silesia,,Sucha,59-820,51.0278,15.3013
878,Lower Silesia,,Grabiszyce Górne,59-820,51.0078,15.1957
879,Lower Silesia,,Grabiszyce Dolne,59-820,51.0294,15.2232
880,Lower Silesia,,Kościelniki Średnie,59-820,51.0655,15.2895
881,Lower Silesia,,Przylasek,59-820,51.0467,15.2096
882,Lower Silesia,,Bartoszówka,59-820,51.0052,15.3641
883,Lower Silesia,,Jurków,59-820,51.0371,15.2351
884,Lower Silesia,,Szyszkowa,59-820,51.0541,15.2701
885,Lower Silesia,,Janówka,59-820,51.0473,15.3085
886,Lower Silesia,,Stankowice,59-820,51.0166,15.3145
887,Lower Silesia,,Złoty Potok,59-820,51.012,15.3707
888,Lower Silesia,,Złotniki Lubańskie,59-820,51.0144,15.3415
889,Lower Silesia,,Kościelniki Górne,59-820,51.0499,15.2757
890,Lower Silesia,,Miłoszów,59-820,51.0074,15.2506
891,Lower Silesia,,Zacisze,59-820,51.0028,15.3785
892,Lower Silesia,,Grabiszyce Średnie,59-820,51.0205,15.2088
893,Lower Silesia,,Świecie,59-820,50.9864,15.2896
894,Lower Silesia,,Smolnik,59-820,51.0274,15.258
895,Lower Silesia,,Leśna,59-820,51.0229,15.2667
896,Lower Silesia,,Biedrzychowice,59-830,51.0412,15.3792
897,Lower Silesia,,Olszyna,59-830,51.068,15.377
898,Lower Silesia,,Kałużna,59-830,51.0282,15.3683
899,Lower Silesia,,Grodnica,59-830,51.0532,15.3257
900,Lower Silesia,,Zapusta,59-830,51.0319,15.3455
901,Lower Silesia,,Krzewie Małe,59-830,51.0519,15.3621
902,Lower Silesia,,Nowa Świdnica,59-830,51.0458,15.3962
903,Lower Silesia,,Karłowice,59-830,51.0278,15.3819
904,Lower Silesia,,Olszyna Dolna,59-830,51.0794,15.3348
905,Lower Silesia,,Bożkowice,59-830,51.0374,15.3161
906,Lower Silesia,,Świeradów-Zdrój,59-850,50.9127,15.3297
907,Lower Silesia,,Rudna,50-305,51.5115,16.2625
908,Lower Silesia,,Orsk,53-305,51.5873,16.3522
909,Lower Silesia,,Orsk,55-930,51.5851,16.3505
910,Lower Silesia,,Księginice,56-300,51.4101,16.2671
911,Lower Silesia,,Niemstów,59-232,51.358,16.2944
912,Lower Silesia,,Gola,59-300,51.44,16.2104
913,Lower Silesia,,Dąbrowa Górna,59-300,51.4209,16.3095
914,Lower Silesia,,Ustronie,59-300,51.434,16.2842
915,Lower Silesia,,Wiercień,59-300,51.3013,16.1024
916,Lower Silesia,,Składowice,59-300,51.4303,16.2604
917,Lower Silesia,,Chróstnik,59-300,51.356,16.1654
918,Lower Silesia,,Czerniec,59-300,51.3813,16.2956
919,Lower Silesia,,Siedlce,59-300,51.3994,16.3055
920,Lower Silesia,,Zalesie,59-300,51.4475,16.2593
921,Lower Silesia,,Kłopotów,59-300,51.3785,16.2595
922,Lower Silesia,,Krzeczyn Wielki,59-300,51.3726,16.1354
923,Lower Silesia,,Karczowiska,59-300,51.3053,16.1617
924,Lower Silesia,,Księginice,59-300,51.4088,16.2669
925,Lower Silesia,,Osiek,59-300,51.3658,16.2253
926,Lower Silesia,,Obora,59-300,51.419,16.1362
927,Lower Silesia,,Bukowna,59-300,51.3054,16.0539
928,Lower Silesia,,Miłoradzice,59-300,51.3247,16.2677
929,Lower Silesia,,Gorzyca,59-300,51.3709,16.109
930,Lower Silesia,,Gorzelin,59-300,51.3303,16.1927
931,Lower Silesia,,Miroszowice,59-300,51.3847,16.2311
932,Lower Silesia,,Lubin,59-300,51.3966,16.1925
933,Lower Silesia,,Szklary Górne,59-300,51.4371,16.0945
934,Lower Silesia,,Niemstów,59-300,51.3575,16.294
935,Lower Silesia,,Bukowna,59-301,51.3085,16.0449
936,Lower Silesia,,Lubin,59-302,51.4019,16.2065
937,Lower Silesia,,Lubin,59-303,51.3869,16.2012
938,Lower Silesia,,Lubin,59-304,51.3923,16.2052
939,Lower Silesia,,Chobienia,59-305,51.542,16.4466
940,Lower Silesia,,Nieszczyce,59-305,51.5524,16.4029
941,Lower Silesia,,Koźlice,59-305,51.4519,16.2329
942,Lower Silesia,,Rudna,59-305,51.5092,16.2631
943,Lower Silesia,,Górzyn,59-305,51.5028,16.3951
944,Lower Silesia,,Gwizdanów,59-305,51.5302,16.2852
945,Lower Silesia,,Chełm,59-305,51.5735,16.3868
946,Lower Silesia,,Gawronki,59-305,51.5493,16.2807
947,Lower Silesia,,Miłogoszcz,59-305,51.5179,16.3654
948,Lower Silesia,,Ciechłowice,59-305,51.4924,16.4487
949,Lower Silesia,,Toszowice,59-305,51.4715,16.2985
950,Lower Silesia,,Kębłów,59-305,51.5442,16.3458
951,Lower Silesia,,Gawrony,59-305,51.5492,16.3099
952,Lower Silesia,,Studzionki,59-305,51.5566,16.3293
953,Lower Silesia,,Olszany,59-305,51.492,16.3819
954,Lower Silesia,,Kliszów,59-305,51.4976,16.3567
955,Lower Silesia,,Radomiłów,59-305,51.5091,16.3507
956,Lower Silesia,,Bytków,59-305,51.5347,16.2592
957,Lower Silesia,,Wądroże,59-305,51.4867,16.3341
958,Lower Silesia,,Wysokie,59-305,51.5263,16.3216
959,Lower Silesia,,Rynarcice,59-305,51.4746,16.2139
960,Lower Silesia,,Naroczyce,59-305,51.524,16.4234
961,Lower Silesia,,Brodów,59-305,51.5094,16.2856
962,Lower Silesia,,Juszowice,59-305,51.4769,16.2567
963,Lower Silesia,,Brodowice,59-305,51.5559,16.355
964,Lower Silesia,,Stara Rudna,59-305,51.4939,16.2832
965,Lower Silesia,,Radoszyce,59-305,51.5713,16.4324
966,Lower Silesia,,Mleczno,59-305,51.468,16.2692
967,Lower Silesia,,Orsk,59-305,51.5864,16.3545
968,Lower Silesia,,Raszówka,59-307,51.307,16.1858
969,Lower Silesia,,Zimna Woda,59-307,51.3175,16.106
970,Lower Silesia,,Karczowiska,59-307,51.3052,16.1642
971,Lower Silesia,,Wiercień,59-307,51.3006,16.1141
972,Lower Silesia,,Bukowna,59-307,51.3068,16.0494
973,Lower Silesia,,Lisiec,59-307,51.3251,16.0451
974,Lower Silesia,,Gorzelin,59-307,51.331,16.1894
975,Lower Silesia,,Raszowa Mała,59-307,51.3033,16.2215
976,Lower Silesia,,Zimna Woda,59-308,51.3196,16.114
977,Lower Silesia,,Krzeczyn Wielki,59-311,51.3741,16.1421
978,Lower Silesia,,Chróstnik,59-311,51.3573,16.1621
979,Lower Silesia,,Krzeczyn Mały,59-311,51.3854,16.1162
980,Lower Silesia,,Gorzyca,59-311,51.374,16.0961
981,Lower Silesia,,Bolanów,59-311,51.3518,16.0925
982,Lower Silesia,,Gogołowice,59-323,51.3172,16.3205
983,Lower Silesia,,Karczowiska,59-323,51.3065,16.1607
984,Lower Silesia,,Pieszków,59-323,51.3392,16.2286
985,Lower Silesia,,Miłoradzice,59-323,51.3225,16.2708
986,Lower Silesia,,Zimna Woda,59-323,51.3167,16.0952
987,Lower Silesia,,Niemstów,59-323,51.358,16.2959
988,Lower Silesia,,Łazek,59-323,51.3605,16.2655
989,Lower Silesia,,Gorzelin,59-323,51.3293,16.1911
990,Lower Silesia,,Miłosna,59-323,51.33,16.2953
991,Lower Silesia,,Podgórze,59-323,51.3443,16.2723
992,Lower Silesia,,Raszowa,59-323,51.3201,16.2323
993,Lower Silesia,,Raszowa Mała,59-323,51.3044,16.2228
994,Lower Silesia,,Buczynka,59-323,51.2988,16.2603
995,Lower Silesia,,Bukowna,59-323,51.3053,16.0518
996,Lower Silesia,,Ścinawa,59-330,51.4147,16.4236
997,Lower Silesia,,Przychowa,59-330,51.4542,16.4314
998,Lower Silesia,,Obora,59-335,51.4185,16.1374
999,Lower Silesia,,Szklary Górne,59-335,51.4403,16.0932
1000,Lower Silesia,,Owczary,59-335,51.443,16.1202
1001,Lower Silesia,,Lubin,59-335,51.4061,16.1783
1002,Lower Silesia,,Miłoradzice,59-335,51.3216,16.2695
1003,Lower Silesia,,Lubin,59-336,51.4042,16.1657
1004,Lower Silesia,,Lubin,59-337,51.3793,16.1816
1005,Lower Silesia,,Lubin,59-338,51.4007,16.186
1006,Lower Silesia,,Lubin,59-339,51.3811,16.2124
1007,Lower Silesia,,Rakowice Wielkie,56-600,51.1449,15.5556
1008,Lower Silesia,,Żerkowice,56-600,51.1552,15.5677
1009,Lower Silesia,,Chmielno,56-600,51.1441,15.6132
1010,Lower Silesia,,Zbylutów,56-600,51.1425,15.6635
1011,Lower Silesia,,Płóczki Górne,56-600,51.0713,15.5356
1012,Lower Silesia,,Brunów,56-600,51.133,15.5851
1013,Lower Silesia,,Włodzice Wielkie,56-600,51.1804,15.5554
1014,Lower Silesia,,Płóczki Dolne,56-600,51.1065,15.5616
1015,Lower Silesia,,Ustronie,56-600,51.1734,15.6309
1016,Lower Silesia,,Dłużec,56-600,51.0857,15.7114
1017,Lower Silesia,,Lwówek Śląski,56-600,51.1072,15.595
1018,Lower Silesia,,Rakowice Małe,56-600,51.1534,15.5486
1019,Lower Silesia,,Lubomierz,58-962,51.0104,15.5119
1020,Lower Silesia,,Lwówek Śląski,59-600,51.1105,15.5868
1021,Lower Silesia,,Nagórze,59-600,51.0573,15.5089
1022,Lower Silesia,,Skała,59-600,51.1569,15.5925
1023,Lower Silesia,,Mojesz,59-600,51.0877,15.5991
1024,Lower Silesia,,Dębowy Gaj,59-600,51.0747,15.6358
1025,Lower Silesia,,Pieszków,59-600,51.1062,15.6896
1026,Lower Silesia,,Rakowice Małe,59-600,51.1581,15.5413
1027,Lower Silesia,,Gradówek,59-600,51.0949,15.4737
1028,Lower Silesia,,Radłówka,59-600,51.1185,15.5421
1029,Lower Silesia,,Górczyca,59-600,51.0648,15.6798
1030,Lower Silesia,,Skorzynice,59-600,51.1444,15.6982
1031,Lower Silesia,,Gaszów,59-600,51.1591,15.6123
1032,Lower Silesia,,Ustronie,59-600,51.1746,15.6303
1033,Lower Silesia,,Żerkowice,59-600,51.1542,15.5691
1034,Lower Silesia,,Płóczki Górne,59-600,51.081,15.5384
1035,Lower Silesia,,Kotliska,59-600,51.158,15.516
1036,Lower Silesia,,Zbylutów,59-600,51.1419,15.6541
1037,Lower Silesia,,Radomiłowice,59-600,51.062,15.7192
1038,Lower Silesia,,Bielanka,59-600,51.1185,15.6931
1039,Lower Silesia,,Sobota,59-600,51.0821,15.6717
1040,Lower Silesia,,Płóczki Dolne,59-600,51.1034,15.5538
1041,Lower Silesia,,Włodzice Małe,59-600,51.1796,15.5297
1042,Lower Silesia,,Rakowice Wielkie,59-600,51.1347,15.5629
1043,Lower Silesia,,Niwnice,59-600,51.1156,15.4877
1044,Lower Silesia,,Dworek,59-600,51.1042,15.6546
1045,Lower Silesia,,Chmielno,59-600,51.1412,15.6129
1046,Lower Silesia,,Włodzice Wielkie,59-600,51.181,15.5571
1047,Lower Silesia,,Brunów,59-600,51.1306,15.5857
1048,Lower Silesia,,Dłużec,59-600,51.0854,15.7163
1049,Lower Silesia,,Radomice,59-610,50.9986,15.6106
1050,Lower Silesia,,Nielestno,59-610,50.9959,15.6741
1051,Lower Silesia,,Bystrzyca,59-610,51.0306,15.723
1052,Lower Silesia,,Wleń,59-610,51.0162,15.6748
1053,Lower Silesia,,Bełczyna,59-610,51.0438,15.7487
1054,Lower Silesia,,Tarczyn,59-610,51.0135,15.7071
1055,Lower Silesia,,Pilchowice,59-610,50.9798,15.6391
1056,Lower Silesia,,Strzyżowiec,59-610,50.9696,15.6759
1057,Lower Silesia,,Klecza,59-610,51.0084,15.6332
1058,Lower Silesia,,Marczów,59-610,51.0454,15.6474
1059,Lower Silesia,,Przeździedza,59-610,51.0526,15.6847
1060,Lower Silesia,,Łupki,59-610,51.0196,15.6456
1061,Lower Silesia,,Modrzewie,59-610,51.0064,15.697
1062,Lower Silesia,,Krzewie Wielkie,59-620,51.0167,15.4468
1063,Lower Silesia,,Proszówka,59-620,51.0011,15.4221
1064,Lower Silesia,,Wolbromów,59-620,51.109,15.4367
1065,Lower Silesia,,Gryfów Śląski,59-620,51.0301,15.4162
1066,Lower Silesia,,Wieża,59-620,51.0195,15.4072
1067,Lower Silesia,,Ubocze,59-620,51.0548,15.4288
1068,Lower Silesia,,Rząsiny,59-620,51.0801,15.4426
1069,Lower Silesia,,Młyńsko,59-620,50.9875,15.4462
1070,Lower Silesia,,Popielówek,59-623,50.9859,15.5275
1071,Lower Silesia,,Oleszna Podgórska,59-623,51.0315,15.4867
1072,Lower Silesia,,Chmieleń,59-623,50.9763,15.4903
1073,Lower Silesia,,Pławna Górna,59-623,51.0434,15.5741
1074,Lower Silesia,,Pławna Dolna,59-623,51.058,15.5959
1075,Lower Silesia,,Radoniów,59-623,51.0042,15.4666
1076,Lower Silesia,,Pokrzywnik,59-623,50.9649,15.6239
1077,Lower Silesia,,Golejów,59-623,51.0234,15.589
1078,Lower Silesia,,Maciejowiec,59-623,50.9753,15.6093
1079,Lower Silesia,,Lubomierz,59-623,51.0128,15.5097
1080,Lower Silesia,,Pasiecznik,59-623,50.9566,15.5705
1081,Lower Silesia,,Wojciechów,59-623,50.9977,15.5578
1082,Lower Silesia,,Janice,59-623,50.9551,15.5311
1083,Lower Silesia,,Zalesie,59-623,50.9748,15.5511
1084,Lower Silesia,,Milęcice,59-623,51.0159,15.5232
1085,Lower Silesia,,Gierczyn,59-630,50.9281,15.402
1086,Lower Silesia,,Giebułtów,59-630,50.9805,15.3449
1087,Lower Silesia,,Wola Augustowska,59-630,50.981,15.3582
1088,Lower Silesia,,Grudza,59-630,50.947,15.5031
1089,Lower Silesia,,Kamień,59-630,50.9493,15.368
1090,Lower Silesia,,Stóg Izerski,59-630,50.8994,15.3315
1091,Lower Silesia,,Przecznica,59-630,50.924,15.4372
1092,Lower Silesia,,Kłopotnica,59-630,50.9343,15.49
1093,Lower Silesia,,Rębiszów,59-630,50.9512,15.4487
1094,Lower Silesia,,Orłowice,59-630,50.9303,15.3535
1095,Lower Silesia,,Mroczkowice,59-630,50.9535,15.3688
1096,Lower Silesia,,Mlądz,59-630,50.9403,15.4307
1097,Lower Silesia,,Mirsk,59-630,50.9708,15.3833
1098,Lower Silesia,,Kotlina,59-630,50.9232,15.3846
1099,Lower Silesia,,Krobica,59-630,50.9305,15.3586
1100,Lower Silesia,,Giebułtówek,59-630,50.9686,15.3351
1101,Lower Silesia,,Proszowa,59-630,50.9223,15.476
1102,Lower Silesia,,Giebułtów Bloki,59-630,50.9756,15.3462
1103,Lower Silesia,,Karłowiec,59-630,50.9939,15.3824
1104,Lower Silesia,,Brzeziniec,59-630,50.991,15.3914
1105,Lower Silesia,,Augustów,59-630,50.994,15.3362
1106,Lower Silesia,,Kwieciszowice,59-630,50.9176,15.4963
1107,Lower Silesia,,Gajówka,59-630,50.9668,15.4595
1108,Lower Silesia,,Stawiec,56-300,51.5542,17.2667
1109,Lower Silesia,,Wróbliniec,56-300,51.5398,17.5545
1110,Lower Silesia,,Wszewilki,56-300,51.5457,17.2777
1111,Lower Silesia,,Świętoszyn,56-300,51.5255,17.2291
1112,Lower Silesia,,Pracze,56-300,51.4762,17.209
1113,Lower Silesia,,Grabownica,56-300,51.53,17.3811
1114,Lower Silesia,,Sławoszowice,56-300,51.5313,17.2986
1115,Lower Silesia,,Borzynowo,56-300,51.5091,17.4695
1116,Lower Silesia,,Ruda Sułowska,56-300,51.5117,17.1114
1117,Lower Silesia,,Brzezina Sułowska,56-300,51.5401,17.1494
1118,Lower Silesia,,Gruszeczka,56-300,51.4734,17.1622
1119,Lower Silesia,,Brzezina Sułowska - Osada,56-300,51.533,17.1423
1120,Lower Silesia,,Dunkowa,56-300,51.5377,17.1631
1121,Lower Silesia,,Dębów,56-300,51.5285,17.3379
1122,Lower Silesia,,Milicz,56-300,51.5234,17.2755
1123,Lower Silesia,,Duchowo,56-300,51.5176,17.3183
1124,Lower Silesia,,Gądkowice,56-300,51.5692,17.4595
1125,Lower Silesia,,Dzierzgów,56-300,51.5711,17.3555
1126,Lower Silesia,,Postolin,56-300,51.4759,17.2377
1127,Lower Silesia,,Gądkowice - Leśniczówka,56-300,51.5658,17.4746
1128,Lower Silesia,,Ostrowąsy,56-300,51.6025,17.476
1129,Lower Silesia,,Gogołowice - Leśniczówka,56-300,51.576,17.2554
1130,Lower Silesia,,Potasznia,56-300,51.5412,17.46
1131,Lower Silesia,,Gołkowo,56-300,51.601,17.5153
1132,Lower Silesia,,Gogołowice,56-300,51.5668,17.2458
1133,Lower Silesia,,Górale,56-300,51.5345,17.5622
1134,Lower Silesia,,Nowy Zamek,56-300,51.5656,17.3605
1135,Lower Silesia,,Lasowice,56-300,51.4554,17.2679
1136,Lower Silesia,,Grabówka,56-300,51.522,17.0811
1137,Lower Silesia,,Czatkowice,56-300,51.5123,17.3768
1138,Lower Silesia,,Kolęda,56-300,51.5843,17.5288
1139,Lower Silesia,,Henrykowice,56-300,51.5213,17.4493
1140,Lower Silesia,,Sułów,56-300,51.4999,17.17
1141,Lower Silesia,,Henrykowice - Gajówka,56-300,51.5205,17.4656
1142,Lower Silesia,,Wziąchowo Wielkie,56-300,51.5822,17.4561
1143,Lower Silesia,,Joachimówka,56-300,51.5407,17.4837
1144,Lower Silesia,,Karmin,56-300,51.4843,17.2303
1145,Lower Silesia,,Kaszowo Pod Miliczem,56-300,51.5101,17.2656
1146,Lower Silesia,,Kąty,56-300,51.5411,17.2576
1147,Lower Silesia,,Łąki,56-300,51.4948,17.1395
1148,Lower Silesia,,Łąki - Gajówka,56-300,51.4921,17.1464
1149,Lower Silesia,,Latkowa,56-300,51.5948,17.4895
1150,Lower Silesia,,Latkowa - Gajówka,56-300,51.5882,17.5081
1151,Lower Silesia,,Tworzymirki - Gajówka,56-300,51.5804,17.4058
1152,Lower Silesia,,Tomaszków,56-300,51.4924,17.2423
1153,Lower Silesia,,Świętoszyn - Osada,56-300,51.54,17.2329
1154,Lower Silesia,,Sulimierz,56-300,51.5098,17.1679
1155,Lower Silesia,,Stawno,56-300,51.5384,17.345
1156,Lower Silesia,,Stawczyk,56-300,51.5484,17.2941
1157,Lower Silesia,,Średzina,56-300,51.5696,17.3623
1158,Lower Silesia,,Potasznia Pod Gądkowicami,56-300,51.5492,17.4681
1159,Lower Silesia,,Pomorska,56-300,51.565,17.2968
1160,Lower Silesia,,Piotrkosice,56-300,51.5536,17.1679
1161,Lower Silesia,,Piękocinek,56-300,51.536,17.2006
1162,Lower Silesia,,Piękocin,56-300,51.5508,17.2001
1163,Lower Silesia,,Olsza,56-300,51.5409,17.0648
1164,Lower Silesia,,Nowe Grodzisko,56-300,51.5573,17.3584
1165,Lower Silesia,,Miłosławice,56-300,51.5068,17.2004
1166,Lower Silesia,,Marchwice,56-300,51.5852,17.2193
1167,Lower Silesia,,Lelików,56-300,51.5581,17.4271
1168,Lower Silesia,,Węgrzynów,56-300,51.5326,17.1905
1169,Lower Silesia,,Wielgie Milickie,56-300,51.5214,17.505
1170,Lower Silesia,,Wodników Górny,56-300,51.6113,17.4725
1171,Lower Silesia,,Tworzymirki Górne,56-300,51.5854,17.4212
1172,Lower Silesia,,Wrocławice - Osada,56-300,51.5643,17.4948
1173,Lower Silesia,,Wrocławice,56-300,51.573,17.5102
1174,Lower Silesia,,Zamek Myśliwski,56-300,51.5579,17.4903
1175,Lower Silesia,,Wziąchowo Małe,56-300,51.5897,17.438
1176,Lower Silesia,,Wilkowo,56-300,51.5398,17.0483
1177,Lower Silesia,,Wałkowa,56-300,51.5049,17.3108
1178,Lower Silesia,,Tworzymirki,56-300,51.5862,17.4058
1179,Lower Silesia,,Stawiec - Cegielnia,56-300,51.5616,17.2762
1180,Lower Silesia,,Smielice,56-300,51.565,17.3837
1181,Lower Silesia,,Słączno,56-300,51.5181,17.1684
1182,Lower Silesia,,Ruda Milicka,56-300,51.5311,17.3355
1183,Lower Silesia,,Poradów,56-300,51.5717,17.1803
1184,Lower Silesia,,Pogórzyno,56-300,51.485,17.2887
1185,Lower Silesia,,Płonka,56-300,51.5221,17.5576
1186,Lower Silesia,,Niesułowice,56-300,51.5141,17.3401
1187,Lower Silesia,,Młodzianów,56-300,51.5244,17.4263
1188,Lower Silesia,,Miłochowice,56-300,51.4931,17.2838
1189,Lower Silesia,,Kozuby,56-300,51.4683,17.2372
1190,Lower Silesia,,Koruszka,56-300,51.5073,17.234
1191,Lower Silesia,,Kopice,56-300,51.546,17.4838
1192,Lower Silesia,,Kaszowo,56-300,51.5007,17.2505
1193,Lower Silesia,,Karminek,56-300,51.4852,17.2376
1194,Lower Silesia,,Górka,56-300,51.5268,17.5245
1195,Lower Silesia,,Godnowa,56-300,51.5631,17.3321
1196,Lower Silesia,,Gajdówka,56-300,51.5574,17.3282
1197,Lower Silesia,,Dyminy,56-300,51.5454,17.3668
1198,Lower Silesia,,Chałupy,56-300,51.5735,17.408
1199,Lower Silesia,,Brzezina Sułowska - Gajówka,56-300,51.5529,17.1298
1200,Lower Silesia,,Bracław,56-300,51.5437,17.4423
1201,Lower Silesia,,Bartniki,56-300,51.5598,17.5515
1202,Lower Silesia,,Baranowice,56-300,51.5649,17.0757
1203,Lower Silesia,,Krośnice,56-320,51.476,17.3596
1204,Lower Silesia,,Grabownica,56-320,51.4646,17.4606
1205,Lower Silesia,,Kuźnica Czeszycka,56-320,51.487,17.4867
1206,Lower Silesia,,Wąbnice,56-320,51.4982,17.3381
1207,Lower Silesia,,Wierzchowice,56-320,51.4816,17.3342
1208,Lower Silesia,,Suliradzice,56-320,51.4752,17.5032
1209,Lower Silesia,,Police,56-320,51.4542,17.3787
1210,Lower Silesia,,Dziewiętlin,56-320,51.4567,17.3174
1211,Lower Silesia,,Kotlarka,56-320,51.4926,17.4345
1212,Lower Silesia,,Luboradów,56-320,51.4677,17.4502
1213,Lower Silesia,,Stara Huta,56-320,51.5008,17.5132
1214,Lower Silesia,,Świebodów,56-320,51.4678,17.2992
1215,Lower Silesia,,Żeleźniki,56-320,51.459,17.4097
1216,Lower Silesia,,Brzostowo,56-320,51.4345,17.4259
1217,Lower Silesia,,Czeszyce,56-320,51.4995,17.4561
1218,Lower Silesia,,Dąbrowa,56-320,51.4906,17.3593
1219,Lower Silesia,,Łazy Małe Pod Kubrykiem,56-320,51.4,17.2859
1220,Lower Silesia,,Brzostówko,56-320,51.434,17.4002
1221,Lower Silesia,,Wolanka,56-320,51.4775,17.299
1222,Lower Silesia,,Łazy Wielkie,56-321,51.4173,17.2988
1223,Lower Silesia,,Bukowice,56-321,51.3964,17.3531
1224,Lower Silesia,,Łazy Małe,56-321,51.4086,17.2825
1225,Lower Silesia,,Czeszyce,56-321,51.4982,17.4526
1226,Lower Silesia,,Pierstnica,56-321,51.427,17.357
1227,Lower Silesia,,Poręba,56-321,51.4006,17.2683
1228,Lower Silesia,,Lędzina,56-321,51.4121,17.4063
1229,Lower Silesia,,Pierstnica Mała,56-321,51.4341,17.3358
1230,Lower Silesia,,Czarnogoździce,56-321,51.4891,17.3043
1231,Lower Silesia,,Krzyszków,56-321,51.3951,17.303
1232,Lower Silesia,,Góry,56-330,51.5995,17.3572
1233,Lower Silesia,,Dziadkowo,56-330,51.5887,17.2944
1234,Lower Silesia,,Pakosławsko,56-330,51.6097,17.3012
1235,Lower Silesia,,Trzebicko,56-330,51.6011,17.3875
1236,Lower Silesia,,Cieszków,56-330,51.6281,17.3579
1237,Lower Silesia,,Jankowa,56-330,51.5848,17.3889
1238,Lower Silesia,,Jawor,56-330,51.5935,17.3337
1239,Lower Silesia,,Nowy Folwark,56-330,51.6337,17.2827
1240,Lower Silesia,,Pustków,56-330,51.6118,17.4243
1241,Lower Silesia,,Sędraszyce,56-330,51.6389,17.3071
1242,Lower Silesia,,Siemianów,56-330,51.6213,17.4322
1243,Lower Silesia,,Słabocin,56-330,51.602,17.2726
1244,Lower Silesia,,Trzebicko Dolne,56-330,51.5856,17.3711
1245,Lower Silesia,,Ujazd,56-330,51.6259,17.442
1246,Lower Silesia,,Brzezina,56-330,51.619,17.2823
1247,Lower Silesia,,Zwierzyniec,56-330,51.6223,17.386
1248,Lower Silesia,,Guzowice,56-330,51.6239,17.3171
1249,Lower Silesia,,Niezamyśl,56-330,51.5994,17.4055
1250,Lower Silesia,,Rakłowice,56-330,51.5927,17.3103
1251,Lower Silesia,,Wężowice,56-330,51.6115,17.3963
1252,Lower Silesia,,Biadaszka,56-330,51.6153,17.368
1253,Lower Silesia,,Grzebielin,56-330,51.588,17.2679
1254,Lower Silesia,,Mękarzowice,50-410,51.2838,17.2769
1255,Lower Silesia,,Dobroszyce,50-410,51.2659,17.3435
1256,Lower Silesia,,Dobrzeń,50-410,51.2426,17.2859
1257,Lower Silesia,,Ligota Wielka,56-400,51.1689,17.3944
1258,Lower Silesia,,Oleśnica,56-400,51.2074,17.3823
1259,Lower Silesia,,Cieśle,56-400,51.2243,17.4703
1260,Lower Silesia,,Brzezinka,56-400,51.2774,17.4606
1261,Lower Silesia,,Ostrowina,56-400,51.2879,17.5306
1262,Lower Silesia,,Świerzna,56-400,51.187,17.4317
1263,Lower Silesia,,Dobroszyce,56-400,51.2644,17.3423
1264,Lower Silesia,,Bystre,56-400,51.1878,17.376
1265,Lower Silesia,,Spalice,56-400,51.2195,17.4154
1266,Lower Silesia,,Krzeczyn,56-400,51.1483,17.3347
1267,Lower Silesia,,Smolna,56-400,51.1579,17.4271
1268,Lower Silesia,,Wszechświęte,56-400,51.1914,17.4857
1269,Lower Silesia,,Dąbrowa,56-400,51.2325,17.363
1270,Lower Silesia,,Ligota Polska,56-400,51.25,17.5447
1271,Lower Silesia,,Jenkowice,56-400,51.2331,17.3307
1272,Lower Silesia,,Wyszogród,56-400,51.1989,17.4745
1273,Lower Silesia,,Zarzysko,56-400,51.1926,17.5004
1274,Lower Silesia,,Bogusławice,56-400,51.2049,17.4563
1275,Lower Silesia,,Poniatowice,56-400,51.2323,17.5311
1276,Lower Silesia,,Smardzów,56-400,51.2029,17.3269
1277,Lower Silesia,,Ligota Mała,56-400,51.1366,17.3671
1278,Lower Silesia,,Nieciszów,56-400,51.1824,17.3231
1279,Lower Silesia,,Boguszyce,56-400,51.2414,17.3979
1280,Lower Silesia,,Sokołowice,56-400,51.2391,17.4471
1281,Lower Silesia,,Zimnica,56-400,51.1548,17.3906
1282,Lower Silesia,,Nowa Ligota,56-400,51.1359,17.4072
1283,Lower Silesia,,Nowoszyce,56-400,51.1859,17.4667
1284,Lower Silesia,,Gręboszyce,56-400,51.1687,17.4473
1285,Lower Silesia,,Piszkawa,56-400,51.1514,17.3052
1286,Lower Silesia,,Osada Leśna,56-400,51.2355,17.5848
1287,Lower Silesia,,Siekierowice,56-410,51.2712,17.2755
1288,Lower Silesia,,Nowica,56-410,51.2703,17.3698
1289,Lower Silesia,,Malerzów,56-410,51.3663,17.3245
1290,Lower Silesia,,Strzelce,56-410,51.2894,17.3374
1291,Lower Silesia,,Nowosiedlice,56-410,51.2511,17.3573
1292,Lower Silesia,,Bartków,56-410,51.3165,17.342
1293,Lower Silesia,,Sadków,56-410,51.3048,17.3161
1294,Lower Silesia,,Białe Błoto,56-410,51.3327,17.3687
1295,Lower Silesia,,Dobrzeń,56-410,51.2426,17.2857
1296,Lower Silesia,,Dobra,56-410,51.2449,17.3096
1297,Lower Silesia,,Łuczyna,56-410,51.299,17.282
1298,Lower Silesia,,Mękarzowice,56-410,51.2837,17.2767
1299,Lower Silesia,,Dobroszyce,56-410,51.2652,17.3435
1300,Lower Silesia,,Miodary,56-410,51.2769,17.4153
1301,Lower Silesia,,Grabowno Małe,56-416,51.371,17.3966
1302,Lower Silesia,,Goszcz,56-416,51.3959,17.4785
1303,Lower Silesia,,Grabek,56-416,51.4503,17.5111
1304,Lower Silesia,,Wesółka,56-416,51.3775,17.4648
1305,Lower Silesia,,Twardogóra,56-416,51.3649,17.465
1306,Lower Silesia,,Kuźnia Goszczańska,56-416,51.4078,17.4455
1307,Lower Silesia,,Moszyce,56-416,51.3703,17.4808
1308,Lower Silesia,,Drogoszowice,56-416,51.3214,17.4785
1309,Lower Silesia,,Drągów,56-416,51.4127,17.4845
1310,Lower Silesia,,Poręby,56-416,51.4479,17.5271
1311,Lower Silesia,,Grabowno Wielkie,56-416,51.3471,17.4111
1312,Lower Silesia,,Gola Wielka,56-416,51.3563,17.5451
1313,Lower Silesia,,Olszówka,56-416,51.3918,17.4171
1314,Lower Silesia,,Domasławice,56-416,51.407,17.5291
1315,Lower Silesia,,Łazisko,56-416,51.424,17.5113
1316,Lower Silesia,,Jezioro,56-416,51.4335,17.5211
1317,Lower Silesia,,Grabowno Wielkie (Kolonia),56-416,51.3607,17.435
1318,Lower Silesia,,Gola Mała,56-416,51.3822,17.4289
1319,Lower Silesia,,Drągówek,56-416,51.4246,17.5031
1320,Lower Silesia,,Dąbrowa,56-416,51.3395,17.4498
1321,Lower Silesia,,Czwórka,56-416,51.3963,17.5315
1322,Lower Silesia,,Bukowinka,56-416,51.3543,17.3525
1323,Lower Silesia,,Brodowce,56-416,51.3703,17.426
1324,Lower Silesia,,Będzin,56-416,51.4451,17.4954
1325,Lower Silesia,,Zakrzów,56-416,51.4217,17.482
1326,Lower Silesia,,Trzy Chałupy,56-416,51.3947,17.4383
1327,Lower Silesia,,Sosnówka,56-416,51.3134,17.4667
1328,Lower Silesia,,Sądrożyce,56-416,51.348,17.4738
1329,Lower Silesia,,Pajęczak,56-416,51.44,17.503
1330,Lower Silesia,,Nowa Wieś Goszczańska,56-416,51.4203,17.4505
1331,Lower Silesia,,Droździęcin,56-416,51.4337,17.4884
1332,Lower Silesia,,Chełstówek,56-416,51.3525,17.4879
1333,Lower Silesia,,Chełstów,56-416,51.3395,17.4939
1334,Lower Silesia,,Brzezina,56-416,51.4317,17.5397
1335,Lower Silesia,,Świniary,56-416,51.4278,17.4643
1336,Lower Silesia,,Bierutów,56-420,51.1274,17.5435
1337,Lower Silesia,,Kijowice,56-420,51.1271,17.5123
1338,Lower Silesia,,Stronia,56-420,51.1986,17.5405
1339,Lower Silesia,,Paczków,56-420,51.1126,17.486
1340,Lower Silesia,,Solniki Małe,56-420,51.1421,17.5268
1341,Lower Silesia,,Sątok,56-420,51.0781,17.4468
1342,Lower Silesia,,Zawidowice,56-420,51.1327,17.4749
1343,Lower Silesia,,Radzieszyn,56-420,51.0572,17.5114
1344,Lower Silesia,,Wabienice,56-420,51.1807,17.5875
1345,Lower Silesia,,Solniki Wielkie,56-420,51.1627,17.4753
1346,Lower Silesia,,Posadowice,56-420,51.0734,17.4799
1347,Lower Silesia,,Karwiniec,56-420,51.1125,17.5449
1348,Lower Silesia,,Jemielna,56-420,51.2142,17.5715
1349,Lower Silesia,,Gorzesław,56-420,51.1691,17.5467
1350,Lower Silesia,,Strzałkowa,56-420,51.1711,17.5067
1351,Lower Silesia,,Zbytowa,56-420,51.1147,17.4293
1352,Lower Silesia,,Kruszowice,56-420,51.1156,17.5094
1353,Lower Silesia,,Wioska,56-500,51.3306,17.7344
1354,Lower Silesia,,Biskupice,56-500,51.3319,17.6445
1355,Lower Silesia,,Drołtowice,56-500,51.3375,17.5956
1356,Lower Silesia,,Gaszowice,56-500,51.259,17.5834
1357,Lower Silesia,,Syców,56-500,51.3096,17.721
1358,Lower Silesia,,Działosza,56-500,51.3082,17.6458
1359,Lower Silesia,,Ślizów,56-500,51.2732,17.7169
1360,Lower Silesia,,Święty Marek,56-500,51.3188,17.6806
1361,Lower Silesia,,Stradomia Wierzchnia,56-500,51.2715,17.6335
1362,Lower Silesia,,Wielowieś,56-500,51.3066,17.6749
1363,Lower Silesia,,Szczodrów,56-500,51.2885,17.5666
1364,Lower Silesia,,Zawada,56-500,51.3112,17.602
1365,Lower Silesia,,Nowy Dwór,56-500,51.3028,17.6928
1366,Lower Silesia,,Wojciechowo Wielkie,56-500,51.3109,17.6071
1367,Lower Silesia,,Komorów,56-500,51.3292,17.6942
1368,Lower Silesia,,Bielawki,56-500,51.2816,17.7141
1369,Lower Silesia,,Miłowice,56-504,51.1892,17.6518
1370,Lower Silesia,,Dziadów Most,56-504,51.2291,17.6204
1371,Lower Silesia,,Radzowice,56-504,51.213,17.6762
1372,Lower Silesia,,Lipka,56-504,51.2052,17.623
1373,Lower Silesia,,Dziadowa Kłoda,56-504,51.2309,17.7121
1374,Lower Silesia,,Stradomia Dolna,56-504,51.2511,17.666
1375,Lower Silesia,,Dalborowice,56-504,51.1896,17.7152
1376,Lower Silesia,,Gronowice,56-504,51.2052,17.7435
1377,Lower Silesia,,Gołębice,56-504,51.179,17.6877
1378,Lower Silesia,,Niwki Książęce,56-513,51.408,17.7323
1379,Lower Silesia,,Bukowina Sycowska,56-513,51.3799,17.587
1380,Lower Silesia,,Klonów,56-513,51.4058,17.6333
1381,Lower Silesia,,Ligota Rybińska,56-513,51.3734,17.7086
1382,Lower Silesia,,Ose,56-513,51.3844,17.6446
1383,Lower Silesia,,Niwki Kraszowskie,56-513,51.3961,17.7102
1384,Lower Silesia,,Międzybórz,56-513,51.3978,17.6668
1385,Lower Silesia,,Królewska Wola,56-513,51.396,17.5562
1386,Lower Silesia,,Kamień,56-513,51.4016,17.5799
1387,Lower Silesia,,Hałdrychowice,56-513,51.3626,17.6585
1388,Lower Silesia,,Oska Piła,56-513,51.3711,17.6176
1389,Lower Silesia,,Kraszów,56-513,51.3816,17.6828
1390,Lower Silesia,,Dziesławice,56-513,51.3527,17.6321
1391,Lower Silesia,,Bąków,56-513,51.4051,17.5529
1392,Lower Silesia,,Strzelce,56-641,51.2951,17.356
1393,Lower Silesia,,Białe Błoto,58-410,51.328,17.3523
1394,Lower Silesia,,Zabardowice,55-200,50.9564,17.2216
1395,Lower Silesia,,Stanowice,55-200,50.9741,17.2498
1396,Lower Silesia,,Marszowice,55-200,50.9277,17.2142
1397,Lower Silesia,,Gaj Oławski,55-200,50.927,17.2472
1398,Lower Silesia,,Psary,55-200,50.8692,17.361
1399,Lower Silesia,,Zakrzów,55-200,51.0021,17.2551
1400,Lower Silesia,,Chwalibożyce,55-200,50.868,17.3164
1401,Lower Silesia,,Jaczkowice,55-200,50.9178,17.2763
1402,Lower Silesia,,Sobocisko,55-200,50.964,17.1929
1403,Lower Silesia,,Maszków,55-200,50.8826,17.337
1404,Lower Silesia,,Ścinawa,55-200,50.9183,17.3422
1405,Lower Silesia,,Czernica,55-200,50.903,17.2787
1406,Lower Silesia,,Drzemlikowice,55-200,50.881,17.243
1407,Lower Silesia,,Jankowice,55-200,50.9952,17.1963
1408,Lower Silesia,,Oleśnica Mała,55-200,50.8427,17.277
1409,Lower Silesia,,Miłonów,55-200,50.9426,17.1989
1410,Lower Silesia,,Jakubowice,55-200,50.8875,17.2452
1411,Lower Silesia,,Bystrzyca,55-200,50.9617,17.3954
1412,Lower Silesia,,Marcinkowice,55-200,50.9874,17.2253
1413,Lower Silesia,,Gać,55-200,50.8879,17.3642
1414,Lower Silesia,,Godzikowice,55-200,50.9114,17.3118
1415,Lower Silesia,,Siedlce,55-200,50.9968,17.2777
1416,Lower Silesia,,Bolechów,55-200,50.8944,17.2297
1417,Lower Silesia,,Stary Otok,55-200,50.9737,17.326
1418,Lower Silesia,,Godzinowice,55-200,50.9102,17.2598
1419,Lower Silesia,,Osiek,55-200,50.8844,17.2924
1420,Lower Silesia,,Owczary,55-200,50.8364,17.32
1421,Lower Silesia,,Jankowice Małe,55-200,50.8554,17.3213
1422,Lower Silesia,,Siecieborowice,55-200,50.8733,17.2345
1423,Lower Silesia,,Ścinawa Polska,55-200,50.9327,17.3362
1424,Lower Silesia,,Janików,55-200,50.9686,17.3758
1425,Lower Silesia,,Lizawice,55-200,50.9736,17.2159
1426,Lower Silesia,,Oława,55-200,50.9428,17.29
1427,Lower Silesia,,Niwnik,55-200,50.9044,17.247
1428,Lower Silesia,,Niemil,55-200,50.8625,17.2683
1429,Lower Silesia,,Stary Górnik,55-200,50.9573,17.3404
1430,Lower Silesia,,Kuchary,55-216,50.8935,17.0849
1431,Lower Silesia,,Skrzypnik,55-216,50.8888,17.178
1432,Lower Silesia,,Kurzątkowice,55-216,50.8616,17.1465
1433,Lower Silesia,,Goszczyna,55-216,50.8672,17.1913
1434,Lower Silesia,,Swojków,55-216,50.9425,17.1327
1435,Lower Silesia,,Wierzbno,55-216,50.9339,17.1797
1436,Lower Silesia,,Pełczyce,55-216,50.9069,17.2196
1437,Lower Silesia,,Piskorzówek,55-216,50.9091,17.1239
1438,Lower Silesia,,Brzezimierz,55-216,50.8921,17.2005
1439,Lower Silesia,,Polwica,55-216,50.9109,17.1777
1440,Lower Silesia,,Chwastnica,55-216,50.9258,17.1194
1441,Lower Silesia,,Danielowice,55-216,50.9047,17.0996
1442,Lower Silesia,,Radłowice,55-216,50.9175,17.0955
1443,Lower Silesia,,Domaniów,55-216,50.8931,17.1311
1444,Lower Silesia,,Wyszkowice,55-216,50.8672,17.1565
1445,Lower Silesia,,Radoszkowice,55-216,50.88,17.0954
1446,Lower Silesia,,Grodziszowice,55-216,50.8493,17.1221
1447,Lower Silesia,,Gęsice,55-216,50.9494,17.1179
1448,Lower Silesia,,Piskorzów,55-216,50.9282,17.14
1449,Lower Silesia,,Teodorów,55-216,50.961,17.1632
1450,Lower Silesia,,Kończyce,55-216,50.8732,17.1144
1451,Lower Silesia,,Gostkowice,55-216,50.9077,17.0888
1452,Lower Silesia,,Janków,55-216,50.9454,17.1642
1453,Lower Silesia,,Piekary,55-220,51.031,17.367
1454,Lower Silesia,,Kopalina,55-220,51.0283,17.4144
1455,Lower Silesia,,Stanków,55-220,50.9851,17.3504
1456,Lower Silesia,,Dziuplina,55-220,51.0653,17.3336
1457,Lower Silesia,,Łęg,55-220,51.0303,17.2927
1458,Lower Silesia,,Miłoszyce,55-220,51.0506,17.3116
1459,Lower Silesia,,Minkowice Oławskie,55-220,51.0184,17.464
1460,Lower Silesia,,Miłocice Małe,55-220,51.0388,17.4206
1461,Lower Silesia,,Nowy Dwór,55-220,51.0132,17.3744
1462,Lower Silesia,,Grędzina,55-220,51.0913,17.406
1463,Lower Silesia,,Mościsko,55-220,51.054,17.3549
1464,Lower Silesia,,Biskupice Oławskie,55-220,50.9993,17.5127
1465,Lower Silesia,,Celina,55-220,51.0056,17.4942
1466,Lower Silesia,,Chwałowice,55-220,51.0453,17.386
1467,Lower Silesia,,Jelcz-Laskowice,55-220,51.0336,17.3354
1468,Lower Silesia,,Wójcice,55-220,50.9804,17.473
1469,Lower Silesia,,Brzezinki,55-220,51.0883,17.3567
1470,Lower Silesia,,Dębina,55-220,51.0538,17.3878
1471,Lower Silesia,,Miłocice,55-220,51.0449,17.4825
1472,Lower Silesia,,Dąbrowa,59-100,51.4995,16.1413
1473,Lower Silesia,,Pieszkowice,59-100,51.4821,16.1384
1474,Lower Silesia,,Jędrzychów,59-100,51.4515,16.0399
1475,Lower Silesia,,Biedrzychowa,59-100,51.4792,16.1018
1476,Lower Silesia,,Trzebcz,59-100,51.5177,16.1109
1477,Lower Silesia,,Moskorzyn,59-100,51.542,16.0826
1478,Lower Silesia,,Tarnówek,59-100,51.514,16.1622
1479,Lower Silesia,,Polkowice,59-100,51.5026,16.0741
1480,Lower Silesia,,Żuków,59-100,51.544,16.1449
1481,Lower Silesia,,Kaźmierzów,59-100,51.5414,16.0595
1482,Lower Silesia,,Sobin,59-100,51.4756,16.0304
1483,Lower Silesia,,Guzice,59-100,51.5314,16.1031
1484,Lower Silesia,,Sucha Górna,59-100,51.539,16.0252
1485,Lower Silesia,,Komorniki,59-100,51.5287,16.1452
1486,Lower Silesia,,Nowa Wieś Lubińska,59-100,51.4675,15.9819
1487,Lower Silesia,,Żelazny Most,59-100,51.4769,16.1742
1488,Lower Silesia,,Jędrzychów,59-101,51.4503,16.0418
1489,Lower Silesia,,Pieszkowice,59-101,51.4823,16.1378
1490,Lower Silesia,,Sobin,59-101,51.4742,16.0294
1491,Lower Silesia,,Trzebcz,59-101,51.5186,16.1133
1492,Lower Silesia,,Żuków,59-101,51.5451,16.1484
1493,Lower Silesia,,Polkowice,59-101,51.5035,16.0646
1494,Lower Silesia,,Moskorzyn,59-101,51.5425,16.0871
1495,Lower Silesia,,Kaźmierzów,59-101,51.5415,16.0604
1496,Lower Silesia,,Sucha Górna,59-101,51.5374,16.024
1497,Lower Silesia,,Guzice,59-101,51.5297,16.1051
1498,Lower Silesia,,Nowa Wieś Lubińska,59-101,51.4676,15.9825
1499,Lower Silesia,,Komorniki,59-101,51.5297,16.1451
1500,Lower Silesia,,Dąbrowa,59-101,51.4988,16.1399
1501,Lower Silesia,,Biedrzychowa,59-101,51.4778,16.1025
1502,Lower Silesia,,Żelazny Most,59-101,51.477,16.1709
1503,Lower Silesia,,Tarnówek,59-101,51.5169,16.1687
1504,Lower Silesia,,Pogorzeliska,59-140,51.4669,15.9255
1505,Lower Silesia,,Chocianów,59-140,51.4199,15.9002
1506,Lower Silesia,,Żabice,59-140,51.3651,16.0281
1507,Lower Silesia,,Ogrodzisko,59-140,51.3658,16.0534
1508,Lower Silesia,,Michałów,59-140,51.3498,15.987
1509,Lower Silesia,,Szklary Dolne,59-140,51.4249,16.0473
1510,Lower Silesia,,Raków,59-140,51.3757,15.9296
1511,Lower Silesia,,Parchów,59-140,51.4826,15.942
1512,Lower Silesia,,Chocianowiec,59-140,51.391,15.9461
1513,Lower Silesia,,Trzebnice,59-140,51.3803,16.0026
1514,Lower Silesia,,Brunów,59-140,51.3913,16.0653
1515,Lower Silesia,,Jabłonów,59-140,51.5047,15.9186
1516,Lower Silesia,,Trzmielów,59-140,51.4298,16.0094
1517,Lower Silesia,,Chocianowiec,59-145,51.3902,15.9505
1518,Lower Silesia,,Duninów,59-145,51.3904,15.8839
1519,Lower Silesia,,Pogorzeliska,59-147,51.4662,15.9211
1520,Lower Silesia,,Parchów,59-147,51.4786,15.9444
1521,Lower Silesia,,Bucze,59-150,51.6121,16.216
1522,Lower Silesia,,Szymocin,59-150,51.5989,16.2349
1523,Lower Silesia,,Stara Rzeka,59-150,51.5609,16.1756
1524,Lower Silesia,,Żabice,59-150,51.5981,16.2587
1525,Lower Silesia,,Bieńków,59-150,51.558,16.1514
1526,Lower Silesia,,Krzydłowice,59-150,51.5455,16.2324
1527,Lower Silesia,,Grębocice,59-150,51.5989,16.1674
1528,Lower Silesia,,Retków,59-150,51.5895,16.2032
1529,Lower Silesia,,Proszyce,59-150,51.5684,16.2
1530,Lower Silesia,,Proszówek,59-150,51.5674,16.2241
1531,Lower Silesia,,Kwielice,59-150,51.5959,16.1219
1532,Lower Silesia,,Obiszów,59-150,51.5801,16.1132
1533,Lower Silesia,,Czerńczyce,59-150,51.6186,16.2167
1534,Lower Silesia,,Grodowiec,59-150,51.5444,16.173
1535,Lower Silesia,,Duża Wólka,59-150,51.5693,16.1344
1536,Lower Silesia,,Grodziszcze,59-150,51.5528,16.2062
1537,Lower Silesia,,Świnino,59-150,51.5692,16.1494
1538,Lower Silesia,,Ogorzelec,59-150,51.6053,16.1319
1539,Lower Silesia,,Trzęsów,59-150,51.591,16.3072
1540,Lower Silesia,,Wilczyn,59-150,51.5771,16.161
1541,Lower Silesia,,Rzeczyca,59-150,51.5883,16.2664
1542,Lower Silesia,,Jakubów,59-160,51.6075,15.9998
1543,Lower Silesia,,Drożów,59-160,51.6089,15.9734
1544,Lower Silesia,,Dobromil,59-160,51.5809,15.9892
1545,Lower Silesia,,Drożyna,59-160,51.6127,15.9549
1546,Lower Silesia,,Łagoszów Wielki,59-160,51.5706,15.9662
1547,Lower Silesia,,Kłębanowice,59-160,51.547,15.9366
1548,Lower Silesia,,Buczyna,59-160,51.546,15.9052
1549,Lower Silesia,,Nowa Kuźnia,59-160,51.5181,15.9068
1550,Lower Silesia,,Ułanów,59-160,51.5139,15.9529
1551,Lower Silesia,,Nowy Dwór,59-160,51.5323,15.866
1552,Lower Silesia,,Borów,59-160,51.592,15.9754
1553,Lower Silesia,,Sieroszowice,59-160,51.528,15.9524
1554,Lower Silesia,,Lipin,59-160,51.5816,15.935
1555,Lower Silesia,,Strogoborzyce,59-160,51.5345,15.9107
1556,Lower Silesia,,Teodorów,59-160,51.5229,15.8891
1557,Lower Silesia,,Radwanice,59-160,51.5763,15.9435
1558,Lower Silesia,,Przesieczna,59-160,51.5877,15.9638
1559,Lower Silesia,,Jakubowo Lubińskie,59-170,51.4639,15.8747
1560,Lower Silesia,,Przemków,59-170,51.5312,15.7838
1561,Lower Silesia,,Piotrowice,59-170,51.5231,15.7272
1562,Lower Silesia,,Jędrzychówek,59-170,51.4924,15.9105
1563,Lower Silesia,,Ostaszów,59-170,51.5454,15.8239
1564,Lower Silesia,,Karpie,59-170,51.5349,15.738
1565,Lower Silesia,,Wysoka,59-170,51.481,15.85
1566,Lower Silesia,,Łężce,59-170,51.5366,15.8071
1567,Lower Silesia,,Krępa,59-170,51.5448,15.8548
1568,Lower Silesia,,Wilkocin,59-170,51.4906,15.8172
1569,Lower Silesia,,Szklarki,59-170,51.5184,15.7636
1570,Lower Silesia,,Gaworzyce,59-170,51.6281,15.8822
1571,Lower Silesia,,Łąkociny,59-170,51.486,15.8954
1572,Lower Silesia,,Węgielin,59-170,51.4512,15.8665
1573,Lower Silesia,,Mieszków,59-180,51.6441,15.8665
1574,Lower Silesia,,Wierzchowice,59-180,51.63,15.96
1575,Lower Silesia,,Gaworzyce,59-180,51.628,15.8827
1576,Lower Silesia,,Grabik,59-180,51.6351,15.9188
1577,Lower Silesia,,Kłobuczyn,59-180,51.6126,15.9273
1578,Lower Silesia,,Kurów Wielki,59-180,51.6671,15.9084
1579,Lower Silesia,,Dzików,59-180,51.617,15.8552
1580,Lower Silesia,,Dalków,59-180,51.6618,15.8891
1581,Lower Silesia,,Korytów,59-180,51.6348,15.9384
1582,Lower Silesia,,Śrem,59-180,51.6445,15.9272
1583,Lower Silesia,,Witanowice,59-180,51.6548,15.9159
1584,Lower Silesia,,Koźlice,59-180,51.6048,15.8948
1585,Lower Silesia,,Gostyń,59-180,51.6499,15.8952
1586,Lower Silesia,,Dębniki,57-100,50.74,17.0612
1587,Lower Silesia,,Szczawin,57-100,50.7945,17.0577
1588,Lower Silesia,,Przeworno,57-100,50.6856,17.169
1589,Lower Silesia,,Strzegów,57-100,50.7515,17.041
1590,Lower Silesia,,Kazanów,57-100,50.7045,17.023
1591,Lower Silesia,,Gębczyce,57-100,50.7227,17.0524
1592,Lower Silesia,,Strzelin,57-100,50.7817,17.0717
1593,Lower Silesia,,Bierzyn,57-100,50.8138,17.0217
1594,Lower Silesia,,Głęboka,57-100,50.7768,17.1394
1595,Lower Silesia,,Biedrzychów,57-100,50.7731,17.1192
1596,Lower Silesia,,Kuropatnik,57-100,50.745,17.1063
1597,Lower Silesia,,Dobrogoszcz,57-100,50.762,17.0188
1598,Lower Silesia,,Nowolesie,57-100,50.7027,17.0577
1599,Lower Silesia,,Warkocz,57-100,50.8199,17.0456
1600,Lower Silesia,,Karszówek,57-100,50.7564,17.1766
1601,Lower Silesia,,Szczodrowice,57-100,50.7375,17.0319
1602,Lower Silesia,,Borów,57-100,50.8838,16.9913
1603,Lower Silesia,,Piotrowice,57-100,50.7903,17.0067
1604,Lower Silesia,,Pławna,57-100,50.8323,17.0918
1605,Lower Silesia,,Żeleźnik,57-100,50.742,17.1788
1606,Lower Silesia,,Krzepice,57-100,50.7917,17.123
1607,Lower Silesia,,Pęcz,57-100,50.789,17.041
1608,Lower Silesia,,Częszyce,57-100,50.8,17.1343
1609,Lower Silesia,,Gęsiniec,57-100,50.7633,17.0718
1610,Lower Silesia,,Nieszkowice,57-100,50.7055,16.9811
1611,Lower Silesia,,Mikoszów,57-100,50.7766,17.0374
1612,Lower Silesia,,Górzec,57-100,50.8107,17.0741
1613,Lower Silesia,,Wąwolnica,57-100,50.7286,17.0191
1614,Lower Silesia,,Muchowiec,57-100,50.7639,17.1533
1615,Lower Silesia,,Gościęcice,57-100,50.7597,17.0894
1616,Lower Silesia,,Karszów,57-100,50.7646,16.9919
1617,Lower Silesia,,Gębice,57-100,50.7132,17.0424
1618,Lower Silesia,,Dankowice,57-100,50.721,17.0136
1619,Lower Silesia,,Trześnia,57-100,50.832,17.1029
1620,Lower Silesia,,Chociwel,57-100,50.7986,17.094
1621,Lower Silesia,,Ludów Polski,57-100,50.828,17.0601
1622,Lower Silesia,,Brożec,57-100,50.818,17.1331
1623,Lower Silesia,,Ulica,57-100,50.805,17.1082
1624,Lower Silesia,,Biały Kościół,57-100,50.7303,17.0412
1625,Lower Silesia,,Skoroszowice,57-100,50.6972,16.9707
1626,Lower Silesia,,Stary Wiązów,57-120,50.8041,17.1969
1627,Lower Silesia,,Kurów,57-120,50.8587,17.2125
1628,Lower Silesia,,Wawrzyszów,57-120,50.7296,17.2315
1629,Lower Silesia,,Wawrzęcice,57-120,50.8411,17.1387
1630,Lower Silesia,,Jędrzychowice,57-120,50.8541,17.1853
1631,Lower Silesia,,Gułów,57-120,50.8317,17.1693
1632,Lower Silesia,,Kucharzowice,57-120,50.7852,17.2496
1633,Lower Silesia,,Kłosów,57-120,50.8076,17.323
1634,Lower Silesia,,Jaworów,57-120,50.8001,17.3082
1635,Lower Silesia,,Witowice,57-120,50.8424,17.2137
1636,Lower Silesia,,Bryłówek,57-120,50.8102,17.2705
1637,Lower Silesia,,Miechowice Oławskie,57-120,50.8127,17.2481
1638,Lower Silesia,,Łojowice,57-120,50.7378,17.2104
1639,Lower Silesia,,Janowo,57-120,50.8017,17.2313
1640,Lower Silesia,,Wiązów,57-120,50.8137,17.2025
1641,Lower Silesia,,Księżyce,57-120,50.7798,17.1955
1642,Lower Silesia,,Kowalów,57-120,50.7619,17.2291
1643,Lower Silesia,,Bryłów,57-120,50.8086,17.2903
1644,Lower Silesia,,Wyszonowice,57-120,50.7762,17.1613
1645,Lower Silesia,,Ośno,57-120,50.8483,17.1634
1646,Lower Silesia,,Kalinowa,57-120,50.8354,17.2529
1647,Lower Silesia,,Częstocice,57-120,50.8224,17.268
1648,Lower Silesia,,Krajno,57-120,50.7419,17.2432
1649,Lower Silesia,,Zborowice,57-120,50.8045,17.1735
1650,Lower Silesia,,Jutrzyna,57-120,50.7545,17.2636
1651,Lower Silesia,,Rożnów,57-130,50.6944,17.2239
1652,Lower Silesia,,Cierpice,57-130,50.6699,17.1668
1653,Lower Silesia,,Romanów,57-130,50.6959,17.0951
1654,Lower Silesia,,Dzierzkowa,57-130,50.6736,17.1323
1655,Lower Silesia,,Sarby,57-130,50.6415,17.1731
1656,Lower Silesia,,Samborowiczki,57-130,50.7004,17.1349
1657,Lower Silesia,,Dobroszów,57-130,50.6871,17.0857
1658,Lower Silesia,,Konary,57-130,50.6499,17.1557
1659,Lower Silesia,,Strużyna,57-130,50.7072,17.1841
1660,Lower Silesia,,Miłocice,57-130,50.6909,17.1227
1661,Lower Silesia,,Jegłowa,57-130,50.7298,17.1567
1662,Lower Silesia,,Ostrężna,57-130,50.6757,17.1105
1663,Lower Silesia,,Krzywina,57-130,50.7102,17.1565
1664,Lower Silesia,,Mników,57-130,50.6285,17.1566
1665,Lower Silesia,,Karnków,57-130,50.6687,17.2133
1666,Lower Silesia,,Jagielnica,57-130,50.6465,17.2215
1667,Lower Silesia,,Przeworno,57-130,50.687,17.1648
1668,Lower Silesia,,Jagielno,57-130,50.6302,17.2165
1669,Lower Silesia,,Strachów,57-150,50.7281,16.885
1670,Lower Silesia,,Podgaj,57-150,50.8229,16.9412
1671,Lower Silesia,,Rakowice,57-150,50.759,16.9197
1672,Lower Silesia,,Gołostowice,57-150,50.7493,16.9678
1673,Lower Silesia,,Zarzyca,57-150,50.7101,16.9382
1674,Lower Silesia,,Skała,57-150,50.7454,16.9883
1675,Lower Silesia,,Czerwieniec,57-150,50.723,16.948
1676,Lower Silesia,,Kowalskie,57-150,50.7307,16.9214
1677,Lower Silesia,,Lipowa,57-150,50.7337,16.9874
1678,Lower Silesia,,Janowiczki,57-150,50.7382,16.9441
1679,Lower Silesia,,Sadowice,57-150,50.7312,16.9716
1680,Lower Silesia,,Żelowice,57-150,50.7255,16.908
1681,Lower Silesia,,Stachów,57-150,50.7244,16.9685
1682,Lower Silesia,,Księginice Wielkie,57-150,50.7596,16.9016
1683,Lower Silesia,,Wójcin,57-150,50.72,16.9242
1684,Lower Silesia,,Kondratowice,57-150,50.7738,16.9342
1685,Lower Silesia,,Maleszów,57-150,50.7444,16.9276
1686,Lower Silesia,,Błotnica,57-150,50.7122,16.9081
1687,Lower Silesia,,Jezierzyce Małe,57-150,50.8278,16.9229
1688,Lower Silesia,,Białobrzezie,57-150,50.8,16.8996
1689,Lower Silesia,,Edwardów,57-150,50.7902,16.9708
1690,Lower Silesia,,Komorowice,57-150,50.7173,16.9847
1691,Lower Silesia,,Brochocinek,57-150,50.7999,16.9609
1692,Lower Silesia,,Karczyn,57-150,50.7996,16.9357
1693,Lower Silesia,,Grzegorzów,57-150,50.8176,16.9653
1694,Lower Silesia,,Górka Sobocka,57-150,50.7477,16.9557
1695,Lower Silesia,,Prusy,57-150,50.756,16.9342
1696,Lower Silesia,,Świnobród,57-160,50.8483,17.0594
1697,Lower Silesia,,Kępino,57-160,50.8354,17.0136
1698,Lower Silesia,,Uniszów,57-160,50.841,16.9785
1699,Lower Silesia,,Brzezica,57-160,50.8935,17.0034
1700,Lower Silesia,,Kurczów,57-160,50.9054,17.0426
1701,Lower Silesia,,Bartoszowa,57-160,50.8874,16.9728
1702,Lower Silesia,,Mańczyce,57-160,50.8598,16.9718
1703,Lower Silesia,,Boreczek,57-160,50.8822,17.0271
1704,Lower Silesia,,Borów,57-160,50.8827,16.9915
1705,Lower Silesia,,Piotrków Borowski,57-160,50.8727,16.9752
1706,Lower Silesia,,Stogi,57-160,50.8553,16.986
1707,Lower Silesia,,Brzoza,57-160,50.9084,17.0029
1708,Lower Silesia,,Jaksin,57-160,50.8494,17.074
1709,Lower Silesia,,Zielenice,57-160,50.8257,16.9873
1710,Lower Silesia,,Opatowice,57-160,50.874,17.013
1711,Lower Silesia,,Boguszyce,57-160,50.9039,16.9953
1712,Lower Silesia,,Kręczków,57-160,50.8919,17.0397
1713,Lower Silesia,,Borek Strzeliński,57-160,50.8673,17.0675
1714,Lower Silesia,,Rochowice,57-160,50.8732,16.9528
1715,Lower Silesia,,Głownin,57-160,50.8503,16.9644
1716,Lower Silesia,,Kazimierzów,57-160,50.864,17.026
1717,Lower Silesia,,Kojęcin,57-160,50.8595,17.0912
1718,Lower Silesia,,Siemianów,57-160,50.8441,16.928
1719,Lower Silesia,,Suchowice,57-160,50.8579,16.9347
1720,Lower Silesia,,Michałowice,57-160,50.8939,17.0645
1721,Lower Silesia,,Ludów Śląski,57-160,50.8488,17.0258
1722,Lower Silesia,,Jelenin,57-160,50.8602,17.0439
1723,Lower Silesia,,Lipnica,55-300,51.201,16.5646
1724,Lower Silesia,,Rakoszyce,55-300,51.0951,16.6506
1725,Lower Silesia,,Cesarzowice,55-300,51.1051,16.5676
1726,Lower Silesia,,Rzeczyca,55-300,51.2419,16.5552
1727,Lower Silesia,,Proszków,55-300,51.1649,16.5362
1728,Lower Silesia,,Kulin,55-300,51.1032,16.609
1729,Lower Silesia,,Święte,55-300,51.1819,16.659
1730,Lower Silesia,,Wrocisławice,55-300,51.1293,16.4913
1731,Lower Silesia,,Ogrodnica,55-300,51.1482,16.559
1732,Lower Silesia,,Gozdawa,55-300,51.1117,16.6564
1733,Lower Silesia,,Pęczków,55-300,51.1178,16.4771
1734,Lower Silesia,,Bukówek,55-300,51.1283,16.5263
1735,Lower Silesia,,Jugowiec,55-300,51.1371,16.6428
1736,Lower Silesia,,Jastrzębce,55-300,51.1844,16.5538
1737,Lower Silesia,,Chwalimierz,55-300,51.1435,16.5993
1738,Lower Silesia,,Kobylniki,55-300,51.2275,16.6752
1739,Lower Silesia,,Środa Śląska,55-300,51.165,16.5936
1740,Lower Silesia,,Przedmoście,55-300,51.189,16.6721
1741,Lower Silesia,,Komorniki,55-300,51.1663,16.6321
1742,Lower Silesia,,Zakrzów,55-300,51.2418,16.6136
1743,Lower Silesia,,Wojczyce,55-300,51.1409,16.6842
1744,Lower Silesia,,Michałów,55-300,51.1074,16.5379
1745,Lower Silesia,,Szczepanów,55-300,51.198,16.6144
1746,Lower Silesia,,Brodno,55-300,51.2291,16.5879
1747,Lower Silesia,,Słup,55-300,51.2357,16.6481
1748,Lower Silesia,,Ciechów,55-300,51.1295,16.5682
1749,Lower Silesia,,Juszczyn,55-300,51.1543,16.6777
1750,Lower Silesia,,Kryniczno,55-300,51.1303,16.6702
1751,Lower Silesia,,Szczepanów,55-301,51.1938,16.616
1752,Lower Silesia,,Czechy,55-311,51.0764,16.6572
1753,Lower Silesia,,Osiek,55-311,51.0091,16.5462
1754,Lower Silesia,,Paździorno,55-311,51.0191,16.6322
1755,Lower Silesia,,Samborz,55-311,51.0643,16.5572
1756,Lower Silesia,,Budziszów,55-311,51.1,16.6931
1757,Lower Silesia,,Wichrów,55-311,51.0344,16.5734
1758,Lower Silesia,,Wnorów,55-311,51.0728,16.7164
1759,Lower Silesia,,Sobkowice,55-311,51.0578,16.706
1760,Lower Silesia,,Pustynka,55-311,51.1172,16.7139
1761,Lower Silesia,,Bogdanów,55-311,51.0069,16.5751
1762,Lower Silesia,,Osieczyna,55-311,51.022,16.6117
1763,Lower Silesia,,Ramułtowice,55-311,51.0971,16.7221
1764,Lower Silesia,,Wilków Średzki,55-311,51.0663,16.7031
1765,Lower Silesia,,Jarząbkowice,55-311,51.1021,16.7651
1766,Lower Silesia,,Lisowice,55-311,51.0837,16.7457
1767,Lower Silesia,,Samsonowice,55-311,51.046,16.707
1768,Lower Silesia,,Świdnica Polska,55-311,51.0738,16.6779
1769,Lower Silesia,,Piotrowice,55-311,51.034,16.6786
1770,Lower Silesia,,Chmielów,55-311,51.0695,16.741
1771,Lower Silesia,,Jenkowice,55-311,51.0739,16.6
1772,Lower Silesia,,Zabłoto,55-311,51.0625,16.6111
1773,Lower Silesia,,Karczyce,55-311,51.1028,16.7443
1774,Lower Silesia,,Kostomłoty,55-311,51.0457,16.6123
1775,Lower Silesia,,Godków,55-311,51.0089,16.5981
1776,Lower Silesia,,Szymanowice,55-311,51.0553,16.6792
1777,Lower Silesia,,Sikorzyce,55-311,51.0891,16.6981
1778,Lower Silesia,,Jakubkowice,55-311,51.0595,16.6483
1779,Lower Silesia,,Piersno,55-311,51.0827,16.5722
1780,Lower Silesia,,Mieczków,55-311,51.0287,16.5393
1781,Lower Silesia,,Siemidrożyce,55-311,51.056,16.6642
1782,Lower Silesia,,Chełm,55-320,51.1288,16.461
1783,Lower Silesia,,Wilczków,55-320,51.1873,16.5033
1784,Lower Silesia,,Malczyce,55-320,51.2195,16.4921
1785,Lower Silesia,,Kwietno,55-320,51.1723,16.4733
1786,Lower Silesia,,Rachów,55-320,51.2001,16.5075
1787,Lower Silesia,,Mazurowice,55-320,51.2138,16.4616
1788,Lower Silesia,,Rusko,55-320,51.2023,16.4801
1789,Lower Silesia,,Dębice,55-320,51.1525,16.4874
1790,Lower Silesia,,Chomiąża,55-320,51.2117,16.525
1791,Lower Silesia,,Szymanów,55-320,51.1353,16.4648
1792,Lower Silesia,,Lenartowice,55-330,51.2441,16.7987
1793,Lower Silesia,,Lutynia,55-330,51.134,16.7852
1794,Lower Silesia,,Zabór Wielki,55-330,51.2135,16.7259
1795,Lower Silesia,,Mrozów,55-330,51.1871,16.7867
1796,Lower Silesia,,Głoska,55-330,51.2404,16.7233
1797,Lower Silesia,,Wilkszyn,55-330,51.1889,16.8589
1798,Lower Silesia,,Księginice,55-330,51.2424,16.7638
1799,Lower Silesia,,Prężyce,55-330,51.238,16.8188
1800,Lower Silesia,,Źródła,55-330,51.1599,16.7258
1801,Lower Silesia,,Radakowice,55-330,51.1294,16.7434
1802,Lower Silesia,,Wojnowice,55-330,51.2018,16.797
1803,Lower Silesia,,Pisarzowice,55-330,51.2081,16.8502
1804,Lower Silesia,,Gałów,55-330,51.1126,16.8096
1805,Lower Silesia,,Owieczki,55-330,51.2274,16.7314
1806,Lower Silesia,,Brzezina,55-330,51.1993,16.828
1807,Lower Silesia,,Łowęcice,55-330,51.1211,16.7422
1808,Lower Silesia,,Brzezinka Średzka,55-330,51.2152,16.8252
1809,Lower Silesia,,Kokorzyce,55-330,51.1682,16.7941
1810,Lower Silesia,,Miękinia,55-330,51.1906,16.7377
1811,Lower Silesia,,Kadłub,55-330,51.1749,16.6962
1812,Lower Silesia,,Gałówek,55-330,51.0976,16.8148
1813,Lower Silesia,,Błonie,55-330,51.1615,16.7499
1814,Lower Silesia,,Białków,55-330,51.2155,16.7649
1815,Lower Silesia,,Żurawiniec,55-330,51.1758,16.8152
1816,Lower Silesia,,Zabór Mały,55-330,51.2182,16.7015
1817,Lower Silesia,,Wróblowice,55-330,51.1477,16.7889
1818,Lower Silesia,,Warzyna,55-330,51.255,16.7739
1819,Lower Silesia,,Siemichów,55-330,51.1769,16.7061
1820,Lower Silesia,,Miłoszyn,55-330,51.1992,16.8793
1821,Lower Silesia,,Lubiatów,55-330,51.2256,16.6939
1822,Lower Silesia,,Łąkoszyce,55-330,51.2053,16.7646
1823,Lower Silesia,,Krępice,55-330,51.1641,16.813
1824,Lower Silesia,,Klęka,55-330,51.2094,16.7509
1825,Lower Silesia,,Gosławice,55-330,51.2248,16.8275
1826,Lower Silesia,,Głogi,55-330,51.2492,16.7251
1827,Lower Silesia,,Gąsiorów,55-330,51.2416,16.7406
1828,Lower Silesia,,Czerna,55-330,51.2261,16.8009
1829,Lower Silesia,,Zakrzyce,55-330,51.1152,16.7812
1830,Lower Silesia,,Wilkostów,55-330,51.2156,16.8043
1831,Lower Silesia,,Przydroże,55-330,51.1892,16.6926
1832,Lower Silesia,,Jarosław,55-340,51.069,16.5271
1833,Lower Silesia,,Udanin,55-340,51.0368,16.451
1834,Lower Silesia,,Pielaszkowice,55-340,51.0431,16.5112
1835,Lower Silesia,,Lasek,55-340,51.0146,16.466
1836,Lower Silesia,,Różana,55-340,51.0617,16.427
1837,Lower Silesia,,Łagiewniki Średzkie,55-340,51.0665,16.454
1838,Lower Silesia,,Ujazd Dolny,55-340,51.0981,16.5015
1839,Lower Silesia,,Damianowo,55-340,51.0543,16.3634
1840,Lower Silesia,,Karnice,55-340,51.0977,16.4807
1841,Lower Silesia,,Piekary,55-340,51.0354,16.4266
1842,Lower Silesia,,Konary,55-340,51.0398,16.3884
1843,Lower Silesia,,Jarostów,55-340,51.0751,16.4719
1844,Lower Silesia,,Drogomiłowice,55-340,51.0703,16.4303
1845,Lower Silesia,,Sokolniki,55-340,51.0515,16.5365
1846,Lower Silesia,,Dębnica,55-340,51.0141,16.4398
1847,Lower Silesia,,Gościsław,55-340,51.0156,16.5024
1848,Lower Silesia,,Pichorowice,55-340,51.0567,16.4893
1849,Lower Silesia,,Dziwigórz,55-340,51.0257,16.4404
1850,Lower Silesia,,Lusina,55-340,51.0177,16.3997
1851,Lower Silesia,,Ujazd Górny,55-340,51.0845,16.5
1852,Lower Silesia,,Witoszów Górny,58-100,50.8196,16.3934
1853,Lower Silesia,,Mała Lutomia,58-100,50.7702,16.5295
1854,Lower Silesia,,Krzyżowa,58-100,50.7979,16.536
1855,Lower Silesia,,Słotwina,58-100,50.8453,16.4504
1856,Lower Silesia,,Wieruszów,58-100,50.7866,16.5212
1857,Lower Silesia,,Komorów,58-100,50.8438,16.4157
1858,Lower Silesia,,Gogołów,58-100,50.8318,16.5892
1859,Lower Silesia,,Jakubów,58-100,50.8181,16.5022
1860,Lower Silesia,,Świdnica,58-100,50.8418,16.4872
1861,Lower Silesia,,Grodziszcze,58-100,50.7965,16.5613
1862,Lower Silesia,,Bystrzyca Dolna,58-100,50.8118,16.4766
1863,Lower Silesia,,Krzczonów,58-100,50.8191,16.5644
1864,Lower Silesia,,Jagodnik,58-100,50.8324,16.5271
1865,Lower Silesia,,Opoczka,58-100,50.7989,16.4998
1866,Lower Silesia,,Miłochów,58-100,50.8367,16.5475
1867,Lower Silesia,,Niegoszów,58-100,50.879,16.5207
1868,Lower Silesia,,Stachowiczki,58-100,50.7505,16.535
1869,Lower Silesia,,Bystrzyca Górna,58-100,50.7826,16.4567
1870,Lower Silesia,,Wiśniowa,58-100,50.8841,16.4991
1871,Lower Silesia,,Lutomia Dolna,58-100,50.7574,16.5377
1872,Lower Silesia,,Lutomia Górna,58-100,50.7482,16.5085
1873,Lower Silesia,,Makowice,58-100,50.8072,16.5068
1874,Lower Silesia,,Modliszów,58-100,50.7939,16.3933
1875,Lower Silesia,,Zawiszów,58-100,50.8701,16.4858
1876,Lower Silesia,,Bojanice,58-100,50.774,16.4978
1877,Lower Silesia,,Lubachów,58-100,50.7688,16.4298
1878,Lower Silesia,,Burkatów,58-100,50.7931,16.4686
1879,Lower Silesia,,Panków,58-100,50.8979,16.5308
1880,Lower Silesia,,Boleścin,58-100,50.8182,16.5282
1881,Lower Silesia,,Pogorzała,58-100,50.8069,16.3658
1882,Lower Silesia,,Pszenno,58-100,50.8545,16.5401
1883,Lower Silesia,,Sulisławice,58-100,50.8782,16.4944
1884,Lower Silesia,,Witoszów Dolny,58-100,50.8235,16.4325
1885,Lower Silesia,,Stachowice,58-100,50.7434,16.55
1886,Lower Silesia,,Wilków,58-100,50.8676,16.5381
1887,Lower Silesia,,Świdnica,58-105,50.8501,16.4706
1888,Lower Silesia,,Strzelce,58-124,50.9092,16.6616
1889,Lower Silesia,,Gruszów,58-124,50.8856,16.5583
1890,Lower Silesia,,Wirki,58-124,50.8381,16.6195
1891,Lower Silesia,,Klecin,58-124,50.8987,16.5692
1892,Lower Silesia,,Biała,58-124,50.8842,16.6638
1893,Lower Silesia,,Krasków,58-124,50.9133,16.5862
1894,Lower Silesia,,Wiry,58-124,50.8364,16.6467
1895,Lower Silesia,,Zebrzydów,58-124,50.8733,16.6113
1896,Lower Silesia,,Tworzyjanów,58-124,50.9264,16.6789
1897,Lower Silesia,,Śmiałowice,58-124,50.9031,16.5503
1898,Lower Silesia,,Chwałków,58-124,50.8959,16.6829
1899,Lower Silesia,,Szczepanów,58-124,50.8967,16.6257
1900,Lower Silesia,,Kątki,58-124,50.8573,16.6017
1901,Lower Silesia,,Tąpadła,58-124,50.8368,16.6777
1902,Lower Silesia,,Gola Świdnicka,58-124,50.9182,16.6098
1903,Lower Silesia,,Sady,58-124,50.8657,16.6719
1904,Lower Silesia,,Stefanowice,58-124,50.8899,16.5657
1905,Lower Silesia,,Marcinowice,58-124,50.8797,16.5822
1906,Lower Silesia,,Mysłaków,58-124,50.8564,16.6518
1907,Lower Silesia,,Kruków,58-130,50.9729,16.5101
1908,Lower Silesia,,Zastruże,58-130,50.9852,16.5152
1909,Lower Silesia,,Marcinowiczki,58-130,50.9739,16.5403
1910,Lower Silesia,,Bożanów,58-130,50.9219,16.5053
