,USPS,ST,NAME,ZCTA5,LAT,LON
0,England,,Saltmarshe,DN14,53.7216,-0.8049
1,England,,Howden,DN14,53.7421,-0.8657
2,England,,Faxfleet,DN14,53.7067,-0.6939
3,England,,Rawcliffe,DN14,53.6833,-0.95
4,England,,Blacktoft,DN14,53.708,-0.7273
5,England,,Balkholme,DN14,53.7432,-0.8087
6,England,,Swinefleet,DN14,53.6921,-0.8333
7,England,,Adlingfleet,DN14,53.6788,-0.7231
8,England,,Spaldington,DN14,53.7927,-0.849
9,England,,Goole,DN14,53.7167,-0.8667
10,England,,Whitgift,DN14,53.6953,-0.7671
11,England,,Hook,DN14,53.7205,-0.8479
12,England,,Kilpin,DN14,53.7316,-0.8312
13,England,,Barmby on the Marsh,DN14,53.749,-0.9561
14,England,,Airmyn,DN14,53.7207,-0.8996
15,England,,Laxton,DN14,53.7167,-0.8
16,England,,Snaith,DN14,53.6911,-1.0286
17,England,,Pollington,DN14,53.6709,-1.0724
18,England,,Ousefleet,DN14,53.6982,-0.7409
19,England,,Asselby,DN14,53.7427,-0.8849
20,England,,Eastrington,DN14,53.7604,-0.7932
21,England,,Skelton,DN14,53.7167,-0.8333
22,England,,Gowdall,DN14,53.693,-1.0597
23,England,,Reedness,DN14,53.6993,-0.7986
24,England,,Knedlington,DN14,53.7427,-0.8849
25,England,,Yokefleet,DN14,53.708,-0.7574
26,England,,Gribthorpe,DN14,53.7125,-0.8909
27,England,,East Cowick,DN14,53.7125,-0.8909
28,England,,Old Goole,DN14,53.7125,-0.8909
29,England,,Rawcliffe Bridge,DN14,53.7125,-0.8909
30,England,,Newsholme,DN14,53.7125,-0.8909
31,England,,Bellasize,DN14,53.7125,-0.8909
32,England,,Low Eggborough,DN14,53.7125,-0.8909
33,England,,Kingston upon Hull,HU1,53.7446,-0.3353
34,England,,Willerby,HU10,53.761,-0.4419
35,England,,Anlaby,HU10,53.7512,-0.4417
36,England,,Kirk Ella,HU10,53.754,-0.4549
37,England,,Sigglesthorne,HU11,53.8983,-0.2438
38,England,,Long Riston,HU11,53.865,-0.2889
39,England,,Sproatley,HU11,53.7938,-0.1913
40,England,,Withernwick,HU11,53.8489,-0.1874
41,England,,Great Cowden,HU11,53.8655,-0.1348
42,England,,Garton,HU11,53.8003,-0.0829
43,England,,Aldbrough,HU11,53.8289,-0.1147
44,England,,Rise,HU11,53.863,-0.2463
45,England,,Humbleton,HU11,53.7833,-0.15
46,England,,Flinton,HU11,53.8078,-0.148
47,England,,Great Hatfield,HU11,53.8273,-0.2206
48,England,,Swine,HU11,53.8063,-0.2759
49,England,,New Ellerby,HU11,53.8273,-0.2206
50,England,,Ganstead,HU11,53.8273,-0.2206
51,England,,Seaton,HU11,53.9072,-0.2349
52,England,,Goxhill,HU11,53.8273,-0.2206
53,England,,Bilton,HU11,53.7814,-0.2406
54,England,,Old Ellerby,HU11,53.8273,-0.2206
55,England,,West Newton,HU11,53.8273,-0.2206
56,England,,Coniston,HU11,53.7991,-0.2462
57,England,,Marton,HU11,53.8273,-0.2206
58,England,,South Skirlaugh,HU11,53.8273,-0.2206
59,England,,Tunstall,HU12,53.7688,-0.0201
60,England,,Burstwick,HU12,53.7321,-0.1396
61,England,,Winestead,HU12,53.702,-0.0327
62,England,,Keyingham,HU12,53.7096,-0.1133
63,England,,Ottringham,HU12,53.7009,-0.0791
64,England,,Sunk Island,HU12,53.6517,-0.0841
65,England,,Hedon,HU12,53.7396,-0.1966
66,England,,Easington,HU12,53.6536,0.115
67,England,,Welwick,HU12,53.6682,0.0316
68,England,,Paull,HU12,53.7201,-0.233
69,England,,Thorngumbald,HU12,53.721,-0.1717
70,England,,Patrington,HU12,53.6839,-0.0133
71,England,,Halsham,HU12,53.7299,-0.0745
72,England,,Old Hall,HU12,53.716,-0.1398
73,England,,Burton Pidsea,HU12,53.7633,-0.107
74,England,,Skeffling,HU12,53.6536,0.0738
75,England,,Lelley,HU12,53.716,-0.1398
76,England,,Roos,HU12,53.7529,-0.0446
77,England,,Haven Side,HU12,53.716,-0.1398
78,England,,Weeton,HU12,53.7244,-0.1277
79,England,,Wadworth Hill,HU12,53.716,-0.1398
80,England,,Elstronwick,HU12,53.7695,-0.139
81,England,,Preston,HU12,53.7509,-0.2072
82,England,,Kilnsea,HU12,53.7244,-0.1277
83,England,,Owstwick,HU12,53.716,-0.1398
84,England,,Hessle,HU13,53.7245,-0.4384
85,England,,Swanland,HU14,53.7373,-0.4917
86,England,,North Ferriby,HU14,53.7212,-0.5052
87,England,,West Ella,HU14,53.7293,-0.4984
88,England,,Scalby,HU15,53.7667,-0.7167
89,England,,Newport,HU15,53.7633,-0.6999
90,England,,Broomfleet,HU15,53.7333,-0.6667
91,England,,Ellerker,HU15,53.7532,-0.6042
92,England,,Welton,HU15,53.7321,-0.5523
93,England,,Elloughton,HU15,53.7378,-0.5699
94,England,,Sandholme,HU15,53.7662,-0.7455
95,England,,North Cave,HU15,53.7801,-0.6497
96,England,,Brantingham,HU15,53.7518,-0.577
97,England,,South Cave,HU15,53.7699,-0.6011
98,England,,Everthorpe,HU15,53.7686,-0.6369
99,England,,Riplingham,HU15,53.7508,-0.6477
100,England,,Staddlethorpe,HU15,53.7439,-0.7324
101,England,,Brough,HU15,53.7481,-0.6189
102,England,,Gilberdyke,HU15,53.7439,-0.7324
103,England,,Cottingham,HU16,53.7806,-0.4154
104,England,,Skidby,HU16,53.7892,-0.4613
105,England,,Eppleworth,HU16,53.7849,-0.4384
106,England,,Routh,HU17,53.8696,-0.3438
107,England,,Leven,HU17,53.8833,-0.3167
108,England,,Bishop Burton,HU17,53.8456,-0.4981
109,England,,Walkington,HU17,53.8195,-0.4896
110,England,,Tickton,HU17,53.8623,-0.3833
111,England,,Etton,HU17,53.8667,-0.5167
112,England,,Cherry Burton,HU17,53.8667,-0.5
113,England,,Leconfield,HU17,53.8773,-0.4573
114,England,,Beverley,HU17,53.8459,-0.4233
115,England,,Arram,HU17,53.8846,-0.4269
116,England,,Catwick,HU17,53.8921,-0.2782
117,England,,South Dalton,HU17,53.8955,-0.5301
118,England,,Holme on the Wolds,HU17,53.8622,-0.4318
119,England,,Bentley,HU17,53.8471,-0.4278
120,England,,Moles-croft,HU17,53.8622,-0.4318
121,England,,Thearne,HU17,53.8622,-0.4318
122,England,,Gardham,HU17,53.8622,-0.4318
123,England,,Woodmansey,HU17,53.8284,-0.4227
124,England,,Little Catwick,HU17,53.8622,-0.4318
125,England,,Hornsea,HU18,53.9104,-0.1681
126,England,,Mappleton,HU18,53.8769,-0.1366
127,England,,Rolston,HU18,53.8936,-0.1523
128,England,,Waxholme,HU19,53.7411,0.0089
129,England,,Withernsea,HU19,53.7311,0.0335
130,England,,Hollym,HU19,53.704,0.0401
131,England,,Out Newton,HU19,53.6757,0.0906
132,England,,Holmpton,HU19,53.6877,0.0658
133,England,,Rimswell,HU19,53.7232,0.0346
134,England,,Hull,HU2,53.7446,-0.3353
135,England,,Little Weighton,HU20,53.7902,-0.5068
136,England,,Rowley,HU20,53.7902,-0.5068
137,England,,Hull,HU3,53.7446,-0.3353
138,England,,Hull,HU4,53.7446,-0.3353
139,England,,Hull,HU5,53.7603,-0.3758
140,England,,Dunswell,HU6,53.8011,-0.3714
141,England,,Sutton-on-Hull,HU7,53.7799,-0.305
142,England,,Wawne,HU7,53.8171,-0.3484
143,England,,Stoneferry,HU7,53.7985,-0.3267
144,England,,Hull,HU8,53.7693,-0.2998
145,England,,Marfleet,HU9,53.7495,-0.2726
146,England,,Bempton,YO15,54.1304,-0.1785
147,England,,Fraisthorpe,YO15,54.0365,-0.2413
148,England,,Flamborough,YO15,54.1149,-0.1227
149,England,,Buckton,YO15,54.0939,-0.1808
150,England,,Hilderthorpe,YO15,54.0939,-0.1808
151,England,,Sewerby,YO15,54.0939,-0.1808
152,England,,Grindale,YO16,54.1245,-0.2736
153,England,,Bessingby,YO16,54.0763,-0.2302
154,England,,Carnaby,YO16,54.0726,-0.2493
155,England,,Boynton,YO16,54.0975,-0.2648
156,England,,Bridlington,YO16,54.0831,-0.1919
157,England,,Garton-on-the-Wolds,YO25,54.021,-0.5028
158,England,,Beswick,YO25,53.9326,-0.4809
159,England,,Foston on the Wolds,YO25,53.9822,-0.328
160,England,,Burshill,YO25,53.9167,-0.3333
161,England,,Lund,YO25,53.9192,-0.5221
162,England,,Rudston,YO25,54.0909,-0.3282
163,England,,Lissett,YO25,54.0053,-0.2516
164,England,,Skipsea,YO25,53.9767,-0.2208
165,England,,Fimber,YO25,54.0333,-0.633
166,England,,Nafferton,YO25,54.0196,-0.3919
167,England,,Sledmere,YO25,54.0714,-0.5766
168,England,,Wold Newton,YO25,54.1333,-0.4
169,England,,North Dalton,YO25,53.9572,-0.5759
170,England,,Kilnwick,YO25,53.9326,-0.4809
171,England,,Barmston,YO25,54.0141,-0.2286
172,England,,Atwick,YO25,53.9401,-0.189
173,England,,Dunnington,YO25,53.95,-0.25
174,England,,Beeford,YO25,53.97,-0.2891
175,England,,Middleton-on-the-Wolds,YO25,53.9335,-0.5609
176,England,,Ruston Parva,YO25,54.0437,-0.3778
177,England,,Lowthorpe,YO25,54.0283,-0.3496
178,England,,Kilham,YO25,54.05,-0.3667
179,England,,Harpham,YO25,54.039,-0.3269
180,England,,Fridaythorpe,YO25,54.0201,-0.6653
181,England,,Wetwang,YO25,54.0175,-0.5774
182,England,,Brigham,YO25,53.9667,-0.35
183,England,,Ulrome,YO25,53.992,-0.2297
184,England,,Watton,YO25,53.9333,-0.45
185,England,,Skerne,YO25,53.9836,-0.4069
186,England,,Thwing,YO25,54.1155,-0.3895
187,England,,Fordon,YO25,54.15,-0.3833
188,England,,Lockington,YO25,53.9141,-0.4857
189,England,,Bewholme,YO25,53.9331,-0.2266
190,England,,Brandesburton,YO25,53.9111,-0.3012
191,England,,Bainton,YO25,53.95,-0.5333
192,England,,Burton Fleming,YO25,54.1356,-0.3409
193,England,,Kirkburn,YO25,53.9834,-0.504
194,England,,Hutton Cranswick,YO25,53.9512,-0.3783
195,England,,Towthorpe,YO25,53.9377,-0.4425
196,England,,Little Driffield,YO25,54.0022,-0.4661
197,England,,Tibthorpe,YO25,53.9866,-0.5369
198,England,,Wansford,YO25,53.9947,-0.3815
199,England,,Burton Agnes,YO25,54.0514,-0.3156
200,England,,Thornholme,YO25,53.9377,-0.4425
201,England,,Rotsea,YO25,53.9512,-0.3783
202,England,,Southburn,YO25,53.9762,-0.4927
203,England,,Swaythorpe,YO25,53.9377,-0.4425
204,England,,North Frodingham,YO25,53.9595,-0.3239
205,England,,Langtoft,YO25,54.0883,-0.4583
206,England,,Little Burton,YO25,53.9377,-0.4425
207,England,,Church End,YO25,54.0044,-0.4154
208,England,,Thorpe,YO25,54.0044,-0.4154
209,England,,Old Sunderlandwick,YO25,53.9377,-0.4425
210,England,,Great Kelk,YO25,53.9377,-0.4425
211,England,,Scorborough,YO25,54.0044,-0.4154
212,England,,Hempholme,YO25,53.9377,-0.4425
213,England,,Cottam,YO25,54.0732,-0.5082
214,England,,Great Driffield,YO25,53.9377,-0.4425
215,England,,Elmswell,YO25,53.9377,-0.4425
216,England,,Kelleythorpe,YO25,53.9377,-0.4425
217,England,,West End,YO25,53.9377,-0.4425
218,England,,Gransmoor,YO25,53.9377,-0.4425
219,England,,Octon,YO25,53.9377,-0.4425
220,England,,Haisthorpe,YO25,53.9377,-0.4425
221,England,,Gembling,YO25,53.9377,-0.4425
222,England,,Eastburn,YO25,53.9377,-0.4425
223,England,,Cowlam Manor,YO25,53.9377,-0.4425
224,England,,Aike,YO25,53.9377,-0.4425
225,England,,Wilberfoss,YO41,53.9485,-0.8895
226,England,,Helmsley,YO41,53.9697,-0.9024
227,England,,Skirpenbeck,YO41,54.0039,-0.8621
228,England,,Huggate,YO42,53.9855,-0.6567
229,England,,Barmby Moor,YO42,53.9308,-0.8152
230,England,,Meltonby,YO42,53.9185,-0.7737
231,England,,Hayton,YO42,53.9,-0.75
232,England,,Laytham,YO42,53.9185,-0.7737
233,England,,Pocklington,YO42,53.9334,-0.7811
234,England,,Storwood,YO42,53.9185,-0.7737
235,England,,Everingham,YO42,53.8738,-0.7802
236,England,,Melbourne,YO42,53.8875,-0.8593
237,England,,Bielby,YO42,53.8842,-0.7975
238,England,,North Newbald,YO43,53.8167,-0.6167
239,England,,Hotham,YO43,53.7958,-0.6425
240,England,,Shiptonthorpe,YO43,53.8252,-0.6414
241,England,,Market Weighton,YO43,53.8631,-0.6651
242,England,,Holme-on-Spalding-Moor,YO43,53.8252,-0.6414
243,England,,Foggathorpe,YO8,53.8294,-0.8554
244,England,,Wressle,YO8,53.7737,-0.9247
245,England,,Breighton,YO8,53.7969,-0.9241
246,England,,Bubwith,YO8,53.819,-0.9197
247,England,,Highfield,YO8,53.8179,-0.9011
248,England,,Clipsham,LE15,52.7361,-0.5655
249,England,,Upper Hambleton,LE15,52.6585,-0.6698
250,England,,Edith Weston,LE15,52.6379,-0.6319
251,England,,North Luffenham,LE15,52.6211,-0.6199
252,England,,Greetham,LE15,52.7206,-0.6307
253,England,,Oakham,LE15,52.6667,-0.7333
254,England,,Empingham,LE15,52.6672,-0.596
255,England,,Cottesmore,LE15,52.7138,-0.6633
256,England,,Ridlington,LE15,52.6134,-0.756
257,England,,Uppingham,LE15,52.588,-0.7227
258,England,,Morcott,LE15,52.5967,-0.637
259,England,,Seaton,LE15,52.5749,-0.6676
260,England,,Thistleton,LE15,52.7514,-0.6484
261,England,,Burley,LE15,52.6851,-0.6961
262,England,,Manton,LE15,52.6322,-0.7004
263,England,,Langham,LE15,52.6915,-0.7539
264,England,,Market Overton,LE15,52.7381,-0.6863
265,England,,Exton,LE15,52.6911,-0.6346
266,England,,Wing,LE15,52.6177,-0.6827
267,England,,South Luffenham,LE15,52.6086,-0.6123
268,England,,Lyddington,LE15,52.5646,-0.7107
269,England,,Braunston,LE15,52.6517,-0.7689
270,England,,Barrowden,LE15,52.5903,-0.6024
271,England,,Brooke,LE15,52.6432,-0.7464
272,England,,Wardley,LE15,52.5934,-0.7721
273,England,,Belton,LE15,52.6019,-0.795
274,England,,Pilton,LE15,52.6164,-0.6504
275,England,,Ashwell,LE15,52.714,-0.7192
276,England,,Egleton,LE15,52.6572,-0.7068
277,England,,Thorpe by Water,LE15,52.6377,-0.7436
278,England,,Cold Overton,LE15,52.6377,-0.7436
279,England,,Whitwell,LE15,52.6678,-0.6343
280,England,,Stretton,LE15,52.7396,-0.5937
281,England,,Preston,LE15,52.6125,-0.7143
282,England,,Normanton,LE15,52.646,-0.6203
283,England,,Barrow,LE15,52.7262,-0.6801
284,England,,Ayston,LE15,52.6005,-0.7299
285,England,,Marefield,LE15,52.6561,-0.7007
286,England,,Barleythorpe,LE15,52.6791,-0.742
287,England,,Whissendine,LE15,52.7187,-0.7786
288,England,,Teigh,LE15,52.7351,-0.7242
289,England,,Stoke Dry,LE15,52.5637,-0.738
290,England,,Lyndon,LE15,52.6294,-0.6574
291,England,,Glaston,LE15,52.5949,-0.6762
292,England,,Bisbrooke,LE15,52.5869,-0.696
293,England,,Ketton,PE9,52.628,-0.5546
294,England,,Ryhall,PE9,52.6859,-0.4685
295,England,,Essendine,PE9,52.7019,-0.4525
296,England,,Tinwell,PE9,52.6463,-0.515
297,England,,Pickworth,PE9,52.7131,-0.5332
298,England,,Tickencote,PE9,52.675,-0.537
299,England,,Great Casterton,PE9,52.6736,-0.5209
300,England,,Little Casterton,PE9,52.6714,-0.5021
301,England,,Tixover,PE9,52.5996,-0.5568
302,England,,Woore,CW3,52.977,-2.4024
303,England,,Kinlet,DY12,52.4197,-2.4146
304,England,,Cleobury Mortimer,DY14,52.3785,-2.482
305,England,,Farlow,DY14,52.4225,-2.5301
306,England,,Silvington,DY14,52.4167,-2.5667
307,England,,Neen Savage,DY14,52.3932,-2.4792
308,England,,Stottesdon,DY14,52.4361,-2.4808
309,England,,Milson,DY14,52.355,-2.5296
310,England,,Neen Sollars,DY14,52.3467,-2.498
311,England,,Doddington,DY14,52.3805,-2.4665
312,England,,Hopton Wafers,DY14,52.3922,-2.5496
313,England,,Llanfair Waterdine,LD7,52.3833,-3.1167
314,England,,Quabbs,LD7,52.4105,-3.0078
315,England,,Five Turnings,LD7,52.4105,-3.0078
316,England,,Milebrook,LD7,52.4105,-3.0078
317,England,,Dutlas,LD7,52.4105,-3.0078
318,England,,Panpunton,LD7,52.4105,-3.0078
319,England,,Lloyney,LD7,52.4105,-3.0078
320,England,,Pilleth,LD7,52.4105,-3.0078
321,England,,Rhos-y-Meirch,LD7,52.4105,-3.0078
322,England,,Stowe,LD7,52.3522,-3.0334
323,England,,Shrewsbury,SY1,52.7101,-2.7521
324,England,,Battlefield,SY1,52.7234,-2.7415
325,England,,Selattyn,SY10,52.9,-3.0833
326,England,,Rhydycroesau,SY10,52.8676,-3.1203
327,England,,Llynclys,SY10,52.8097,-3.0661
328,England,,Ball,SY10,52.8167,-3.0333
329,England,,Maesbury Marsh,SY10,52.8167,-3.0167
330,England,,Pant,SY10,52.7833,-3.0667
331,England,,Trefonen,SY10,52.8333,-3.1
332,England,,Knockin,SY10,52.7965,-2.9967
333,England,,Llanyblodwel,SY10,52.7991,-3.1252
334,England,,Gobowen,SY10,52.8961,-3.0369
335,England,,Kinnerley,SY10,52.7839,-2.9855
336,England,,Llawnt,SY10,52.8394,-3.1236
337,England,,Lledrod,SY10,52.8394,-3.1236
338,England,,Morda,SY10,52.8394,-3.1236
339,England,,Nantmawr,SY10,52.8394,-3.1236
340,England,,Treflach,SY10,52.8394,-3.1236
341,England,,Craignant,SY10,52.8394,-3.1236
342,England,,Crickheath,SY10,52.8394,-3.1236
343,England,,Alltforgan,SY10,52.8394,-3.1236
344,England,,Bwlch-y-ddar,SY10,52.8394,-3.1236
345,England,,Edgerley,SY10,52.8394,-3.1236
346,England,,Weston Rhyn,SY10,52.9155,-3.0673
347,England,,Woolston,SY10,52.8394,-3.1236
348,England,,Abertridwr,SY10,52.8394,-3.1236
349,England,,Cefn-coch,SY10,52.8394,-3.1236
350,England,,Tan-y-pistyll,SY10,52.8394,-3.1236
351,England,,Tyn-y-ffridd,SY10,52.8394,-3.1236
352,England,,Preesgweene,SY10,52.8394,-3.1236
353,England,,Penygarnedd,SY10,52.8394,-3.1236
354,England,,Penisarcwn,SY10,52.8394,-3.1236
355,England,,Pencraig,SY10,52.8394,-3.1236
356,England,,Hengoed,SY10,52.8394,-3.1236
357,England,,Morton,SY10,52.8394,-3.1236
358,England,,Cedig,SY10,52.8394,-3.1236
359,England,,Porth-y-waen,SY10,52.8394,-3.1236
360,England,,Pentre,SY10,52.8394,-3.1236
361,England,,Rhiwargor,SY10,52.8394,-3.1236
362,England,,Rhewl,SY10,52.8394,-3.1236
363,England,,Rhiwlas,SY10,52.8394,-3.1236
364,England,,Pentrefelin,SY10,52.8394,-3.1236
365,England,,Brogyntyn,SY10,52.8394,-3.1236
366,England,,Croesau Bach,SY10,52.8394,-3.1236
367,England,,Dovaston,SY10,52.8394,-3.1236
368,England,,Moelfre,SY10,52.8394,-3.1236
369,England,,Eardiston,SY11,52.8167,-2.9333
370,England,,Rednal,SY11,52.8486,-2.9475
371,England,,Haughton,SY11,52.8388,-2.9359
372,England,,Whittington,SY11,52.8667,-3
373,England,,Oswestry,SY11,52.8619,-3.055
374,England,,Ifton Heath,SY11,52.9254,-3.0062
375,England,,West Felton,SY11,52.8249,-2.9735
376,England,,St Martin's,SY11,52.8054,-2.9458
377,England,,Hindford,SY11,52.8904,-2.9913
378,England,,Queen's Head,SY11,52.8054,-2.9458
379,England,,Street Dinas,SY11,52.8054,-2.9458
380,England,,Rhyn,SY11,52.8054,-2.9458
381,England,,Middleton,SY11,52.8695,-3.0318
382,England,,New Marton,SY11,52.8054,-2.9458
383,England,,Grimpo,SY11,52.8054,-2.9458
384,England,,Babbinswood,SY11,52.8054,-2.9458
385,England,,Welsh Frankton,SY11,52.8054,-2.9458
386,England,,Weirbrook,SY11,52.8054,-2.9458
387,England,,Ellesmere,SY12,52.9167,-2.8833
388,England,,Cockshutt,SY12,52.8568,-2.8409
389,England,,Colemere,SY12,52.8893,-2.8429
390,England,,Welshampton,SY12,52.9099,-2.8385
391,England,,Dudleston Heath,SY12,52.8888,-2.8656
392,England,,Tetchill,SY12,52.8888,-2.8656
393,England,,Lower Hordley,SY12,52.8888,-2.8656
394,England,,Perthy,SY12,52.8888,-2.8656
395,England,,Lee,SY12,52.8888,-2.8656
396,England,,English Frankton,SY12,52.8888,-2.8656
397,England,,Lyneal,SY12,52.8888,-2.8656
398,England,,Sodylt Bank,SY12,52.8888,-2.8656
399,England,,Elson,SY12,52.8888,-2.8656
400,England,,Hordley,SY12,52.8511,-2.8975
401,England,,Kenwick,SY12,52.8888,-2.8656
402,England,,Bagley,SY12,52.8888,-2.8656
403,England,,Whitchurch,SY13,52.9667,-2.6833
404,England,,Prees,SY13,52.8969,-2.664
405,England,,Tilstock,SY13,52.9356,-2.6838
406,England,,Broughall,SY13,52.9441,-2.6649
407,England,,Fauls,SY13,52.8904,-2.6129
408,England,,Ightfield,SY13,52.9413,-2.6058
409,England,,Whixall,SY13,52.9054,-2.721
410,England,,Calverhall,SY13,52.9441,-2.6649
411,England,,Marley Green,SY13,52.9441,-2.6649
412,England,,Prees Higher Heath,SY13,52.9441,-2.6649
413,England,,Platt Lane,SY13,52.9441,-2.6649
414,England,,Edgeley,SY13,52.9441,-2.6649
415,England,,Alkington,SY13,52.9441,-2.6649
416,England,,Prees Green,SY13,52.9523,-2.6903
417,England,,Millenheath,SY13,52.9441,-2.6649
418,England,,Eglwys Cross,SY13,52.9441,-2.6649
419,England,,Horseman's Green,SY13,52.9441,-2.6649
420,England,,The Chequer,SY13,52.9441,-2.6649
421,England,,Wilkesley,SY13,52.9441,-2.6649
422,England,,Arowry,SY13,52.9441,-2.6649
423,England,,Bronington,SY13,52.9441,-2.6649
424,England,,Burleydam,SY13,52.9441,-2.6649
425,England,,Darliston,SY13,52.9441,-2.6649
426,England,,Welsh End,SY13,52.9441,-2.6649
427,England,,Ash Magna,SY13,52.9441,-2.6649
428,England,,Hollinwood,SY13,52.9523,-2.6903
429,England,,Chirbury,SY15,52.5783,-3.0903
430,England,,Sutton,SY2,52.7065,-2.7295
431,England,,Marton,SY21,52.6167,-3.05
432,England,,Meole Brace,SY3,52.6872,-2.7561
433,England,,Bayston Hill,SY3,52.6755,-2.7616
434,England,,Bicton,SY3,52.7333,-2.8167
435,England,,Great Lyth,SY3,52.699,-2.7725
436,England,,Shelton,SY3,52.699,-2.7725
437,England,,Bicton Heath,SY3,52.699,-2.7725
438,England,,The Isle,SY3,52.699,-2.7725
439,England,,Astley,SY4,52.7667,-2.7
440,England,,Tilley,SY4,52.8333,-2.7333
441,England,,Petton,SY4,52.8333,-2.8333
442,England,,Lee Brockhurst,SY4,52.8399,-2.6737
443,England,,Moreton Corbet,SY4,52.8058,-2.657
444,England,,Baschurch,SY4,52.7885,-2.8528
445,England,,Hadnall,SY4,52.7738,-2.71
446,England,,Albrighton,SY4,52.75,-2.75
447,England,,Wem,SY4,52.8584,-2.7183
448,England,,Weston,SY4,52.8547,-2.647
449,England,,Preston Gubbals,SY4,52.7721,-2.7531
450,England,,Burlton,SY4,52.829,-2.8067
451,England,,Myddle,SY4,52.8102,-2.789
452,England,,Shrawardine,SY4,52.732,-2.8904
453,England,,Little Ness,SY4,52.7713,-2.8796
454,England,,Clive,SY4,52.8,-2.7167
455,England,,Withington,SY4,52.7167,-2.6
456,England,,Merrington,SY4,52.7823,-2.7847
457,England,,Wilcott,SY4,52.7633,-2.9271
458,England,,Leaton,SY4,52.7618,-2.7913
459,England,,Great Ness,SY4,52.7638,-2.8915
460,England,,Walford,SY4,52.8,-2.8333
461,England,,Weston Lullingfields,SY4,52.8187,-2.8546
462,England,,Stanton upon Hine Heath,SY4,52.8117,-2.6408
463,England,,Haughton,SY4,52.8388,-2.9359
464,England,,Montford,SY4,52.732,-2.8904
465,England,,Edstaston,SY4,52.8821,-2.7167
466,England,,Marchamley,SY4,52.8615,-2.6007
467,England,,Rodington,SY4,52.7255,-2.61
468,England,,Loppington,SY4,52.8589,-2.7875
469,England,,Shawbury,SY4,52.7833,-2.65
470,England,,Kinton,SY4,52.7683,-2.9336
471,England,,Grinshill,SY4,52.806,-2.7118
472,England,,Yorton,SY4,52.8092,-2.7385
473,England,,Fitz,SY4,52.7558,-2.8195
474,England,,Paddolgreen,SY4,52.691,-2.6049
475,England,,Upton Magna,SY4,52.7081,-2.6604
476,England,,Newtown,SY4,52.7981,-2.752
477,England,,Aston,SY4,52.7981,-2.752
478,England,,Forton,SY4,52.7981,-2.752
479,England,,Alderton,SY4,52.7981,-2.752
480,England,,Norton,SY4,52.7981,-2.752
481,England,,Northwood,SY4,52.7981,-2.752
482,England,,Grafton,SY4,52.7981,-2.752
483,England,,Yeaton,SY4,52.691,-2.6049
484,England,,Stanwardine in the Fields,SY4,52.691,-2.6049
485,England,,Preston Brockhurst,SY4,52.691,-2.6049
486,England,,Poynton Green,SY4,52.691,-2.6049
487,England,,Harmer Hill,SY4,52.691,-2.6049
488,England,,Great Wytheford,SY4,52.691,-2.6049
489,England,,Nesscliffe,SY4,52.691,-2.6049
490,England,,Felton Butler,SY4,52.691,-2.6049
491,England,,Quina Brook,SY4,52.691,-2.6049
492,England,,Noneley,SY4,52.691,-2.6049
493,England,,Ensdon,SY4,52.691,-2.6049
494,England,,High Hatton,SY4,52.691,-2.6049
495,England,,Booley,SY4,52.691,-2.6049
496,England,,Wykey,SY4,52.691,-2.6049
497,England,,Myddlewood,SY4,52.691,-2.6049
498,England,,Besford,SY4,52.7981,-2.752
499,England,,Pentre,SY4,52.7981,-2.752
500,England,,Montford Bridge,SY4,52.691,-2.6049
501,England,,Edgebolton,SY4,52.691,-2.6049
502,England,,Bomere Heath,SY4,52.691,-2.6049
503,England,,Wolverley,SY4,52.7981,-2.752
504,England,,Prescott,SY4,52.7981,-2.752
505,England,,Uffington,SY4,52.7217,-2.7002
506,England,,Ruyton-XI-Towns,SY4,52.7972,-2.9055
507,England,,Milford,SY4,52.7981,-2.752
508,England,,Westbury,SY5,52.6833,-2.95
509,England,,Longnor,SY5,52.6,-2.75
510,England,,Minsterley,SY5,52.6399,-2.9281
511,England,,Wroxeter,SY5,52.6704,-2.6476
512,England,,Pontesbury,SY5,52.6483,-2.8903
513,England,,Yockleton,SY5,52.6855,-2.8892
514,England,,Hughley,SY5,52.5775,-2.6433
515,England,,Alberbury,SY5,52.7223,-2.9507
516,England,,Pulverbatch,SY5,52.6202,-2.8443
517,England,,Pitchford,SY5,52.6284,-2.6955
518,England,,Atcham,SY5,52.6796,-2.6797
519,England,,Acton Burnell,SY5,52.6139,-2.6947
520,England,,Church Pulverbatch,SY5,52.6202,-2.8443
521,England,,Habberley,SY5,52.6167,-2.8833
522,England,,Shelve,SY5,52.5848,-2.9801
523,England,,Berrington,SY5,52.65,-2.7
524,England,,Stapleton,SY5,52.6333,-2.7833
525,England,,Worthen,SY5,52.6358,-2.9951
526,England,,Condover,SY5,52.6483,-2.7503
527,England,,Wollaston,SY5,52.7,-3
528,England,,Meadowtown,SY5,52.6042,-3.0185
529,England,,Cressage,SY5,52.6336,-2.605
530,England,,Great Hanwood,SY5,52.6833,-2.8167
531,England,,Brockton,SY5,52.6333,-3
532,England,,Harley,SY5,52.6,-2.6
533,England,,Asterley,SY5,52.6576,-2.9256
534,England,,Exfords Green,SY5,52.6515,-2.8327
535,England,,Dorrington,SY5,52.6167,-2.7833
536,England,,Ratlinghope,SY5,52.565,-2.883
537,England,,Ford,SY5,52.7167,-2.85
538,England,,Kenley,SY5,52.6,-2.6333
539,England,,Plealey,SY5,52.6568,-2.8546
540,England,,Hinton,SY5,52.6515,-2.8327
541,England,,Cardeston,SY5,52.7051,-2.8969
542,England,,Hope,SY5,52.6515,-2.8327
543,England,,Cound,SY5,52.6401,-2.6545
544,England,,Leigh,SY5,52.6515,-2.8327
545,England,,Frodesley,SY5,52.6079,-2.7202
546,England,,Donnington,SY5,52.6515,-2.8327
547,England,,Dryton,SY5,52.6515,-2.8327
548,England,,The Marsh,SY5,52.6515,-2.8327
549,England,,Rowley,SY5,52.6515,-2.8327
550,England,,Farley,SY5,52.6515,-2.8327
551,England,,Bridges,SY5,52.6515,-2.8327
552,England,,Edge,SY5,52.6515,-2.8327
553,England,,Upper Cound,SY5,52.6515,-2.8327
554,England,,Great Ryton,SY5,52.6515,-2.8327
555,England,,Eaton Constantine,SY5,52.6515,-2.8327
556,England,,Cross Houses,SY5,52.6515,-2.8327
557,England,,Cantlop,SY5,52.6515,-2.8327
558,England,,Black Marsh,SY5,52.6515,-2.8327
559,England,,Betton,SY5,52.6515,-2.8327
560,England,,Aston Rogers,SY5,52.6515,-2.8327
561,England,,Acton Pigott,SY5,52.6515,-2.8327
562,England,,Wrentnall,SY5,52.6515,-2.8327
563,England,,Stoney Stretton,SY5,52.6515,-2.8327
564,England,,Nox,SY5,52.6515,-2.8327
565,England,,Crewgreen,SY5,52.6515,-2.8327
566,England,,Leighton,SY5,52.6515,-2.8327
567,England,,Cruckton,SY5,52.6515,-2.8327
568,England,,Cruckmeole,SY5,52.6515,-2.8327
569,England,,Lea,SY5,52.6515,-2.8327
570,England,,Longden,SY5,52.6563,-2.8175
571,England,,Sheinton,SY5,52.6309,-2.5734
572,England,,Westley,SY5,52.6515,-2.8327
573,England,,Perkins Beach,SY5,52.6515,-2.8327
574,England,,Shoot Hill,SY5,52.6515,-2.8327
575,England,,The Bog,SY5,52.6515,-2.8327
576,England,,Gravels,SY5,52.6515,-2.8327
577,England,,Snailbeach,SY5,52.6515,-2.8327
578,England,,Pontesford,SY5,52.6515,-2.8327
579,England,,Pennerley,SY5,52.6515,-2.8327
580,England,,Longwood,SY5,52.6515,-2.8327
581,England,,Halfway House,SY5,52.6515,-2.8327
582,England,,Binweston,SY5,52.6515,-2.8327
583,England,,Annscroft,SY5,52.6515,-2.8327
584,England,,Vennington,SY5,52.6515,-2.8327
585,England,,Stretton Heath,SY5,52.6515,-2.8327
586,England,,Ruckley,SY5,52.6515,-2.8327
587,England,,Ploxgreen,SY5,52.6515,-2.8327
588,England,,Lower Wallop,SY5,52.6515,-2.8327
589,England,,Hook-a-Gate,SY5,52.6515,-2.8327
590,England,,Golding,SY5,52.6515,-2.8327
591,England,,Marshbrook,SY6,52.5035,-2.8238
592,England,,Acton Scott,SY6,52.501,-2.8048
593,England,,Hope Bowdler,SY6,52.5274,-2.7757
594,England,,Ticklerton,SY6,52.5129,-2.7615
595,England,,Eaton,SY6,52.5,-2.75
596,England,,Picklescott,SY6,52.5899,-2.8347
597,England,,Woolstaston,SY6,52.5808,-2.81
598,England,,All Stretton,SY6,52.5539,-2.7979
599,England,,Rushbury,SY6,52.5226,-2.7182
600,England,,Church Stretton,SY6,52.5378,-2.8015
601,England,,Little Stretton,SY6,52.5167,-2.8167
602,England,,Cardington,SY6,52.55,-2.7333
603,England,,Leebotwood,SY6,52.5846,-2.7752
604,England,,Gretton,SY6,52.5364,-2.7923
605,England,,Alcaston,SY6,52.5364,-2.7923
606,England,,Woolston,SY6,52.5364,-2.7923
607,England,,Whittingslow,SY6,52.5364,-2.7923
608,England,,Harton,SY6,52.5364,-2.7923
609,England,,Hatton,SY6,52.5364,-2.7923
610,England,,Church Preen,SY6,52.5775,-2.6727
611,England,,Wall Bank,SY6,52.5364,-2.7923
612,England,,Wall under Heywood,SY6,52.5364,-2.7923
613,England,,Plaish,SY6,52.5364,-2.7923
614,England,,Enchmarsh,SY6,52.5364,-2.7923
615,England,,Minton,SY6,52.5364,-2.7923
616,England,,Upper Affcot,SY6,52.5364,-2.7923
617,England,,Lydbury North,SY7,52.4676,-2.957
618,England,,Newcastle,SY7,52.4333,-3.1167
619,England,,Broome,SY7,52.4167,-2.8833
620,England,,Sibdon Carwood,SY7,52.443,-2.8661
621,England,,Clunton,SY7,52.426,-2.9798
622,England,,Clungunford,SY7,52.4039,-2.8848
623,England,,Craven Arms,SY7,52.4431,-2.8356
624,England,,Plowden,SY7,52.4841,-2.9152
625,England,,Hoptonheath,SY7,52.3833,-2.9167
626,England,,Edgton,SY7,52.4669,-2.9038
627,England,,Bettws-y-crwyn,SY7,52.4333,-3.1667
628,England,,Clun,SY7,52.4214,-3.0275
629,England,,Horderley,SY7,52.4764,-2.8704
630,England,,Clunbury,SY7,52.4187,-2.9255
631,England,,Clee St Margaret,SY7,52.45,-2.65
632,England,,Wistanstow,SY7,52.4647,-2.8376
633,England,,Tugford,SY7,52.4806,-2.6535
634,England,,Bedstone,SY7,52.3748,-2.9273
635,England,,Halford,SY7,52.4467,-2.8256
636,England,,Diddlebury,SY7,52.4658,-2.7325
637,England,,Abdon,SY7,52.4806,-2.6535
638,England,,Llwyn,SY7,52.451,-2.7599
639,England,,Bucknell,SY7,52.3667,-2.95
640,England,,Onibury,SY7,52.4083,-2.8031
641,England,,Stokesay,SY7,52.4283,-2.83
642,England,,Munslow,SY7,52.4849,-2.7057
643,England,,Hopesay,SY7,52.4454,-2.8982
644,England,,Kempton,SY7,52.451,-2.7599
645,England,,Hopton Castle,SY7,52.3902,-2.9459
646,England,,Myndtown,SY7,52.5109,-2.8973
647,England,,Newton,SY7,52.4258,-2.8872
648,England,,Anchor,SY7,52.4258,-2.8872
649,England,,Wootton,SY7,52.4258,-2.8872
650,England,,Norton,SY7,52.4258,-2.8872
651,England,,Upper Heath,SY7,52.451,-2.7599
652,England,,Twitchen,SY7,52.451,-2.7599
653,England,,New Invention,SY7,52.451,-2.7599
654,England,,Bicton,SY7,52.4258,-2.8872
655,England,,Walcot,SY7,52.4258,-2.8872
656,England,,Woodside,SY7,52.4258,-2.8872
657,England,,Letton,SY7,52.4258,-2.8872
658,England,,Brockton,SY7,52.4258,-2.8872
659,England,,Asterton,SY7,52.451,-2.7599
660,England,,Aston Munslow,SY7,52.451,-2.7599
661,England,,Bouldon,SY7,52.451,-2.7599
662,England,,Broadstone,SY7,52.451,-2.7599
663,England,,Aston on Clun,SY7,52.451,-2.7599
664,England,,Cheney Longville,SY7,52.451,-2.7599
665,England,,Middlehope,SY7,52.451,-2.7599
666,England,,Shelderton,SY7,52.451,-2.7599
667,England,,Lower Dinchope,SY7,52.451,-2.7599
668,England,,Obley,SY7,52.451,-2.7599
669,England,,Peaton,SY7,52.451,-2.7599
670,England,,Strefford,SY7,52.451,-2.7599
671,England,,Vernolds Common,SY7,52.451,-2.7599
672,England,,Whitcott Keysett,SY7,52.451,-2.7599
673,England,,Buckton,SY7,52.451,-2.7599
674,England,,Chapel Lawn,SY7,52.451,-2.7599
675,England,,Hall of the Forest,SY7,52.451,-2.7599
676,England,,Hobarris,SY7,52.451,-2.7599
677,England,,Little Brampton,SY7,52.451,-2.7599
678,England,,Lower Down,SY7,52.451,-2.7599
679,England,,Purlogue,SY7,52.451,-2.7599
680,England,,Walford,SY7,52.4258,-2.8872
681,England,,Kinton,SY7,52.4258,-2.8872
682,England,,Purslow,SY7,52.451,-2.7599
683,England,,Eyton,SY7,52.4258,-2.8872
684,England,,Birtley,SY7,52.451,-2.7599
685,England,,Corfton,SY7,52.451,-2.7599
686,England,,Westhope,SY7,52.451,-2.7599
687,England,,Stanton Lacy,SY8,52.4048,-2.7426
688,England,,Ashford Carbonel,SY8,52.3318,-2.6991
689,England,,Culmington,SY8,52.4339,-2.7473
690,England,,Coreley,SY8,52.3597,-2.5616
691,England,,Bromfield,SY8,52.3833,-2.7667
692,England,,Ludlow,SY8,52.3743,-2.7131
693,England,,Caynham,SY8,52.3537,-2.6617
694,England,,Stoke St Milborough,SY8,52.4333,-2.6333
695,England,,Woofferton,SY8,52.3126,-2.7051
696,England,,Hope Bagot,SY8,52.3627,-2.6049
697,England,,Bitterley,SY8,52.393,-2.6449
698,England,,Hopton Cangeford,SY8,52.4196,-2.6673
699,England,,Siefton,SY8,52.383,-2.6942
700,England,,Richard's Castle,SY8,52.3126,-2.7051
701,England,,Knowbury,SY8,52.383,-2.6942
702,England,,Middleton,SY8,52.3833,-2.6833
703,England,,Comberton,SY8,52.3654,-2.6954
704,England,,Farden,SY8,52.383,-2.6942
705,England,,Aston,SY8,52.3654,-2.6954
706,England,,Greete,SY8,52.3394,-2.6404
707,England,,Ashford Bowdler,SY8,52.331,-2.713
708,England,,Hayton's Bent,SY8,52.383,-2.6942
709,England,,Downton on the Rock,SY8,52.383,-2.6942
710,England,,Whitton,SY8,52.3529,-2.6243
711,England,,Cleehill,SY8,52.383,-2.6942
712,England,,Cleedownton,SY8,52.383,-2.6942
713,England,,Lower Hayton,SY8,52.383,-2.6942
714,England,,Upper Hayton,SY8,52.383,-2.6942
715,England,,Nash,SY8,52.3534,-2.5843
716,England,,Great Sutton,SY8,52.3654,-2.6954
717,England,,Snitton,SY8,52.383,-2.6942
718,England,,Overton,SY8,52.3654,-2.6954
719,England,,Hints,SY8,52.383,-2.6942
720,England,,Wyson,SY8,52.383,-2.6942
721,England,,Knowle,SY8,52.3654,-2.6954
722,England,,Ludford,SY8,52.383,-2.6942
723,England,,Henley,SY8,52.383,-2.6942
724,England,,Middleton on the Hill,SY8,52.3654,-2.6954
725,England,,Orleton Common,SY8,52.383,-2.6942
726,England,,Acton,SY9,52.45,-3.0167
727,England,,Wentnor,SY9,52.5294,-2.9093
728,England,,Lydham,SY9,52.5148,-2.9797
729,England,,Norbury,SY9,52.5333,-2.95
730,England,,More,SY9,52.5175,-2.9692
731,England,,Bishop's Castle,SY9,52.4921,-3.0021
732,England,,Mainstone,SY9,52.4833,-3.0833
733,England,,Shrewsbury,SY99,52.7101,-2.7521
734,England,,Wellington,TF1,52.7,-2.5167
735,England,,Hadley,TF1,52.7,-2.4833
736,England,,Arleston,TF1,52.7,-2.5
737,England,,Leegomery,TF1,52.7,-2.5
738,England,,Newport,TF10,52.7833,-2.3833
739,England,,Forton,TF10,52.7833,-2.3667
740,England,,Tibberton,TF10,52.7833,-2.4667
741,England,,Lilleshall,TF10,52.7342,-2.4032
742,England,,Woodcote,TF10,52.7333,-2.3333
743,England,,Longford,TF10,52.7592,-2.4119
744,England,,Edgmond,TF10,52.774,-2.4097
745,England,,Chetwynd Aston,TF10,52.7549,-2.3676
746,England,,Church Aston,TF10,52.7579,-2.3854
747,England,,Sutton,TF10,52.7689,-2.3882
748,England,,Beckbury,TF11,52.6121,-2.3482
749,England,,Sutton Maddock,TF11,52.61,-2.4104
750,England,,Sheriffhales,TF11,52.6959,-2.3582
751,England,,Tong,TF11,52.6667,-2.3
752,England,,Ryton,TF11,52.6167,-2.35
753,England,,Shifnal,TF11,52.6704,-2.3725
754,England,,Crackleybank,TF11,52.6959,-2.3582
755,England,,Tong Norton,TF11,52.6306,-2.3342
756,England,,Brineton,TF11,52.6306,-2.3342
757,England,,Kemberton,TF11,52.6384,-2.3987
758,England,,Heath Hill,TF11,52.6306,-2.3342
759,England,,Stockton,TF11,52.5988,-2.3999
760,England,,The Wyke,TF11,52.6306,-2.3342
761,England,,Norton,TF11,52.6641,-2.3583
762,England,,Weston Heath,TF11,52.6306,-2.3342
763,England,,Grindle,TF11,52.6306,-2.3342
764,England,,Brockton,TF11,52.6641,-2.3583
765,England,,Broseley,TF12,52.6132,-2.4827
766,England,,Benthall,TF12,52.6192,-2.4963
767,England,,Willey,TF12,52.5833,-2.4833
768,England,,Barrow,TF12,52.6032,-2.4897
769,England,,Stanton Long,TF13,52.5119,-2.631
770,England,,Much Wenlock,TF13,52.5958,-2.5575
771,England,,Easthope,TF13,52.5533,-2.6407
772,England,,Presthope,TF13,52.5727,-2.6179
773,England,,Bourton,TF13,52.5667,-2.6
774,England,,Longville in the Dale,TF13,52.5397,-2.6803
775,England,,East Wall,TF13,52.5793,-2.5809
776,England,,Stretton Westwood,TF13,52.5793,-2.5809
777,England,,Shipton,TF13,52.525,-2.6452
778,England,,Homer,TF13,52.5793,-2.5809
779,England,,Holdgate,TF13,52.5793,-2.5809
780,England,,Wyke,TF13,52.5793,-2.5809
781,England,,Weston,TF13,52.5793,-2.5809
782,England,,Brockton,TF13,52.5793,-2.5809
783,England,,Trench,TF2,52.7167,-2.4667
784,England,,Oakengates,TF2,52.695,-2.4504
785,England,,Redhill,TF2,52.7041,-2.4402
786,England,,Donnington,TF2,52.7041,-2.4402
787,England,,Telford,TF3,52.6766,-2.4493
788,England,,Stirchley,TF3,52.6766,-2.4493
789,England,,Hollinswood,TF3,52.6766,-2.4493
790,England,,Oldpark,TF3,52.6766,-2.4493
791,England,,Horsehay,TF4,52.6589,-2.4886
792,England,,Lawley,TF4,52.6833,-2.4833
793,England,,Dawley,TF4,52.6649,-2.4674
794,England,,Admaston,TF5,52.7167,-2.55
795,England,,Little Wenlock,TF6,52.6799,-2.5369
796,England,,Walcot,TF6,52.7,-2.6
797,England,,Great Bolas,TF6,52.7891,-2.5223
798,England,,Wrockwardine,TF6,52.7045,-2.5568
799,England,,Cherrington,TF6,52.7763,-2.4964
800,England,,Eyton upon the Weald Moors,TF6,52.7333,-2.5167
801,England,,Rowton,TF6,52.7667,-2.5833
802,England,,High Ercall,TF6,52.7541,-2.6024
803,England,,Crudgington,TF6,52.7592,-2.5491
804,England,,Preston upon the Weald Moors,TF6,52.7357,-2.4732
805,England,,Uppington,TF6,52.6704,-2.6476
806,England,,Aston,TF6,52.7365,-2.5555
807,England,,Muckleton,TF6,52.7365,-2.5555
808,England,,Poynton,TF6,52.7365,-2.5555
809,England,,Roden,TF6,52.7365,-2.5555
810,England,,Kynnersley,TF6,52.7501,-2.4928
811,England,,Rushton,TF6,52.7365,-2.5555
812,England,,Walton,TF6,52.7365,-2.5555
813,England,,Long Waste,TF6,52.7365,-2.5555
814,England,,Longdon upon Tern,TF6,52.7365,-2.5555
815,England,,Rushmoor,TF6,52.7365,-2.5555
816,England,,Isombridge,TF6,52.7365,-2.5555
817,England,,Waters Upton,TF6,52.7706,-2.5364
818,England,,Osbaston,TF6,52.7365,-2.5555
819,England,,Sleapford,TF6,52.7365,-2.5555
820,England,,Marsh Green,TF6,52.7365,-2.5555
821,England,,Ellerdine Heath,TF6,52.7365,-2.5555
822,England,,Madeley,TF7,52.6333,-2.4333
823,England,,Coalport,TF8,52.6192,-2.4507
824,England,,Ironbridge,TF8,52.6279,-2.4847
825,England,,Coalbrookdale,TF8,52.6382,-2.4917
826,England,,Buildwas,TF8,52.6343,-2.5267
827,England,,Peplow,TF9,52.8166,-2.5456
828,England,,Lockleywood,TF9,52.8515,-2.46
829,England,,Moreton Say,TF9,52.9061,-2.5524
830,England,,Market Drayton,TF9,52.9054,-2.4901
831,England,,Ollerton,TF9,52.8971,-2.4704
832,England,,Adderley,TF9,52.954,-2.5047
833,England,,Hodnet,TF9,52.8505,-2.5682
834,England,,Child's Ercall,TF9,52.8248,-2.4925
835,England,,Hinstock,TF9,52.8371,-2.4576
836,England,,Longford,TF9,52.8971,-2.4704
837,England,,Pipe Gate,TF9,52.9632,-2.3915
838,England,,Aston,TF9,52.8971,-2.4704
839,England,,Ternhill,TF9,52.8857,-2.5431
840,England,,Cheswardine,TF9,52.8652,-2.4145
841,England,,Norton in Hales,TF9,52.9441,-2.4431
842,England,,Hopton,TF9,52.8971,-2.4704
843,England,,Soudley,TF9,52.8971,-2.4704
844,England,,Knighton,TF9,52.8971,-2.4704
845,England,,Sutton,TF9,52.8971,-2.4704
846,England,,Boraston,WR15,52.3263,-2.5673
847,England,,Romsley,WV15,52.45,-2.3167
848,England,,Alveley,WV15,52.4571,-2.3543
849,England,,Worfield,WV15,52.5581,-2.3576
850,England,,Quatt,WV15,52.4913,-2.3616
851,England,,Hilton,WV15,52.5667,-2.3167
852,England,,Quatford,WV15,52.5164,-2.3875
853,England,,Chesterton,WV15,52.5154,-2.375
854,England,,Six Ashes,WV15,52.5154,-2.375
855,England,,Allscot,WV15,52.5154,-2.375
856,England,,Swancote,WV15,52.5154,-2.375
857,England,,Roughton,WV15,52.5154,-2.375
858,England,,Birdsgreen,WV15,52.5154,-2.375
859,England,,Wyken,WV15,52.5154,-2.375
860,England,,Bridgnorth,WV16,52.5366,-2.4203
861,England,,Morville,WV16,52.5442,-2.4892
862,England,,Glazeley,WV16,52.4905,-2.4413
863,England,,Cleobury North,WV16,52.4777,-2.5561
864,England,,Monkhopton,WV16,52.5383,-2.5531
865,England,,Burwarton,WV16,52.4624,-2.5609
866,England,,Hampton,WV16,52.4667,-2.3833
867,England,,Neenton,WV16,52.4873,-2.5373
868,England,,Astley Abbotts,WV16,52.562,-2.4309
869,England,,Ditton Priors,WV16,52.4991,-2.5775
870,England,,Highley,WV16,52.4487,-2.3825
871,England,,Acton Round,WV16,52.5571,-2.5372
872,England,,Billingsley,WV16,52.4555,-2.4233
873,England,,Eardington,WV16,52.5141,-2.4121
874,England,,Aston Botterell,WV16,52.4548,-2.5428
875,England,,Loughton,WV16,52.4333,-2.5667
876,England,,Chetton,WV16,52.5108,-2.4966
877,England,,Nordley,WV16,52.5642,-2.4534
878,England,,Aston Eyre,WV16,52.5472,-2.5131
879,England,,Sutton,WV16,52.5642,-2.4534
880,England,,Woodhill,WV16,52.5642,-2.4534
881,England,,Wheathill,WV16,52.4328,-2.582
882,England,,Middleton Priors,WV16,52.5642,-2.4534
883,England,,Tasley,WV16,52.5642,-2.4534
884,England,,Cross Lane Head,WV16,52.5642,-2.4534
885,England,,The Smithies,WV16,52.5642,-2.4534
886,England,,Woodlands,WV16,52.5642,-2.4534
887,England,,Chelmarsh,WV16,52.4843,-2.4053
888,England,,Haughton,WV16,52.5108,-2.4404
889,England,,Oldbury,WV16,52.5108,-2.4404
890,England,,Deuxhill,WV16,52.4795,-2.4451
891,England,,Middleton Scriven,WV16,52.4889,-2.4803
892,England,,Upton Cressett,WV16,52.5285,-2.5171
893,England,,Chorley,WV16,52.5108,-2.4404
894,England,,Sidbury,WV16,52.4633,-2.4613
895,England,,Claverley,WV5,52.5379,-2.3065
896,England,,Badger,WV6,52.5928,-2.3444
897,England,,Albrighton,WV7,52.6333,-2.2667
898,England,,Cosford,WV7,52.6358,-2.2794
899,England,,Shackerley,WV7,52.6358,-2.2794
900,England,,Boningale,WV7,52.6203,-2.272
901,England,,Monkton Deverill,BA12,51.1348,-2.209
902,England,,Kingston Deverill,BA12,51.1326,-2.2167
903,England,,Stourton,BA12,51.105,-2.3156
904,England,,Brixton Deverill,BA12,51.1473,-2.198
905,England,,Norton Bavant,BA12,51.187,-2.1306
906,England,,Codford St Mary,BA12,51.1558,-2.0389
907,England,,Knook,BA12,51.1759,-2.0906
908,England,,Fisherton de la Mere,BA12,51.1457,-2.0017
909,England,,Corsley,BA12,51.2189,-2.2481
910,England,,Boreham,BA12,51.1994,-2.1656
911,England,,Sutton Veny,BA12,51.1782,-2.1499
912,England,,Chitterne,BA12,51.1995,-2.008
913,England,,Upton Scudamore,BA12,51.23,-2.1933
914,England,,Zeals,BA12,51.0856,-2.3123
915,England,,Sherrington,BA12,51.1511,-2.0564
916,England,,Bishopstrow,BA12,51.1931,-2.1553
917,England,,West Knoyle,BA12,51.0878,-2.2076
918,England,,Heytesbury,BA12,51.1824,-2.1068
919,England,,Mere,BA12,51.0889,-2.2669
920,England,,Tytherington,BA12,51.1683,-2.1211
921,England,,Corton,BA12,51.1631,-2.09
922,England,,Barrow Street,BA12,51.1594,-2.1537
923,England,,Longbridge Deverill,BA12,51.1665,-2.1883
924,England,,Warminster,BA12,51.2043,-2.1787
925,England,,Boyton,BA12,51.155,-2.0711
926,England,,Horningsham,BA12,51.1695,-2.2707
927,England,,Corsley Heath,BA12,51.2069,-2.2578
928,England,,Norton Ferris,BA12,51.1594,-2.1537
929,England,,Stockton,BA12,51.1453,-2.0319
930,England,,Kilmington,BA12,51.1269,-2.3269
931,England,,Kilmington Street,BA12,51.1594,-2.1537
932,England,,Codford St Peter,BA12,51.1597,-2.0531
933,England,,Crockerton,BA12,51.1594,-2.1537
934,England,,Wylye,BA12,51.1371,-1.9895
935,England,,Shear Cross,BA12,51.1594,-2.1537
936,England,,Maiden Bradley,BA12,51.1497,-2.2858
937,England,,Upton Lovell,BA12,51.1685,-2.0785
938,England,,Deptford,BA12,51.15,-1.9833
939,England,,Bratton,BA13,51.2706,-2.1244
940,England,,Dilton Marsh,BA13,51.2478,-2.2183
941,England,,Westbury,BA13,51.26,-2.1875
942,England,,Chapmanslade,BA13,51.2292,-2.2489
943,England,,Coulston,BA13,51.2859,-2.0715
944,England,,Hawkeridge,BA13,51.2615,-2.1595
945,England,,Edington,BA13,51.2758,-2.1064
946,England,,Westbury Leigh,BA13,51.2615,-2.1595
947,England,,Heywood,BA13,51.2768,-2.1987
948,England,,Keevil,BA14,51.3213,-2.115
949,England,,Holt,BA14,51.3556,-2.1972
950,England,,West Ashton,BA14,51.2988,-2.1738
951,England,,Steeple Ashton,BA14,51.3103,-2.1354
952,England,,Southwick,BA14,51.2969,-2.2325
953,England,,North Bradley,BA14,51.295,-2.2047
954,England,,Semington,BA14,51.3449,-2.148
955,England,,Trowbridge,BA14,51.3189,-2.2086
956,England,,Staverton,BA14,51.3399,-2.2071
957,England,,Hilperton,BA14,51.3367,-2.1949
958,England,,Wingfield,BA14,51.3089,-2.2528
959,England,,Ashton Common,BA14,51.3194,-2.2026
960,England,,Trowle Common,BA14,51.3194,-2.2026
961,England,,Yarnbrook,BA14,51.3194,-2.2026
962,England,,Great Hinton,BA14,51.3299,-2.1373
963,England,,South Wraxall,BA15,51.3818,-2.2424
964,England,,Bradford-on-Avon,BA15,51.3477,-2.2506
965,England,,Westwood,BA15,51.3311,-2.2739
966,England,,Bradford Leigh,BA15,51.3536,-2.2556
967,England,,Monkton Farleigh,BA15,51.3858,-2.2814
968,England,,Winsley,BA15,51.3497,-2.2858
969,England,,Chilton Foliat,RG17,51.4324,-1.5391
970,England,,Swindon,SN1,51.558,-1.7812
971,England,,Bishops Cannings,SN10,51.3766,-1.948
972,England,,Devizes,SN10,51.3508,-1.9942
973,England,,Rowde,SN10,51.3633,-2.031
974,England,,Poulshot,SN10,51.3355,-2.0449
975,England,,Roundway,SN10,51.368,-1.9808
976,England,,Marston,SN10,51.3108,-2.0497
977,England,,Patney,SN10,51.3279,-1.8978
978,England,,Bulkington,SN10,51.3236,-2.0836
979,England,,Little Cheverell,SN10,51.281,-2.0133
980,England,,Market Lavington,SN10,51.2876,-1.9773
981,England,,Urchfont,SN10,51.3122,-1.9429
982,England,,Potterne,SN10,51.3292,-2.0052
983,England,,Great Cheverell,SN10,51.2878,-2.0269
984,England,,Worton,SN10,51.3161,-2.0411
985,England,,Erlestoke,SN10,51.2847,-2.0544
986,England,,Calstone Wellington,SN10,51.3369,-1.9872
987,England,,Eastcott,SN10,51.3255,-2.0607
988,England,,Stert,SN10,51.3332,-1.9548
989,England,,Chirton,SN10,51.3143,-1.8971
990,England,,All Cannings,SN10,51.3574,-1.898
991,England,,Easterton,SN10,51.2965,-1.9718
992,England,,Potterne Wick,SN10,51.3255,-2.0607
993,England,,Wedhampton,SN10,51.3255,-2.0607
994,England,,Coate,SN10,51.3255,-2.0607
995,England,,Littleton Panell,SN10,51.3255,-2.0607
996,England,,Allington,SN10,51.3369,-1.9872
997,England,,Horton,SN10,51.3369,-1.9872
998,England,,Marden,SN10,51.3211,-1.8777
999,England,,West Lavington,SN10,51.2787,-1.9963
1000,England,,Etchilhampton,SN10,51.3422,-1.933
1001,England,,Cherhill,SN11,51.4299,-1.9509
1002,England,,Bremhill,SN11,51.4567,-2.0303
1003,England,,Highway,SN11,51.4667,-1.9333
1004,England,,Compton Bassett,SN11,51.4495,-1.9481
1005,England,,Studley,SN11,51.4422,-2.0497
1006,England,,Hilmarton,SN11,51.4766,-1.9719
1007,England,,Yatesbury,SN11,51.442,-1.908
1008,England,,Clevancy,SN11,51.4503,-1.9747
1009,England,,Calne,SN11,51.4388,-2.0057
1010,England,,Mile Elm,SN11,51.4503,-1.9747
1011,England,,Heddington,SN11,51.3973,-2.0086
1012,England,,Blackland,SN11,51.4503,-1.9747
1013,England,,Goatacre,SN11,51.4503,-1.9747
1014,England,,Charlcutt,SN11,51.4503,-1.9747
1015,England,,Spirthill,SN11,51.4503,-1.9747
1016,England,,Stockley,SN11,51.4503,-1.9747
1017,England,,Quemerford,SN11,51.4503,-1.9747
1018,England,,Derry Hill,SN11,51.4503,-1.9747
1019,England,,Beanacre,SN12,51.3929,-2.1402
1020,England,,Seend,SN12,51.3481,-2.0847
1021,England,,Atworth,SN12,51.3923,-2.193
1022,England,,Melksham,SN12,51.3728,-2.14
1023,England,,Broughton Gifford,SN12,51.3721,-2.1755
1024,England,,Norrington Common,SN12,51.3723,-2.1373
1025,England,,Shaw,SN12,51.3723,-2.1373
1026,England,,Melksham Forest,SN12,51.3723,-2.1373
1027,England,,Seend Cleeve,SN12,51.3723,-2.1373
1028,England,,Sells Green,SN12,51.3723,-2.1373
1029,England,,Sandridge,SN12,51.3723,-2.1373
1030,England,,Gastard,SN13,51.4158,-2.1667
1031,England,,Box,SN13,51.4147,-2.2456
1032,England,,Corsham,SN13,51.4343,-2.1844
1033,England,,Cross Keys,SN13,51.4411,-2.1853
1034,England,,Neston,SN13,51.4122,-2.2006
1035,England,,Hawthorn,SN13,51.4242,-2.2236
1036,England,,Easton,SN13,51.4255,-2.2106
1037,England,,Ashley,SN13,51.4255,-2.2106
1038,England,,Hullavington,SN14,51.5378,-2.1516
1039,England,,Castle Combe,SN14,51.4929,-2.229
1040,England,,Biddestone,SN14,51.4608,-2.1983
1041,England,,Slaughterford,SN14,51.4641,-2.2317
1042,England,,Luckington,SN14,51.5544,-2.2422
1043,England,,North Wraxall,SN14,51.4734,-2.263
1044,England,,West Kington,SN14,51.4955,-2.2728
1045,England,,Nettleton,SN14,51.5022,-2.2625
1046,England,,Yatton Keynell,SN14,51.4861,-2.1934
1047,England,,Sopworth,SN14,51.5744,-2.2512
1048,England,,Colerne,SN14,51.4383,-2.2628
1049,England,,Stanton St Quintin,SN14,51.5178,-2.1353
1050,England,,Hardenhuish,SN14,51.4703,-2.1311
1051,England,,Grittleton,SN14,51.5186,-2.2057
1052,England,,Leigh Delamere,SN14,51.451,-2.1347
1053,England,,Kington St Michael,SN14,51.4961,-2.1403
1054,England,,Lower Stanton St Quintin,SN14,51.451,-2.1347
1055,England,,West Littleton,SN14,51.451,-2.1347
1056,England,,Alderton,SN14,51.4756,-2.1985
1057,England,,Thickwood,SN14,51.451,-2.1347
1058,England,,Burton,SN14,51.4756,-2.1985
1059,England,,The Shoe,SN14,51.451,-2.1347
1060,England,,Pennsylvania,SN14,51.451,-2.1347
1061,England,,Ford,SN14,51.4756,-2.1985
1062,England,,Ditteridge,SN14,51.451,-2.1347
1063,England,,Littleton Drew,SN14,51.451,-2.1347
1064,England,,Upper Wraxall,SN14,51.451,-2.1347
1065,England,,Sutton Benger,SN15,51.5069,-2.0801
1066,England,,Chippenham,SN15,51.46,-2.1247
1067,England,,Chittoe,SN15,51.3994,-2.0662
1068,England,,Christian Malford,SN15,51.5104,-2.0551
1069,England,,Tytherton Lucas,SN15,51.4678,-2.0764
1070,England,,Foxham,SN15,51.4943,-2.036
1071,England,,Lyneham,SN15,51.5167,-1.9667
1072,England,,Lacock,SN15,51.4153,-2.1219
1073,England,,Kington Langley,SN15,51.4888,-2.1166
1074,England,,Upper Seagry,SN15,51.526,-2.0783
1075,England,,Brinkworth,SN15,51.5589,-1.9822
1076,England,,Stanley,SN15,51.4721,-2.0837
1077,England,,Great Somerford,SN15,51.5435,-2.0521
1078,England,,Preston,SN15,51.4721,-2.0837
1079,England,,Little Somerford,SN15,51.5588,-2.0492
1080,England,,Cleverton,SN15,51.4721,-2.0837
1081,England,,Langley Burrell,SN15,51.4721,-2.0837
1082,England,,Church End,SN15,51.4721,-2.0837
1083,England,,Callow Hill,SN15,51.4721,-2.0837
1084,England,,Bewley Common,SN15,51.4721,-2.0837
1085,England,,Dauntsey,SN15,51.5343,-2.0108
1086,England,,Bromham,SN15,51.388,-2.0489
1087,England,,Bradenstoke,SN15,51.4721,-2.0837
1088,England,,Startley,SN15,51.4721,-2.0837
1089,England,,Notton,SN15,51.4721,-2.0837
1090,England,,St Edith's Marsh,SN15,51.4721,-2.0837
1091,England,,Sandy Lane,SN15,51.4721,-2.0837
1092,England,,Grittenham,SN15,51.4721,-2.0837
1093,England,,Netherstreet,SN15,51.4721,-2.0837
1094,England,,East Tytherton,SN15,51.4721,-2.0837
1095,England,,Lower Seagry,SN15,51.4721,-2.0837
1096,England,,Bowden Hill,SN15,51.4721,-2.0837
1097,England,,Lea,SN16,51.5753,-2.0631
1098,England,,Brokenborough,SN16,51.6013,-2.1186
1099,England,,Garsdon,SN16,51.5893,-2.0461
1100,England,,Easton Grey,SN16,51.588,-2.1729
1101,England,,Charlton,SN16,51.5992,-2.0564
1102,England,,Foxley,SN16,51.5722,-2.155
1103,England,,Malmesbury,SN16,51.5817,-2.0971
1104,England,,Minety,SN16,51.6167,-1.95
1105,England,,Oaksey,SN16,51.6413,-2.017
1106,England,,Crudwell,SN16,51.6332,-2.0696
1107,England,,Sherston,SN16,51.572,-2.2128
1108,England,,Hankerton,SN16,51.6144,-2.045
1109,England,,Corston,SN16,51.5561,-2.1108
1110,England,,Chedglow,SN16,51.6434,-2.0165
1111,England,,Upper Minety,SN16,51.6434,-2.0165
1112,England,,Chelworth,SN16,51.6434,-2.0165
1113,England,,Eastcourt,SN16,51.6434,-2.0165
1114,England,,Rodbourne,SN16,51.6434,-2.0165
1115,England,,Norton,SN16,51.5611,-2.1625
1116,England,,Broad Blunsdon,SN2,51.5787,-1.7833
1117,England,,Haydon Wick,SN2,51.5912,-1.8191
1118,England,,Blunsdon St Andrew,SN2,51.5787,-1.7833
1119,England,,Swindon,SN25,51.558,-1.7812
1120,England,,Swindon,SN26,51.6124,-1.7873
1121,England,,South Marston,SN3,51.5892,-1.7194
1122,England,,Coate,SN3,51.5892,-1.7194
1123,England,,Stratton St Margaret,SN3,51.5892,-1.7194
1124,England,,Swindon,SN38,51.558,-1.7812
1125,England,,Liddington,SN4,51.5316,-1.703
1126,England,,Winterbourne Bassett,SN4,51.4727,-1.8519
1127,England,,Tockenham,SN4,51.5124,-1.9452
1128,England,,Broad Town,SN4,51.4985,-1.8702
1129,England,,Broad Hinton,SN4,51.4887,-1.8479
1130,England,,Wanborough,SN4,51.5426,-1.6984
1131,England,,Wootton Bassett,SN4,51.5419,-1.9045
1132,England,,Wroughton,SN4,51.5241,-1.7956
1133,England,,Hinton Parva,SN4,51.4849,-1.7519
1134,England,,Chiseldon,SN4,51.5161,-1.7321
1135,England,,Berwick Bassett,SN4,51.4592,-1.858
1136,England,,Winterbourne Monkton,SN4,51.5301,-1.8364
1137,England,,Badbury,SN4,51.4849,-1.7519
1138,England,,Tockenham Wick,SN4,51.4849,-1.7519
1139,England,,Bushton,SN4,51.4849,-1.7519
1140,England,,Clyffe Pypard,SN4,51.5014,-1.9071
1141,England,,Hook,SN4,51.5301,-1.8364
1142,England,,Uffcott,SN4,51.4849,-1.7519
1143,England,,North Wroughton,SN4,51.4849,-1.7519
1144,England,,Lydiard Millicent,SN5,51.5712,-1.8635
1145,England,,Purton Stoke,SN5,51.6132,-1.8723
1146,England,,Purton,SN5,51.5833,-1.8667
1147,England,,Shaw,SN5,51.5661,-1.8396
1148,England,,Nine Elms,SN5,51.5661,-1.8396
1149,England,,Stanton Fitzwarren,SN6,51.612,-1.7446
1150,England,,Castle Eaton,SN6,51.6605,-1.7921
1151,England,,Cricklade,SN6,51.6406,-1.8574
1152,England,,Hannington,SN6,51.6333,-1.75
1153,England,,Ashton Keynes,SN6,51.6452,-1.9323
1154,England,,Bishopstone,SN6,51.5513,-1.647
1155,England,,Latton,SN6,51.6589,-1.8706
1156,England,,Leigh,SN6,51.6167,-1.9
1157,England,,Highworth,SN6,51.6305,-1.711
1158,England,,Hannington Wick,SN6,51.6165,-1.7412
1159,England,,Marston Meysey,SN6,51.6732,-1.8167
1160,England,,Sevenhampton,SN6,51.6,-1.7
1161,England,,Upper Inglesham,SN6,51.6165,-1.7412
1162,England,,Inglesham,SN6,51.6708,-1.7043
1163,England,,Avebury,SN8,51.4167,-1.8667
1164,England,,Oare,SN8,51.3651,-1.7749
1165,England,,Great Bedwyn,SN8,51.3795,-1.6015
1166,England,,Manton,SN8,51.4152,-1.7562
1167,England,,Mildenhall,SN8,51.4256,-1.6999
1168,England,,Aldbourne,SN8,51.481,-1.6183
1169,England,,Baydon,SN8,51.5004,-1.597
1170,England,,Ogbourne St George,SN8,51.469,-1.7141
1171,England,,Wootton Rivers,SN8,51.3677,-1.7187
1172,England,,Beckhampton,SN8,51.4194,-1.8746
1173,England,,Oxenwood,SN8,51.3303,-1.5648
1174,England,,Alton Priors,SN8,51.3601,-1.8429
1175,England,,Marlborough,SN8,51.4203,-1.7295
1176,England,,Fyfield,SN8,51.4167,-1.7833
1177,England,,Burbage,SN8,51.3518,-1.6709
1178,England,,Ham,SN8,51.3652,-1.5259
1179,England,,Collingbourne Ducis,SN8,51.2852,-1.6525
1180,England,,Tidcombe,SN8,51.3238,-1.5854
1181,England,,Huish,SN8,51.3711,-1.7927
1182,England,,Froxfield,SN8,51.4108,-1.572
1183,England,,Fosbury,SN8,51.3203,-1.5425
1184,England,,Shalbourne,SN8,51.3636,-1.5505
1185,England,,Little Bedwyn,SN8,51.3918,-1.5824
1186,England,,Buttermere,SN8,51.3474,-1.5116
1187,England,,Everleigh,SN8,51.2815,-1.7095
1188,England,,Collingbourne Kingston,SN8,51.3011,-1.6588
1189,England,,Ramsbury,SN8,51.4437,-1.6026
1190,England,,Rockley,SN8,51.3524,-1.6468
1191,England,,Ogbourne St Andrew,SN8,51.4484,-1.7283
1192,England,,Crofton,SN8,51.3524,-1.6468
1193,England,,Wexcombe,SN8,51.3304,-1.6094
1194,England,,East Kennett,SN8,51.4054,-1.8301
1195,England,,Durley,SN8,51.4067,-1.6872
1196,England,,West Overton,SN8,51.4071,-1.7995
1197,England,,Stibb Green,SN8,51.3524,-1.6468
1198,England,,Axford,SN8,51.4067,-1.6872
1199,England,,West Grafton,SN8,51.3524,-1.6468
1200,England,,Upper Upham,SN8,51.3524,-1.6468
1201,England,,Stanton St Bernard,SN8,51.3524,-1.6468
1202,England,,Chisbury,SN8,51.3524,-1.6468
1203,England,,Ogbourne Maizey,SN8,51.3524,-1.6468
1204,England,,West Stowell,SN8,51.3524,-1.6468
1205,England,,Whittonditch,SN8,51.3524,-1.6468
1206,England,,Woodsend,SN8,51.3524,-1.6468
1207,England,,Clench Common,SN8,51.3524,-1.6468
1208,England,,Stock Lane,SN8,51.3524,-1.6468
1209,England,,West Kennett,SN8,51.3524,-1.6468
1210,England,,Cadley,SN8,51.3524,-1.6468
1211,England,,Wilton,SN8,51.4067,-1.6872
1212,England,,Rivar,SN8,51.3524,-1.6468
1213,England,,East Grafton,SN8,51.3524,-1.6468
1214,England,,Lockeridge,SN8,51.3524,-1.6468
1215,England,,Rushall,SN9,51.2833,-1.8167
1216,England,,Alton Barnes,SN9,51.3592,-1.8496
1217,England,,North Newnton,SN9,51.3233,-1.8372
1218,England,,Manningford Bohune,SN9,51.3209,-1.8071
1219,England,,Hilcott,SN9,51.3233,-1.8372
1220,England,,Manningford Abbots,SN9,51.3167,-1.8
1221,England,,Upavon,SN9,51.2946,-1.8079
1222,England,,Wilcot,SN9,51.3491,-1.7958
1223,England,,Pewsey,SN9,51.3385,-1.7655
1224,England,,Beechingstoke,SN9,51.3323,-1.8761
1225,England,,Wilsford,SN9,51.3,-1.85
1226,England,,Enford,SN9,51.2628,-1.8
1227,England,,Woodborough,SN9,51.3333,-1.8333
1228,England,,Manningford Bruce,SN9,51.3252,-1.8018
1229,England,,Charlton,SN9,51.3033,-1.8381
1230,England,,Longstreet,SN9,51.3259,-1.7871
1231,England,,East Chisenbury,SN9,51.332,-1.8334
1232,England,,Easton Royal,SN9,51.332,-1.8334
1233,England,,Milton Lilbourne,SN9,51.3454,-1.7336
1234,England,,Swindon,SN99,51.558,-1.7812
1235,England,,Salisbury,SP1,51.0693,-1.7957
1236,England,,Stratford sub Castle,SP1,51.0693,-1.7957
1237,England,,Laverstock,SP1,51.0693,-1.7957
1238,England,,Ludgershall,SP11,51.2556,-1.6222
1239,England,,Wilton,SP2,51.0793,-1.8621
1240,England,,Great Wishford,SP2,51.119,-1.8884
1241,England,,South Newton,SP2,51.1065,-1.8753
1242,England,,Burcombe,SP2,51.1016,-1.8753
1243,England,,Harnham,SP2,51.1016,-1.8753
1244,England,,Netherhampton,SP2,51.063,-1.8296
1245,England,,Fugglestone St Peter,SP2,51.1016,-1.8753
1246,England,,Quidhampton,SP2,51.0787,-1.8442
1247,England,,Stoford,SP2,51.1016,-1.8753
1248,England,,Tilshead,SP3,51.2297,-1.951
1249,England,,Ansty,SP3,51.0364,-2.0639
1250,England,,Dinton,SP3,51.0833,-1.9833
1251,England,,Tisbury,SP3,51.0628,-2.0806
1252,England,,Little Langford,SP3,51.1275,-1.9303
1253,England,,Rollestone,SP3,51.1898,-1.8992
1254,England,,East Knoyle,SP3,51.0744,-2.1705
1255,England,,Baverstock,SP3,51.0834,-1.9608
1256,England,,Hanging Langford,SP3,51.133,-1.9555
1257,England,,Fovant,SP3,51.0559,-1.9921
1258,England,,Shrewton,SP3,51.1919,-1.9026
1259,England,,The Green,SP3,51.1507,-1.8909
1260,England,,Steeple Langford,SP3,51.1365,-1.9481
1261,England,,Winterbourne Stoke,SP3,51.1673,-1.8981
1262,England,,Swallowcliffe,SP3,51.0401,-2.0425
1263,England,,Stapleford,SP3,51.1167,-1.9
1264,England,,Orcheston,SP3,51.2072,-1.9175
1265,England,,Barford St Martin,SP3,51.1507,-1.8909
1266,England,,Teffont Evias,SP3,51.0804,-2.013
1267,England,,Chicklade,SP3,51.1092,-2.1267
1268,England,,Teffont Magna,SP3,51.0897,-2.0169
1269,England,,Compton Chamberlayne,SP3,51.0672,-1.9614
1270,England,,Chilmark,SP3,51.0918,-2.0438
1271,England,,Berwick St James,SP3,51.1557,-1.8987
1272,England,,Hindon,SP3,51.0922,-2.1258
1273,England,,Fonthill Bishop,SP3,51.0977,-2.0926
1274,England,,Fonthill Gifford,SP3,51.0824,-2.1079
1275,England,,Sutton Mandeville,SP3,51.0588,-2.0253
1276,England,,East Hatch,SP3,51.1507,-1.8909
1277,England,,Berwick St Leonard,SP3,51.1507,-1.8909
1278,England,,Newtown,SP3,51.1023,-2.0104
1279,England,,Ridge,SP3,51.1023,-2.0104
1280,England,,Cholderton,SP4,51.1793,-1.6785
1281,England,,Bulford,SP4,51.1893,-1.7601
1282,England,,Amesbury,SP4,51.1751,-1.7806
1283,England,,Netheravon,SP4,51.2361,-1.7908
1284,England,,Larkhill,SP4,51.2,-1.8167
1285,England,,Allington,SP4,51.15,-1.7
1286,England,,Boscombe,SP4,51.15,-1.7167
1287,England,,Winterbourne Gunner,SP4,51.1161,-1.7444
1288,England,,Figheldean,SP4,51.2232,-1.7827
1289,England,,Winterbourne Dauntsey,SP4,51.1122,-1.75
1290,England,,Fittleton,SP4,51.2456,-1.7913
1291,England,,Porton,SP4,51.1284,-1.7323
1292,England,,Milston,SP4,51.2062,-1.769
1293,England,,Durrington,SP4,51.1987,-1.7718
1294,England,,Idmiston,SP4,51.1376,-1.7208
1295,England,,Upper Woodford,SP4,51.1679,-1.7646
1296,England,,Winterbourne Earls,SP4,51.1063,-1.755
1297,England,,Wilsford,SP4,51.1679,-1.7646
1298,England,,Newton Tony,SP4,51.1644,-1.6899
1299,England,,Countess,SP4,51.1679,-1.7646
1300,England,,West Amesbury,SP4,51.1679,-1.7646
1301,England,,Lake,SP4,51.1679,-1.7646
1302,England,,Lower Woodford,SP4,51.1679,-1.7646
1303,England,,Bulford Camp,SP4,51.1679,-1.7646
1304,England,,Middle Woodford,SP4,51.1679,-1.7646
1305,England,,Gomeldon,SP4,51.1679,-1.7646
1306,England,,Great Durnford,SP4,51.1679,-1.7646
1307,England,,Netton,SP4,51.1679,-1.7646
1308,England,,East Grimstead,SP5,51.0505,-1.6785
1309,England,,Bowerchalke,SP5,51,-1.9667
1310,England,,Britford,SP5,51.0542,-1.7735
1311,England,,Downton,SP5,51,-1.7333
1312,England,,Landford,SP5,50.9683,-1.6354
1313,England,,Odstock,SP5,51.0344,-1.7926
1314,England,,Tollard Royal,SP5,50.9596,-2.0805
1315,England,,West Dean,SP5,51.0426,-1.6351
1316,England,,Farley,SP5,51.05,-1.6833
1317,England,,Alvediston,SP5,51.0101,-2.0348
1318,England,,Pitton,SP5,51.0667,-1.7
1319,England,,Winterslow,SP5,51.0972,-1.6631
1320,England,,Broad Chalke,SP5,51.0272,-1.9485
1321,England,,Middle Winterslow,SP5,51.0935,-1.6545
1322,England,,Bishopstone,SP5,51.0303,-1.9027
1323,England,,Coombe Bissett,SP5,51.0363,-1.8458
1324,England,,Alderbury,SP5,51.0435,-1.7338
1325,England,,West Grimstead,SP5,51.0393,-1.7009
1326,England,,Redlynch,SP5,50.9873,-1.7116
1327,England,,Wick,SP5,51.0209,-1.7739
1328,England,,Whiteparish,SP5,51.0104,-1.6486
1329,England,,Deanland,SP5,51.1024,-1.8434
1330,England,,West Winterslow,SP5,51.0898,-1.6705
1331,England,,Whaddon,SP5,51.0209,-1.7739
1332,England,,Lopcombe Corner,SP5,51.1024,-1.8434
1333,England,,Nomansland,SP5,51.1024,-1.8434
1334,England,,Morgan's Vale,SP5,51.1024,-1.8434
1335,England,,North Charford,SP5,51.1024,-1.8434
1336,England,,Bodenham,SP5,51.0209,-1.7739
1337,England,,Woodminton,SP5,51.1024,-1.8434
1338,England,,Homington,SP5,51.1024,-1.8434
1339,England,,Newton,SP5,51.0209,-1.7739
1340,England,,Nunton,SP5,51.1024,-1.8434
1341,England,,Dean,SP5,51.1024,-1.8434
1342,England,,Woodcutts,SP5,51.1024,-1.8434
1343,England,,Mead End,SP5,51.1024,-1.8434
1344,England,,Ebbesborne Wake,SP5,51.0147,-2.0119
1345,England,,Hamptworth,SP5,51.1024,-1.8434
1346,England,,Woodyates,SP5,51.1024,-1.8434
1347,England,,Fifield Bavant,SP5,51.1024,-1.8434
1348,England,,Woodfalls,SP5,51.1024,-1.8434
1349,England,,Lover,SP5,51.1024,-1.8434
1350,England,,Firs Road,SP5,51.1024,-1.8434
1351,England,,The Common,SP5,51.1024,-1.8434
1352,England,,Stratford Tony,SP5,51.1024,-1.8434
1353,England,,Charlton-All-Saints,SP5,51.1024,-1.8434
1354,England,,Donhead St Andrew,SP7,51.0208,-2.1206
1355,England,,Semley,SP7,51.0414,-2.1558
1356,England,,Ludwell,SP7,51.0032,-2.1398
1357,England,,Sedgehill,SP7,51.0533,-2.1917
1358,England,,Berwick St John,SP7,51,-2.0667
1359,England,,Bedchester,SP7,50.9985,-2.0847
1360,England,,Donhead St Mary,SP7,50.9985,-2.0847
1361,England,,Guy's Marsh,SP7,50.9985,-2.0847
1362,England,,Coppleridge,SP7,50.9985,-2.0847
1363,England,,Stour Row,SP7,50.9985,-2.0847
1364,England,,Cann Common,SP7,50.9985,-2.0847
1365,England,,South Tidworth,SP9,51.2314,-1.6632
1366,England,,North Tidworth,SP9,51.2333,-1.6667
1367,England,,Shipton Bellinger,SP9,51.2324,-1.665
1368,England,,Mottistone,PO30,50.6518,-1.4271
1369,England,,Calbourne,PO30,50.6777,-1.4002
1370,England,,Shalfleet,PO30,50.7014,-1.415
1371,England,,Newbridge,PO30,50.6869,-1.4193
1372,England,,Downend,PO30,50.6868,-1.2469
1373,England,,Newtown,PO30,50.7138,-1.4011
1374,England,,Shorwell,PO30,50.6445,-1.3549
1375,England,,Bowcombe,PO30,50.6793,-1.338
1376,England,,Arreton,PO30,50.678,-1.245
1377,England,,Merstone,PO30,50.6653,-1.2591
1378,England,,Brighstone,PO30,50.6426,-1.3948
1379,England,,Newport,PO30,50.7015,-1.2912
1380,England,,Blackwater,PO30,50.6667,-1.2833
1381,England,,Carisbrooke,PO30,50.6928,-1.3175
1382,England,,Chillerton,PO30,50.6916,-1.3132
1383,England,,Limerstone,PO30,50.6916,-1.3132
1384,England,,Gatcombe,PO30,50.6916,-1.3132
1385,England,,Hunny Hill,PO30,50.6916,-1.3132
1386,England,,Ningwood,PO30,50.6916,-1.3132
1387,England,,Yafford,PO30,50.6916,-1.3132
1388,England,,Parkhurst,PO30,50.6916,-1.3132
1389,England,,Brook,PO30,50.6916,-1.3132
1390,England,,Staplers,PO30,50.6916,-1.3132
1391,England,,Moortown,PO30,50.6916,-1.3132
1392,England,,Gunville,PO30,50.6916,-1.3132
1393,England,,Porchfield,PO30,50.6916,-1.3132
1394,England,,Cowes,PO31,50.7631,-1.2977
1395,England,,Gurnard,PO31,50.7606,-1.3241
1396,England,,Northwood,PO31,50.741,-1.3119
1397,England,,East Cowes,PO32,50.7577,-1.2881
1398,England,,Osborne,PO32,50.7507,-1.275
1399,England,,Whippingham,PO32,50.7375,-1.2686
1400,England,,Wootton Bridge,PO33,50.7244,-1.2369
1401,England,,Ryde,PO33,50.73,-1.1621
1402,England,,Fishbourne,PO33,50.733,-1.2118
1403,England,,Havenstreet,PO33,50.7112,-1.2054
1404,England,,Wootton Common,PO33,50.7247,-1.2041
1405,England,,East Ashey,PO33,50.7247,-1.2041
1406,England,,Quarr Hill,PO33,50.7247,-1.2041
1407,England,,St Helens,PO33,50.7247,-1.2041
1408,England,,Binstead,PO33,50.7247,-1.2041
1409,England,,Haylands,PO33,50.7247,-1.2041
1410,England,,Seaview,PO34,50.7196,-1.1116
1411,England,,Nettlestone,PO34,50.7102,-1.1196
1412,England,,Bembridge,PO35,50.6863,-1.0828
1413,England,,Hillway,PO35,50.6863,-1.0828
1414,England,,Sandown,PO36,50.6516,-1.161
1415,England,,Brading,PO36,50.6799,-1.1457
1416,England,,Newchurch,PO36,50.6674,-1.2083
1417,England,,Alverstone,PO36,50.6674,-1.186
1418,England,,Branstone,PO36,50.666,-1.1739
1419,England,,Apse Heath,PO36,50.666,-1.1739
1420,England,,Yaverland,PO36,50.666,-1.1739
1421,England,,Shanklin,PO37,50.6261,-1.1785
1422,England,,Luccombe Village,PO37,50.6261,-1.1785
1423,England,,Chale,PO38,50.5956,-1.3184
1424,England,,Whitwell,PO38,50.5984,-1.2642
1425,England,,Ventnor,PO38,50.5948,-1.2037
1426,England,,Kingston,PO38,50.6301,-1.3234
1427,England,,Bonchurch,PO38,50.5995,-1.186
1428,England,,Rookley,PO38,50.6551,-1.2833
1429,England,,Little Atherfield,PO38,50.605,-1.242
1430,England,,St Lawrence,PO38,50.5857,-1.2547
1431,England,,Wroxall,PO38,50.6163,-1.2229
1432,England,,Niton,PO38,50.587,-1.2849
1433,England,,Roud,PO38,50.605,-1.242
1434,England,,Bierley,PO38,50.605,-1.242
1435,England,,Pyle,PO38,50.605,-1.242
1436,England,,Whiteley Bank,PO38,50.605,-1.242
1437,England,,Sandford,PO38,50.605,-1.242
1438,England,,Godshill,PO38,50.6317,-1.2572
1439,England,,Chale Green,PO38,50.605,-1.242
1440,England,,Blackgang,PO38,50.605,-1.242
1441,England,,Totland,PO39,50.6847,-1.5369
1442,England,,Freshwater,PO40,50.692,-1.5079
1443,England,,Easton,PO40,50.6824,-1.5219
1444,England,,Norton Green,PO40,50.6824,-1.5219
1445,England,,Yarmouth,PO41,50.7053,-1.4993
1446,England,,Shalcombe,PO41,50.7007,-1.4768
1447,England,,Norton,PO41,50.7007,-1.4768
1448,England,,Thorley Street,PO41,50.7007,-1.4768
1449,England,,Cranmore,PO41,50.7007,-1.4768
1450,England,,Hamstead,PO41,50.7007,-1.4768
1451,England,,Wellow,PO41,50.7007,-1.4768
1452,England,,City of Bristol,BS0,51.4646,-2.5636
1453,England,,Bristol,BS1,51.4552,-2.5966
1454,England,,Henbury,BS10,51.5028,-2.6217
1455,England,,Catbrain,BS10,51.5099,-2.6354
1456,England,,Shirehampton,BS11,51.4892,-2.6753
1457,England,,Avonmouth,BS11,51.5101,-2.689
1458,England,,Bishopsworth,BS13,51.4121,-2.612
1459,England,,Fishponds,BS16,51.4817,-2.5236
1460,England,,Bristol,BS2,51.4552,-2.5966
1461,England,,Bristol,BS3,51.4552,-2.5966
1462,England,,Brislington,BS4,51.4335,-2.5472
1463,England,,Knowle,BS4,51.4355,-2.5633
1464,England,,Bristol,BS5,51.462,-2.5519
1465,England,,Bristol,BS6,51.4552,-2.5966
1466,England,,Redland,BS6,51.4708,-2.6003
1467,England,,Cotham,BS6,51.4708,-2.6003
1468,England,,Stapleton,BS7,51.4767,-2.5572
1469,England,,Horfield,BS7,51.4767,-2.5572
1470,England,,Clifton,BS8,51.4611,-2.62
1471,England,,Weston-Super-Mare,BS80,51.502,-2.6153
1472,England,,Westbury on Trym,BS9,51.4874,-2.6266
1473,England,,City of Bristol,BS98,51.4646,-2.5636
1474,England,,Bristol (PO Boxes),BS99,51.4646,-2.5636
1475,England,,Ocle Pychard,HR1,52.1167,-2.6
1476,England,,Mordiford,HR1,52.0323,-2.628
1477,England,,Lugwardine,HR1,52.0658,-2.6578
1478,England,,Bartestree,HR1,52.0684,-2.6348
1479,England,,Preston Wynne,HR1,52.1207,-2.6455
1480,England,,Westhide,HR1,52.0946,-2.606
1481,England,,Hampton Bishop,HR1,52.0405,-2.6472
1482,England,,Hereford,HR1,52.0568,-2.7148
1483,England,,Brockhampton,HR1,51.9833,-2.5833
1484,England,,Prior's Frome,HR1,52.1066,-2.5908
1485,England,,Withington,HR1,52.1,-2.6333
1486,England,,Ullingswick,HR1,52.1436,-2.5938
1487,England,,Fownhope,HR1,52.0083,-2.6152
1488,England,,Woolhope,HR1,52.018,-2.5667
1489,England,,Urdimarsh,HR1,52.1066,-2.5908
1490,England,,Bodenham,HR1,52.15,-2.6833
1491,England,,Bodenham Moor,HR1,52.1066,-2.5908
1492,England,,Holmer,HR1,52.1066,-2.5908
1493,England,,Penalt,HR1,52.1066,-2.5908
1494,England,,Fiddler's Green,HR1,52.1066,-2.5908
1495,England,,Tarrington,HR1,52.063,-2.5544
1496,England,,Shucknall,HR1,52.1066,-2.5908
1497,England,,Weston Beggard,HR1,52.0775,-2.606
1498,England,,Sutton St Nicholas,HR1,52.1066,-2.5908
1499,England,,Moreton Jeffries,HR1,52.1066,-2.5908
1500,England,,Maund Bryan,HR1,52.1066,-2.5908
1501,England,,Fawley Chapel,HR1,52.1066,-2.5908
1502,England,,Hagley,HR1,52.0642,-2.672
1503,England,,Felton,HR1,52.1295,-2.629
1504,England,,How Caple,HR1,51.9731,-2.5686
1505,England,,Kings Caple,HR1,51.9598,-2.6362
1506,England,,Dormington,HR1,52.0575,-2.6075
1507,England,,Marden,HR1,52.1273,-2.6898
1508,England,,Pipe and Lyde,HR1,52.0914,-2.7151
1509,England,,Sollers Hope,HR1,51.9896,-2.5639
1510,England,,Burley Gate,HR1,52.1066,-2.5908
1511,England,,Shelwick,HR1,52.1066,-2.5908
1512,England,,Yarkhill,HR1,52.1066,-2.5908
1513,England,,Walker's Green,HR1,52.1066,-2.5908
1514,England,,Checkley,HR1,52.0642,-2.672
1515,England,,Tupsley,HR1,52.1066,-2.5908
1516,England,,The Vauld,HR1,52.1066,-2.5908
1517,England,,Bowley,HR1,52.1066,-2.5908
1518,England,,Garway,HR2,51.9004,-2.7833
1519,England,,Clodock,HR2,51.9406,-2.9796
1520,England,,Michaelchurch Escley,HR2,52.0018,-2.9977
1521,England,,Blakemere,HR2,52.0648,-2.9319
1522,England,,Broad Oak,HR2,51.8833,-2.75
1523,England,,Kentchurch,HR2,51.9276,-2.8576
1524,England,,Madley,HR2,52.0444,-2.8474
1525,England,,Kingstone,HR2,52.0167,-2.8333
1526,England,,Longtown,HR2,51.95,-2.9833
1527,England,,Hoarwithy,HR2,51.9597,-2.6636
1528,England,,Ewyas Harold,HR2,51.9536,-2.8933
1529,England,,Llanveynoe,HR2,51.9667,-3
1530,England,,Michaelchurch,HR2,52.0018,-2.9977
1531,England,,Tyberton,HR2,52.0521,-2.9029
1532,England,,Kilpeck,HR2,51.9694,-2.8075
1533,England,,Orcop,HR2,51.9348,-2.7839
1534,England,,Pencoyd,HR2,51.9333,-2.7
1535,England,,Bacton,HR2,51.9833,-2.9167
1536,England,,Turnastone,HR2,52.0167,-2.9333
1537,England,,Thruxton,HR2,52,-2.8167
1538,England,,Vowchurch,HR2,52.0261,-2.9306
1539,England,,Holme Lacy,HR2,52.0177,-2.6505
1540,England,,Callow,HR2,52.0167,-2.7333
1541,England,,Aconbury,HR2,51.9994,-2.7027
1542,England,,Shenmore,HR2,51.9752,-2.7429
1543,England,,Rowlstone,HR2,51.9333,-2.9167
1544,England,,Little Dewchurch,HR2,51.9829,-2.6802
1545,England,,Peterchurch,HR2,52.0419,-2.9557
1546,England,,Much Dewchurch,HR2,51.9768,-2.7548
1547,England,,Pontrilas,HR2,51.9433,-2.8794
1548,England,,Lower Bullingham,HR2,52.0333,-2.7
1549,England,,Eaton Bishop,HR2,52.0457,-2.8131
1550,England,,Much Birch,HR2,51.9711,-2.7235
1551,England,,Abbey Dore,HR2,51.9667,-2.9
1552,England,,Dinedor,HR2,52.029,-2.6821
1553,England,,Allensmore,HR2,52.0188,-2.7804
1554,England,,St Weonards,HR2,51.9167,-2.7167
1555,England,,Moccas,HR2,52.077,-2.9426
1556,England,,Llanwarne,HR2,51.9501,-2.7196
1557,England,,Kerry's Gate,HR2,51.9752,-2.7429
1558,England,,Preston on Wye,HR2,52.0695,-2.8988
1559,England,,Howton,HR2,51.9752,-2.7429
1560,England,,Dewsall Court,HR2,51.9752,-2.7429
1561,England,,Ballingham,HR2,51.9853,-2.6253
1562,England,,Craswall,HR2,51.9996,-3.029
1563,England,,Kenderchurch,HR2,51.9607,-2.8515
1564,England,,Walterstone,HR2,51.9167,-2.9577
1565,England,,Wormbridge,HR2,51.9727,-2.8442
1566,England,,Bolstone,HR2,51.9913,-2.6542
1567,England,,Clehonger,HR2,52.0352,-2.7914
1568,England,,Llandinabo,HR2,51.9555,-2.7072
1569,England,,Grafton,HR2,52.0249,-2.7309
1570,England,,Hinton,HR2,52.0099,-2.7851
1571,England,,Whitfield,HR2,52.0099,-2.7851
1572,England,,Little Garway,HR2,51.9752,-2.7429
1573,England,,Kingsthorne,HR2,51.9752,-2.7429
1574,England,,Didley,HR2,51.9752,-2.7429
1575,England,,Carey,HR2,51.9752,-2.7429
1576,England,,Bagwyllydiart,HR2,51.9752,-2.7429
1577,England,,Wormelow Tump,HR2,51.9752,-2.7429
1578,England,,Webton,HR2,51.9752,-2.7429
1579,England,,Orcop Hill,HR2,51.9752,-2.7429
1580,England,,Harewood End,HR2,51.9752,-2.7429
1581,England,,Garway Hill,HR2,51.9752,-2.7429
1582,England,,Twyford Common,HR2,51.9752,-2.7429
1583,England,,St Owen's Cross,HR2,51.9752,-2.7429
1584,England,,Upper Maes-coed,HR2,51.9752,-2.7429
1585,England,,Tretire,HR2,51.9752,-2.7429
1586,England,,St Margarets,HR2,51.9752,-2.7429
1587,England,,Sandyway,HR2,51.9752,-2.7429
1588,England,,Ploughfield,HR2,51.9752,-2.7429
1589,England,,Middle Maes-coed,HR2,51.9752,-2.7429
1590,England,,Lulham,HR2,51.9752,-2.7429
1591,England,,Lower Maes-coed,HR2,51.9752,-2.7429
1592,England,,Little Birch,HR2,51.9752,-2.7429
1593,England,,Canon Bridge,HR2,51.9752,-2.7429
1594,England,,Whitney,HR3,52.1167,-3.0833
1595,England,,Eardisley,HR3,52.1404,-3.0084
1596,England,,Almeley,HR3,52.159,-2.9763
1597,England,,Willersley,HR3,52.1198,-3.0066
1598,England,,Winforton,HR3,52.1172,-3.026
1599,England,,Bredwardine,HR3,52.095,-2.9767
1600,England,,Woonton,HR3,52.1667,-2.95
1601,England,,Clifford,HR3,52.1,-3.1
1602,England,,Ailey,HR3,52.0649,-3.0304
1603,England,,Kinnersley,HR3,52.1333,-2.95
1604,England,,Priory Wood,HR3,52.0649,-3.0304
1605,England,,Letton,HR3,52.111,-2.9669
1606,England,,Dorstone,HR3,52.0667,-3
1607,England,,Upper Welson,HR3,52.0649,-3.0304
1608,England,,Rhydspence,HR3,52.0649,-3.0304
1609,England,,Upcott,HR3,52.0649,-3.0304
1610,England,,Lower Welson,HR3,52.0649,-3.0304
1611,England,,Merbach,HR3,52.0649,-3.0304
1612,England,,Hurstway Common,HR3,52.0649,-3.0304
1613,England,,Cwmbach,HR3,52.0945,-3.0906
1614,England,,The Bage,HR3,52.0649,-3.0304
1615,England,,Pen-y-Park,HR3,52.0649,-3.0304
1616,England,,Hardwicke,HR3,52.0945,-3.0906
1617,England,,Brilley,HR3,52.1348,-3.0852
1618,England,,Brobury,HR3,52.0649,-3.0304
1619,England,,Cusop,HR3,52.0722,-3.1127
1620,England,,Snodhill,HR3,52.0649,-3.0304
1621,England,,Bronydd,HR3,52.0649,-3.0304
1622,England,,Byford,HR4,52.0854,-2.8877
1623,England,,Burghill,HR4,52.0966,-2.7678
1624,England,,Credenhill,HR4,52.0835,-2.808
1625,England,,Staunton on Wye,HR4,52.1021,-2.9207
1626,England,,Yazor,HR4,52.1167,-2.8667
1627,England,,Moreton on Lugg,HR4,52.1072,-2.7223
1628,England,,Sarnesfield,HR4,52.1514,-2.922
1629,England,,Weobley,HR4,52.1596,-2.875
1630,England,,Wellington,HR4,52.1275,-2.749
1631,England,,Kenchester,HR4,52.0845,-2.8225
1632,England,,Dilwyn,HR4,52.186,-2.8561
1633,England,,Birley,HR4,52.1833,-2.8
1634,England,,Norton Canon,HR4,52.1219,-2.908
1635,England,,Breinton,HR4,52.0856,-2.7631
1636,England,,Moorhampton,HR4,52.1207,-2.8924
1637,England,,Weobley Marsh,HR4,52.0856,-2.7631
1638,England,,Sollers Dilwyn,HR4,52.0856,-2.7631
1639,England,,Tillington,HR4,52.0856,-2.7631
1640,England,,Monnington on Wye,HR4,52.0856,-2.7631
1641,England,,Ledgemoor,HR4,52.0856,-2.7631
1642,England,,Knapton Green,HR4,52.0856,-2.7631
1643,England,,Haven,HR4,52.0856,-2.7631
1644,England,,Bush Bank,HR4,52.0856,-2.7631
1645,England,,Brinsop,HR4,52.0856,-2.7631
1646,England,,Norton Wood,HR4,52.0856,-2.7631
1647,England,,Calver Hill,HR4,52.0856,-2.7631
1648,England,,Wellington Marsh,HR4,52.0856,-2.7631
1649,England,,Yarsop,HR4,52.0856,-2.7631
1650,England,,Wormsley,HR4,52.0856,-2.7631
1651,England,,Westhope,HR4,52.0856,-2.7631
1652,England,,Tillington Common,HR4,52.0856,-2.7631
1653,England,,Bishopstone,HR4,52.0828,-2.8474
1654,England,,Mansell Gamage,HR4,52.0979,-2.8854
1655,England,,Upper Breinton,HR4,52.0856,-2.7631
1656,England,,Dilwyn Common,HR4,52.0856,-2.7631
1657,England,,Swainshill,HR4,52.0856,-2.7631
1658,England,,Mansell Lacy,HR4,52.1039,-2.8458
1659,England,,King's Pyon,HR4,52.1502,-2.8338
1660,England,,Canon Pyon,HR4,52.1411,-2.7876
1661,England,,Bridge Sollers,HR4,52.0748,-2.8515
1662,England,,Stretton Sugwas,HR4,52.0856,-2.7631
1663,England,,Portway,HR4,52.0856,-2.7631
1664,England,,White Cross,HR4,52.0856,-2.7631
1665,England,,Titley,HR5,52.2345,-2.981
1666,England,,Lyonshall,HR5,52.198,-2.9747
1667,England,,Kingswood Common,HR5,52.1961,-3.0352
1668,England,,Kington,HR5,52.2041,-3.0255
1669,England,,Hengoed,HR5,52.1961,-3.0352
1670,England,,Bryngwyn,HR5,52.1961,-3.0352
1671,England,,Veaullt,HR5,52.1961,-3.0352
1672,England,,Gwaithla,HR5,52.1961,-3.0352
1673,England,,Moorcot,HR5,52.1961,-3.0352
1674,England,,Holme Marsh,HR5,52.1961,-3.0352
1675,England,,Eywood,HR5,52.1961,-3.0352
1676,England,,Dolleycanney,HR5,52.1961,-3.0352
1677,England,,Michaelchurch-on-Arrow,HR5,52.1961,-3.0352
1678,England,,Upper Hergest,HR5,52.1961,-3.0352
1679,England,,Lower Hergest,HR5,52.1961,-3.0352
1680,England,,Eardisland,HR6,52.2226,-2.852
1681,England,,Eye,HR6,52.2667,-2.7333
1682,England,,Pembridge,HR6,52.2183,-2.8926
1683,England,,Luston,HR6,52.264,-2.7541
1684,England,,Leinthall Earls,HR6,52.3052,-2.8189
1685,England,,Eyton,HR6,52.25,-2.75
1686,England,,Kingsland,HR6,52.25,-2.8
1687,England,,Risbury,HR6,52.1913,-2.6591
1688,England,,Yarpole,HR6,52.2797,-2.7813
1689,England,,Stoke Prior,HR6,52.2,-2.7
1690,England,,Kimbolton,HR6,52.25,-2.7
1691,England,,Hope under Dinmore,HR6,52.1833,-2.7167
1692,England,,Wigmore,HR6,52.3167,-2.85
1693,England,,Stockton,HR6,52.25,-2.7
1694,England,,Leominster,HR6,52.2258,-2.7449
1695,England,,Docklow,HR6,52.2139,-2.6381
1696,England,,Brierley,HR6,52.1888,-2.5893
1697,England,,Hatfield,HR6,52.2328,-2.5942
1698,England,,Shobdon,HR6,52.2512,-2.8833
1699,England,,Stretford Court,HR6,52.1888,-2.5893
1700,England,,Aymestrey,HR6,52.2832,-2.844
1701,England,,Monkland,HR6,52.1888,-2.5893
1702,England,,Marston Stannett,HR6,52.1888,-2.5893
1703,England,,Lawton,HR6,52.1888,-2.5893
1704,England,,Cobnash,HR6,52.1888,-2.5893
1705,England,,Laysters Pole,HR6,52.1888,-2.5893
1706,England,,Ivington Green,HR6,52.1888,-2.5893
1707,England,,Ivington,HR6,52.1888,-2.5893
1708,England,,Grendon Green,HR6,52.1888,-2.5893
1709,England,,Broxwood,HR6,52.1888,-2.5893
1710,England,,Steen's Bridge,HR6,52.1888,-2.5893
1711,England,,Bircher,HR6,52.1888,-2.5893
1712,England,,Yatton,HR6,52.2331,-2.7726
1713,England,,Aulden,HR6,52.1888,-2.5893
1714,England,,Whyle,HR6,52.1888,-2.5893
1715,England,,Upper Hill,HR6,52.1888,-2.5893
1716,England,,Stansbatch,HR6,52.1888,-2.5893
1717,England,,Shirl Heath,HR6,52.1888,-2.5893
1718,England,,Pudleston,HR6,52.1888,-2.5893
1719,England,,Mortimer's Cross,HR6,52.1888,-2.5893
1720,England,,Luntley,HR6,52.1888,-2.5893
1721,England,,Lower Lye,HR6,52.1888,-2.5893
1722,England,,Lower Barewood,HR6,52.1888,-2.5893
1723,England,,Ledicot,HR6,52.1888,-2.5893
1724,England,,Humber Court,HR6,52.1888,-2.5893
1725,England,,Wharton,HR6,52.2331,-2.7726
1726,England,,Barewood,HR6,52.1888,-2.5893
1727,England,,Ongar Street,HR6,52.1888,-2.5893
1728,England,,Cholstrey,HR6,52.1888,-2.5893
1729,England,,Staunton on Arrow,HR6,52.2447,-2.9435
1730,England,,Lucton,HR6,52.2734,-2.8291
1731,England,,Marston,HR6,52.2331,-2.7726
1732,England,,Moreton,HR6,52.2331,-2.7726
1733,England,,Grafton,HR6,52.2331,-2.7726
1734,England,,Ashton,HR6,52.2331,-2.7726
1735,England,,Little Cowarne,HR7,52.1548,-2.5794
1736,England,,Bromyard,HR7,52.1902,-2.5087
1737,England,,Tedstone Delamere,HR7,52.2255,-2.4512
1738,England,,Thornbury,HR7,52.2333,-2.55
1739,England,,Much Cowarne,HR7,52.1218,-2.5548
1740,England,,Stoke Lacy,HR7,52.1495,-2.5509
1741,England,,Tedstone Wafre,HR7,52.1894,-2.5418
1742,England,,Collington,HR7,52.25,-2.5167
1743,England,,Pencombe,HR7,52.1713,-2.5876
1744,England,,Edwyn Ralph,HR7,52.2188,-2.5264
1745,England,,Bredenbury,HR7,52.2076,-2.577
1746,England,,Bromyard Downs,HR7,52.1894,-2.5418
1747,England,,Edvin Loach,HR7,52.1894,-2.5418
1748,England,,Munderfield Row,HR7,52.1894,-2.5418
1749,England,,Munderfield Stocks,HR7,52.1894,-2.5418
1750,England,,Eastnor,HR8,52.0328,-2.3905
1751,England,,Castle Frome,HR8,52.1091,-2.491
1752,England,,Ashperton,HR8,52.0727,-2.5206
1753,England,,Ledbury,HR8,52.0364,-2.4263
1754,England,,Canon Frome,HR8,52.0887,-2.5102
1755,England,,Bosbury,HR8,52.0884,-2.4436
1756,England,,Much Marcle,HR8,51.9947,-2.4999
1757,England,,Preston,HR8,52.0448,-2.4451
1758,England,,Donnington,HR8,52,-2.4167
1759,England,,Putley,HR8,52.0341,-2.515
1760,England,,Little Marcle,HR8,52.0271,-2.4826
1761,England,,Ludstock,HR8,52.0448,-2.4451
1762,England,,Pow Green,HR8,52.0448,-2.4451
1763,England,,Chase End Street,HR8,52.0448,-2.4451
1764,England,,Stretton Grandison,HR8,52.0955,-2.5347
1765,England,,Aylton,HR8,52.0383,-2.4943
1766,England,,Munsley,HR8,52.0609,-2.4915
1767,England,,Rushall,HR8,52.0448,-2.4451
1768,England,,Coddington,HR8,52.0814,-2.4066
1769,England,,Wellington Heath,HR8,52.0623,-2.4253
1770,England,,Lower Egleton,HR8,52.0448,-2.4451
1771,England,,Waller's Green,HR8,52.0448,-2.4451
1772,England,,Staplow,HR8,52.0448,-2.4451
1773,England,,Fromes Hill,HR8,52.0448,-2.4451
1774,England,,Newtown,HR8,52.0448,-2.4451
1775,England,,Trumpet,HR8,52.0448,-2.4451
1776,England,,Bromsberrow Heath,HR8,52.0448,-2.4451
1777,England,,Walford,HR9,51.8833,-2.6
1778,England,,Sellack,HR9,51.95,-2.6333
1779,England,,Weston under Penyard,HR9,51.9078,-2.5369
1780,England,,Ross-on-Wye,HR9,51.9167,-2.5667
1781,England,,Symonds Yat,HR9,51.8442,-2.6484
1782,England,,Aston Ingham,HR9,51.9102,-2.4597
1783,England,,Kerne Bridge,HR9,51.8692,-2.6099
1784,England,,Peterstow,HR9,51.9177,-2.634
1785,England,,Lea,HR9,51.9,-2.5
1786,England,,Marstow,HR9,51.8667,-2.65
1787,England,,Whitchurch,HR9,51.85,-2.65
1788,England,,Goodrich,HR9,51.871,-2.619
1789,England,,Upton Bishop,HR9,51.9402,-2.5056
1790,England,,Linton,HR9,51.9333,-2.5
1791,England,,Foy,HR9,51.9522,-2.5878
1792,England,,Crow Hill,HR9,51.9333,-2.5167
1793,England,,Llangarron,HR9,51.8828,-2.6897
1794,England,,Coughton,HR9,51.9081,-2.5826
1795,England,,Ganarew,HR9,51.8453,-2.6697
1796,England,,Hope Mansell,HR9,51.8771,-2.5336
1797,England,,Rudhall,HR9,51.9222,-2.535
1798,England,,Baysham,HR9,51.9222,-2.535
1799,England,,Old Gore,HR9,51.9222,-2.535
1800,England,,Bromsash,HR9,51.9222,-2.535
1801,England,,Pencraig,HR9,51.9222,-2.535
1802,England,,Hom Green,HR9,51.9222,-2.535
1803,England,,Hole-in-the-Wall,HR9,51.9222,-2.535
1804,England,,Glewstone,HR9,51.9222,-2.535
1805,England,,Aston Crews,HR9,51.9222,-2.535
1806,England,,Pontshill,HR9,51.9222,-2.535
1807,England,,Llangrove,HR9,51.9222,-2.535
1808,England,,Gorsley Common,HR9,51.9222,-2.535
1809,England,,Bridstow,HR9,51.9179,-2.6103
1810,England,,Brampton Abbotts,HR9,51.9361,-2.5719
1811,England,,Kinsham,LD8,52.2833,-2.9333
1812,England,,Combe,LD8,52.266,-2.9627
1813,England,,Knill,LD8,52.2404,-3.0399
1814,England,,Stapleton,LD8,52.2788,-2.9972
1815,England,,Leintwardine,SY7,52.362,-2.8763
1816,England,,Brampton Bryan,SY7,52.3415,-2.9292
1817,England,,Adforton,SY7,52.3342,-2.8794
1818,England,,Lingen,SY7,52.3,-2.9333
1819,England,,Orleton,SY8,52.3,-2.75
1820,England,,Leinthall Starkes,SY8,52.3228,-2.8285
1821,England,,Elton,SY8,52.3333,-2.8
1822,England,,Burrington,SY8,52.35,-2.8167
1823,England,,Little Hereford,SY8,52.3148,-2.6555
1824,England,,Brimfield,SY8,52.3067,-2.6962
1825,England,,Mathon,WR13,52.1099,-2.3908
1826,England,,Cradley,WR13,52.1266,-2.3948
1827,England,,Whitbourne,WR6,52.2107,-2.4058
1828,England,,Stanford Bishop,WR6,52.1654,-2.455
1829,England,,Upper Sapey,WR6,52.2678,-2.4626
1830,England,,Evesbatch,WR6,52.1333,-2.45
1831,England,,Bishop's Frome,WR6,52.1355,-2.4895
1832,England,,Acton Beauchamp,WR6,52.1481,-2.4537
1833,England,,Glascote,B77,52.6251,-1.6746
1834,England,,Wilnecote,B77,52.6065,-1.6581
1835,England,,Two Gates,B77,52.6158,-1.6664
1836,England,,Amington,B77,52.6158,-1.6664
1837,England,,Dosthill,B77,52.6158,-1.6664
1838,England,,Kettlebrook,B77,52.6158,-1.6664
1839,England,,Hopwas,B78,52.642,-1.7415
1840,England,,Drayton Bassett,B78,52.6,-1.7167
1841,England,,Fazeley,B78,52.6144,-1.6985
1842,England,,Bonehill,B78,52.6051,-1.6748
1843,England,,Hints,B78,52.622,-1.7646
1844,England,,Clifton Campville,B79,52.6946,-1.6284
1845,England,,Edingale,B79,52.7068,-1.6891
1846,England,,Wigginton,B79,52.6573,-1.6925
1847,England,,Thorpe Constantine,B79,52.6785,-1.618
1848,England,,Elford,B79,52.691,-1.721
1849,England,,Haunton,B79,52.6508,-1.6821
1850,England,,Tamworth,B79,52.634,-1.6959
1851,England,,No Man's Heath,B79,52.6508,-1.6821
1852,England,,Harlaston,B79,52.6928,-1.6828
1853,England,,Warton,B79,52.6508,-1.6821
1854,England,,Coton,B79,52.6508,-1.6821
1855,England,,Comberford,B79,52.6508,-1.6821
1856,England,,Alvecote,B79,52.6508,-1.6821
1857,England,,Balterley,CW2,53.0495,-2.3673
1858,England,,Wrinehill,CW3,53.0207,-2.3694
1859,England,,Madeley Heath,CW3,53,-2.3167
1860,England,,Madeley,CW3,53,-2.3333
1861,England,,Betley,CW3,53.0344,-2.3686
1862,England,,Onneley,CW3,52.9835,-2.3705
1863,England,,Yoxall,DE13,52.7666,-1.7907
1864,England,,Tatenhill,DE13,52.7916,-1.6995
1865,England,,Newborough,DE13,52.8167,-1.8
1866,England,,Barton-under-Needwood,DE13,52.7627,-1.724
1867,England,,Horninglow,DE13,52.8224,-1.6422
1868,England,,Rolleston,DE13,52.8452,-1.646
1869,England,,Tutbury,DE13,52.856,-1.6865
1870,England,,Orgreave,DE13,52.8076,-1.6919
1871,England,,Hanbury,DE13,52.847,-1.7447
1872,England,,Anslow,DE13,52.8255,-1.6868
1873,England,,Alrewas,DE13,52.7328,-1.7497
1874,England,,Dunstall,DE13,52.7667,-1.7333
1875,England,,Morrey,DE13,52.8076,-1.6919
1876,England,,Rangemore,DE13,52.8076,-1.6919
1877,England,,Hanbury Woodend,DE13,52.8076,-1.6919
1878,England,,Anslow Gate,DE13,52.8076,-1.6919
1879,England,,Hadley End,DE13,52.8076,-1.6919
1880,England,,Woodhouses,DE13,52.8076,-1.6919
1881,England,,Stretton,DE13,52.8325,-1.6279
1882,England,,Hoar Cross,DE13,52.8071,-1.8093
1883,England,,King's Bromley,DE13,52.7481,-1.8198
1884,England,,Burton upon Trent,DE14,52.8073,-1.6426
1885,England,,Winshill,DE15,52.8071,-1.6033
1886,England,,Stanton,DE15,52.7986,-1.6085
1887,England,,Wootton,DE6,53,-1.85
1888,England,,Alstonefield,DE6,53.0983,-1.8066
1889,England,,Wetton,DE6,53.0954,-1.8386
1890,England,,Draycott in the Clay,DE6,52.8571,-1.7745
1891,England,,Sudbury,DE6,52.8667,-1.75
1892,England,,Blore,DE6,53.0333,-1.8167
1893,England,,Ellastone,DE6,52.9851,-1.8266
1894,England,,Ilam,DE6,53.0548,-1.7996
1895,England,,Mayfield,DE6,53,-1.7667
1896,England,,Stanton,DE6,53.015,-1.8179
1897,England,,Himley,DY3,52.519,-2.1818
1898,England,,Swindon,DY3,52.5154,-2.2071
1899,England,,Halfpenny Green,DY7,52.5245,-2.2605
1900,England,,Enville,DY7,52.4781,-2.2574
1901,England,,Bobbington,DY7,52.5122,-2.2828
1902,England,,Whittington,DY7,52.4662,-2.2309
1903,England,,Potter's Cross,DY7,52.4662,-2.2309
1904,England,,Gallowstree Elm,DY7,52.4662,-2.2309
1905,England,,Stourton,DY7,52.4662,-2.2309
1906,England,,Kinver,DY7,52.4558,-2.2207
1907,England,,Rushton Spencer,SK11,53.1598,-2.0941
1908,England,,Heaton,SK11,53.1642,-2.0698
1909,England,,Warslow,SK17,53.1258,-1.8728
1910,England,,Hulme End,SK17,53.1305,-1.8426
1911,England,,Upper Elkstone,SK17,53.1286,-1.9179
1912,England,,Flash,SK17,53.2016,-1.9637
1913,England,,Longnor,SK17,53.1833,-1.8667
1914,England,,Newtown,SK17,53.1667,-1.9167
1915,England,,Sheen,SK17,53.15,-1.8333
1916,England,,Fawfieldhead,SK17,53.1547,-1.8858
1917,England,,Hollinsclough,SK17,53.1956,-1.9038
1918,England,,Hanley,ST1,53.0249,-2.1739
1919,England,,Whiston,ST10,53.0217,-1.9461
1920,England,,Froghall,ST10,53.0231,-1.9635
1921,England,,Church Leigh,ST10,52.9217,-1.9667
1922,England,,Bradley in the Moors,ST10,52.9687,-1.912
1923,England,,Calton,ST10,53.0333,-1.85
1924,England,,Cheadle,ST10,52.9833,-1.9833
1925,England,,Alton,ST10,52.9667,-1.8833
1926,England,,Draycott in the Moors,ST10,52.9577,-2.0266
1927,England,,Oakamoor,ST10,53.0014,-1.92
1928,England,,Cauldon,ST10,53.0411,-1.8874
1929,England,,Kingsley,ST10,53.0167,-1.9833
1930,England,,Waterhouses,ST10,53.0333,-1.8667
1931,England,,Ipstones,ST10,53.0468,-1.9702
1932,England,,Checkley,ST10,52.9333,-1.95
1933,England,,Waterfall,ST10,53.05,-1.8833
1934,England,,Dilhorne,ST10,52.99,-2.0405
1935,England,,Middleton Green,ST10,52.9811,-1.9607
1936,England,,Greatgate,ST10,52.9811,-1.9607
1937,England,,Upper Tean,ST10,52.9811,-1.9607
1938,England,,Farley,ST10,52.9993,-1.89
1939,England,,Foxt,ST10,52.9811,-1.9607
1940,England,,Near Cotton,ST10,52.9811,-1.9607
1941,England,,Withington,ST10,52.9885,-1.9648
1942,England,,Ramshorn,ST10,53.0062,-1.8742
1943,England,,Lower Tean,ST10,52.9811,-1.9607
1944,England,,Hollington,ST10,52.9885,-1.9648
1945,England,,Caverswall,ST11,52.9837,-2.0744
1946,England,,Blythe Bridge,ST11,52.9667,-2.0667
1947,England,,Cresswell,ST11,52.95,-2.0333
1948,England,,Forsbrook,ST11,52.9668,-2.0581
1949,England,,Blythe Marsh,ST11,52.9668,-2.0581
1950,England,,Barlaston,ST12,52.942,-2.1705
1951,England,,Tittensor,ST12,52.942,-2.1705
1952,England,,Onecote,ST13,53.0932,-1.9273
1953,England,,Grindon,ST13,53.087,-1.8707
1954,England,,Horton,ST13,53.1167,-2.0833
1955,England,,Butterton,ST13,53.1063,-1.8895
1956,England,,Leek,ST13,53.1043,-2.0221
1957,England,,Rudyard,ST13,53.1174,-2.0718
1958,England,,Upper Hulme,ST13,53.1459,-1.9832
1959,England,,Meerbrook,ST13,53.144,-2.0162
1960,England,,Cheddleton,ST13,53.0691,-2.0423
1961,England,,Winkhill,ST13,53.1093,-1.9896
1962,England,,Bradnop,ST13,53.1093,-1.9896
1963,England,,Basford Green,ST13,53.1093,-1.9896
1964,England,,Thorncliff,ST13,53.1093,-1.9896
1965,England,,Ball Haye Green,ST13,53.1093,-1.9896
1966,England,,Bramshall,ST14,52.8952,-1.9105
1967,England,,Grindley,ST14,52.86,-1.9468
1968,England,,Croxden,ST14,52.9545,-1.9015
1969,England,,Denstone,ST14,52.9633,-1.8524
1970,England,,Rocester,ST14,52.9513,-1.8399
1971,England,,Field,ST14,52.9042,-1.8694
1972,England,,Marchington,ST14,52.8755,-1.8024
1973,England,,Uttoxeter,ST14,52.8984,-1.8649
1974,England,,Kingstone,ST14,52.867,-1.9218
1975,England,,Marchington Woodlands,ST14,52.8546,-1.8261
1976,England,,Blount's Green,ST14,52.9042,-1.8694
1977,England,,Fole,ST14,52.9042,-1.8694
1978,England,,Stramshall,ST14,52.9042,-1.8694
1979,England,,Beamhurst,ST14,52.9042,-1.8694
1980,England,,Gratwich,ST14,52.9042,-1.8694
1981,England,,Norton Bridge,ST15,52.867,-2.1921
1982,England,,Stone,ST15,52.9059,-2.1541
1983,England,,Moddershall,ST15,52.9282,-2.1108
1984,England,,Hilderstone,ST15,52.9104,-2.0795
1985,England,,Walton,ST15,52.9003,-2.1493
1986,England,,Swynnerton,ST15,52.9176,-2.2219
1987,England,,Oulton,ST15,52.899,-2.0767
1988,England,,Cotwalton,ST15,52.899,-2.0767
1989,England,,Yarnfield,ST15,52.899,-2.0767
1990,England,,Fulford,ST15,52.9003,-2.1493
1991,England,,Rough Close,ST15,52.9003,-2.1493
1992,England,,Cotes,ST15,52.899,-2.0767
1993,England,,Aston-by-Stone,ST15,52.899,-2.0767
1994,England,,Stafford,ST16,52.8052,-2.1164
1995,England,,Castle Bank,ST16,52.8052,-2.1164
1996,England,,Bednall,ST17,52.7582,-2.0679
1997,England,,Milford,ST17,52.7833,-2.05
1998,England,,Brocton,ST17,52.7707,-2.0589
1999,England,,Weeping Cross,ST17,52.7707,-2.0589
2000,England,,Walton-on-the-Hill,ST17,52.7707,-2.0589
2001,England,,Ranton,ST18,52.8139,-2.215
2002,England,,Ingestre,ST18,52.8181,-2.0267
2003,England,,Dunston,ST18,52.75,-2.1
2004,England,,Seighford,ST18,52.822,-2.1773
2005,England,,Great Bridgeford,ST18,52.8406,-2.1732
2006,England,,Colwich,ST18,52.7876,-1.9821
2007,England,,Hopton,ST18,52.8333,-2.1
2008,England,,Milwich,ST18,52.8881,-2.0434
2009,England,,Coppenhall,ST18,52.7667,-2.1333
2010,England,,Little Bridgeford,ST18,52.8448,-2.1809
2011,England,,Acton Trussell,ST18,52.7608,-2.0967
2012,England,,Salt,ST18,52.8479,-2.0679
2013,England,,Stowe,ST18,52.8333,-2
2014,England,,Whitgreave,ST18,52.8511,-2.1498
2015,England,,Allimore Green,ST18,52.785,-2.0683
2016,England,,Tixall,ST18,52.802,-2.0356
2017,England,,Gayton,ST18,52.8545,-2.0268
2018,England,,Haughton,ST18,52.7833,-2.2
2019,England,,Weston,ST18,52.8333,-2.0333
2020,England,,Fradswell,ST18,52.8792,-2.0065
2021,England,,Derrington,ST18,52.8009,-2.1627
2022,England,,Drointon,ST18,52.785,-2.0683
2023,England,,Sandon,ST18,52.8667,-2.0833
2024,England,,Coton Clanford,ST18,52.785,-2.0683
2025,England,,Little Haywood,ST18,52.785,-2.0683
2026,England,,Yarlet,ST18,52.785,-2.0683
2027,England,,Great Haywood,ST18,52.785,-2.0683
2028,England,,Marston,ST18,52.8517,-2.12
2029,England,,Hixon,ST18,52.83,-1.9993
2030,England,,Hyde Lea,ST18,52.7791,-2.1326
2031,England,,Shut Heath,ST18,52.785,-2.0683
2032,England,,Burston,ST18,52.785,-2.0683
2033,England,,Garshall Green,ST18,52.785,-2.0683
2034,England,,Bradley,ST18,52.7626,-2.1777
2035,England,,Long Compton,ST18,52.815,-2.0817
2036,England,,Coton,ST18,52.815,-2.0817
2037,England,,Levedale,ST18,52.785,-2.0683
2038,England,,Mitton,ST19,52.7333,-2.1667
2039,England,,Wheaton Aston,ST19,52.7115,-2.2206
2040,England,,Brewood,ST19,52.6771,-2.1741
2041,England,,Kiddemore Green,ST19,52.6774,-2.2098
2042,England,,Penkridge,ST19,52.7256,-2.1156
2043,England,,Bishop's Wood,ST19,52.7381,-2.1487
2044,England,,Stretton,ST19,52.7,-2.1667
2045,England,,Lapley,ST19,52.7141,-2.1877
2046,England,,Horsebrook,ST19,52.7381,-2.1487
2047,England,,Gailey,ST19,52.6932,-2.1314
2048,England,,Whiston,ST19,52.7083,-2.1485
2049,England,,Bickford,ST19,52.7267,-2.1685
2050,England,,Bucknall,ST2,53.0167,-2.1333
2051,England,,Milton,ST2,53.05,-2.15
2052,England,,Abbey Hulton,ST2,53.0333,-2.1417
2053,England,,Baddeley Green,ST2,53.0333,-2.1417
2054,England,,Church Eaton,ST20,52.7552,-2.2287
2055,England,,High Offley,ST20,52.8328,-2.3225
2056,England,,Norbury,ST20,52.8,-2.3167
2057,England,,Adbaston,ST20,52.8463,-2.3525
2058,England,,Gnosall,ST20,52.7856,-2.2548
2059,England,,Marston,ST20,52.7978,-2.278
2060,England,,High Onn,ST20,52.7978,-2.278
2061,England,,Gnosall Heath,ST20,52.7978,-2.278
2062,England,,Lawnhead,ST20,52.7978,-2.278
2063,England,,Knighton,ST20,52.7978,-2.278
2064,England,,Outlands,ST20,52.7978,-2.278
2065,England,,Shebdon,ST20,52.7978,-2.278
2066,England,,Woodseaves,ST20,52.7978,-2.278
2067,England,,Slindon,ST21,52.8833,-2.2667
2068,England,,Croxton,ST21,52.8833,-2.3167
2069,England,,Eccleshall,ST21,52.8579,-2.2497
2070,England,,Standon,ST21,52.9167,-2.2833
2071,England,,Pershall,ST21,52.8663,-2.2733
2072,England,,Ellenhall,ST21,52.8335,-2.2355
2073,England,,Chebsey,ST21,52.8552,-2.2096
2074,England,,Sugnall,ST21,52.8756,-2.3011
2075,England,,Wootton,ST21,52.8724,-2.2698
2076,England,,Fairoak,ST21,52.8858,-2.2207
2077,England,,Millmeece,ST21,52.8858,-2.2207
2078,England,,Wetwood,ST21,52.8858,-2.2207
2079,England,,Bishop's Offley,ST21,52.8858,-2.2207
2080,England,,Croxtonbank,ST21,52.8858,-2.2207
2081,England,,Sturbridge,ST21,52.8858,-2.2207
2082,England,,Podmore,ST21,52.8858,-2.2207
2083,England,,Chatcull,ST21,52.8858,-2.2207
2084,England,,Cranberry,ST21,52.8858,-2.2207
2085,England,,Longton,ST3,52.9833,-2.1333
2086,England,,Meirheath,ST3,52.9833,-2.1333
2087,England,,Meir,ST3,52.9833,-2.1333
2088,England,,Weston Coyney,ST3,52.9833,-2.1333
2089,England,,Lightwood,ST3,52.9833,-2.1333
2090,England,,Cookshill,ST3,52.9833,-2.1333
2091,England,,Stoke-on-Trent,ST4,53.0042,-2.1854
2092,England,,Fenton,ST4,53,-2.1667
2093,England,,Trentham,ST4,52.9684,-2.1885
2094,England,,Hanchurch,ST4,52.9909,-2.1802
2095,England,,Hanford,ST4,52.9909,-2.1802
2096,England,,Knowl Wall,ST4,52.9909,-2.1802
2097,England,,Beech,ST4,52.9909,-2.1802
2098,England,,Maer,ST5,52.95,-2.3167
2099,England,,Whitmore,ST5,52.9667,-2.2833
2100,England,,Keele,ST5,53.0038,-2.2874
2101,England,,Blackbrook,ST5,53.0155,-2.2393
2102,England,,Silverdale,ST5,53.0167,-2.2833
2103,England,,Chapel Chorlton,ST5,53.0155,-2.2393
2104,England,,Clayton,ST5,53.0155,-2.2393
2105,England,,Newcastle-under-Lyme,ST5,53.0155,-2.2393
2106,England,,Leycett,ST5,53.0155,-2.2393
2107,England,,Hill Chorlton,ST5,53.0155,-2.2393
2108,England,,Red Street,ST5,53.0155,-2.2393
2109,England,,Stableford,ST5,53.0155,-2.2393
2110,England,,The Rowe,ST5,53.0155,-2.2393
2111,England,,Baldwin's Gate,ST5,53.0155,-2.2393
2112,England,,Chesterton,ST5,53.0155,-2.2393
2113,England,,Newcastle-under-Lyme,ST55,53.0145,-2.24
2114,England,,Silverdale,ST55,53.0145,-2.24
2115,England,,Burslem,ST6,53.0448,-2.197
2116,England,,Brown Edge,ST6,53.0792,-2.1401
2117,England,,Smallthorne,ST6,53.0577,-2.1898
2118,England,,Tunstall,ST6,53.0577,-2.1898
2119,England,,Goldenhill,ST6,53.0577,-2.1898
2120,England,,Norton in the Moors,ST6,53.0577,-2.1898
2121,England,,Mow Cop,ST7,53.1112,-2.2166
2122,England,,Kidsgrove,ST7,53.0869,-2.2378
2123,England,,Talke,ST7,53.0773,-2.2628
2124,England,,Audley,ST7,53.05,-2.3
2125,England,,Biddulph,ST8,53.1172,-2.1758
2126,England,,Brown Lees,ST8,53.1154,-2.168
2127,England,,Newtown,ST8,53.1154,-2.168
2128,England,,Knypersley,ST8,53.1154,-2.168
2129,England,,Biddulph Moor,ST8,53.1154,-2.168
2130,England,,Gillow Heath,ST8,53.1154,-2.168
2131,England,,Brindley Ford,ST8,53.1154,-2.168
2132,England,,Endon,ST9,53.0769,-2.113
2133,England,,Blackwood Hill,ST9,53.0529,-2.0974
2134,England,,Wetley Rocks,ST9,53.0529,-2.0974
2135,England,,Cellarhead,ST9,53.0529,-2.0974
2136,England,,Stanley,ST9,53.0529,-2.0974
2137,England,,Consall,ST9,53.0351,-2.0333
2138,England,,Bagnall,ST9,53.0568,-2.1077
2139,England,,Horse Bridge,ST9,53.0529,-2.0974
2140,England,,Longsdon,ST9,53.0879,-2.0679
2141,England,,Werrington,ST9,53.0246,-2.094
2142,England,,Great Chatwell,TF10,52.727,-2.3076
2143,England,,Edgmond Marsh,TF10,52.7732,-2.3103
2144,England,,Orslow,TF10,52.7732,-2.3103
2145,England,,Bromstead Heath,TF10,52.7732,-2.3103
2146,England,,Sambrook,TF10,52.7732,-2.3103
2147,England,,Pickstock,TF10,52.7732,-2.3103
2148,England,,Howle,TF10,52.7732,-2.3103
2149,England,,Weston Jones,TF10,52.7732,-2.3103
2150,England,,Puleston,TF10,52.7732,-2.3103
2151,England,,Adeney,TF10,52.7732,-2.3103
2152,England,,Blymhill,TF11,52.7085,-2.2814
2153,England,,Weston-under-Lizard,TF11,52.6949,-2.2892
2154,England,,Mucklestone,TF9,52.9326,-2.4096
2155,England,,Ashley,TF9,52.9237,-2.3542
2156,England,,Hookgate,TF9,52.8139,-2.3757
2157,England,,Loggerheads,TF9,52.9228,-2.3897
2158,England,,Woodseaves,TF9,52.8139,-2.3757
2159,England,,Almington,TF9,52.8139,-2.3757
2160,England,,Eaton upon Tern,TF9,52.8139,-2.3757
2161,England,,Heathcote,TF9,52.8139,-2.3757
2162,England,,Mill Green,TF9,52.8139,-2.3757
2163,England,,Ellerton,TF9,52.8139,-2.3757
2164,England,,Rosehill,TF9,52.8139,-2.3757
2165,England,,High Heath,TF9,52.8139,-2.3757
2166,England,,Wollerton,TF9,52.8139,-2.3757
2167,England,,Longslow,TF9,52.8139,-2.3757
2168,England,,Stoke Heath,TF9,52.8139,-2.3757
2169,England,,Wistanswick,TF9,52.8139,-2.3757
2170,England,,Chipnall,TF9,52.8139,-2.3757
2171,England,,Hales,TF9,52.8139,-2.3757
2172,England,,Bletchley,TF9,52.8139,-2.3757
2173,England,,Betton,TF9,52.8139,-2.3757
2174,England,,Stoke on Tern,TF9,52.8139,-2.3757
2175,England,,Spoonley,TF9,52.8139,-2.3757
2176,England,,Norton Canes,WS11,52.6714,-1.9626
2177,England,,Cannock,WS11,52.6905,-2.0308
2178,England,,Four Crosses,WS11,52.6888,-2.0183
2179,England,,Bridgtown,WS11,52.6755,-2.0291
2180,England,,Hatherton,WS11,52.6861,-2.0666
2181,England,,Hednesford,WS12,52.7107,-1.9994
2182,England,,Huntington,WS12,52.7,-2.0333
2183,England,,Wimblebury,WS12,52.7063,-2.0021
2184,England,,Littleworth,WS12,52.7063,-2.0021
2185,England,,Heath Hayes,WS12,52.7063,-2.0021
2186,England,,Hazelslade,WS12,52.7063,-2.0021
2187,England,,Pye Green,WS12,52.7063,-2.0021
2188,England,,Fradley,WS13,52.692,-1.7869
2189,England,,Farewell,WS13,52.7035,-1.88
2190,England,,Lichfield,WS13,52.6815,-1.8255
2191,England,,Streethay,WS13,52.692,-1.7869
2192,England,,Croxall,WS13,52.7203,-1.7064
2193,England,,Hilliard's Cross,WS13,52.6921,-1.8208
2194,England,,Rileyhill,WS13,52.6921,-1.8208
2195,England,,Chorley,WS13,52.6921,-1.8208
2196,England,,Elmhurst,WS13,52.6921,-1.8208
2197,England,,Weeford,WS14,52.6324,-1.7923
2198,England,,Whittington,WS14,52.6833,-1.7667
2199,England,,Shenstone,WS14,52.6333,-1.8333
2200,England,,Chesterfield,WS14,52.6652,-1.8164
2201,England,,Little Hay,WS14,52.6652,-1.8164
2202,England,,Shenstone Woodend,WS14,52.6652,-1.8164
2203,England,,Wall,WS14,52.6546,-1.8682
2204,England,,Hademore,WS14,52.6652,-1.8164
2205,England,,Hamstall Ridware,WS15,52.7682,-1.8419
2206,England,,Abbots Bromley,WS15,52.817,-1.8769
2207,England,,Armitage,WS15,52.7419,-1.8827
2208,England,,Colton,WS15,52.7818,-1.9279
2209,England,,Longdon,WS15,52.7167,-1.8833
2210,England,,Pipe Ridware,WS15,52.7569,-1.8597
2211,England,,Mavesyn Ridware,WS15,52.7638,-1.8801
2212,England,,Rugeley,WS15,52.7593,-1.9369
2213,England,,Gentleshaw,WS15,52.7585,-1.9181
2214,England,,Hill Ridware,WS15,52.7585,-1.9181
2215,England,,Upper Longdon,WS15,52.7585,-1.9181
2216,England,,Admaston,WS15,52.7585,-1.9181
2217,England,,Brereton,WS15,52.7585,-1.9181
2218,England,,Blithbury,WS15,52.7585,-1.9181
2219,England,,Handsacre,WS15,52.7585,-1.9181
2220,England,,Cannock Wood,WS15,52.7075,-1.9326
2221,England,,Great Wyrley,WS6,52.6628,-2.0111
2222,England,,Cheslyn Hay,WS6,52.6628,-2.0111
2223,England,,Landywood,WS6,52.6628,-2.0111
2224,England,,Hammerwich,WS7,52.6664,-1.9011
2225,England,,Burntwood,WS7,52.6808,-1.9276
2226,England,,Chasetown,WS7,52.6723,-1.9254
2227,England,,Burntwood Green,WS7,52.6731,-1.918
2228,England,,Edial,WS7,52.6731,-1.918
2229,England,,Chase Terrace,WS7,52.6731,-1.918
2230,England,,Stonnall,WS9,52.6333,-1.8944
2231,England,,Shareshill,WV10,52.656,-2.0814
2232,England,,Four Ashes,WV10,52.6833,-2.1167
2233,England,,Featherstone,WV10,52.6448,-2.0932
2234,England,,Oxley,WV10,52.6511,-2.1014
2235,England,,Heath Town,WV10,52.6511,-2.1014
2236,England,,Standeford,WV10,52.6511,-2.1014
2237,England,,Essington,WV11,52.6291,-2.0577
2238,England,,Wood Hayes,WV11,52.6146,-2.0705
2239,England,,Lower Penn,WV4,52.5619,-2.1936
2240,England,,Trysull,WV5,52.5462,-2.22
2241,England,,Seisdon,WV5,52.5513,-2.2366
2242,England,,Wombourne,WV5,52.5333,-2.1833
2243,England,,Upper Aston,WV5,52.5422,-2.2366
2244,England,,The Bratch,WV5,52.5422,-2.2366
2245,England,,Upper Ludstone,WV5,52.5422,-2.2366
2246,England,,Heathton,WV5,52.5422,-2.2366
2247,England,,Burnhill Green,WV6,52.6026,-2.3113
2248,England,,Trescott,WV6,52.5711,-2.2265
2249,England,,Perton,WV6,52.5945,-2.2037
2250,England,,Pattingham,WV6,52.5891,-2.2654
2251,England,,Codsall,WV8,52.6299,-2.2015
2252,England,,Codsall Wood,WV8,52.6299,-2.2015
2253,England,,Lane Green,WV8,52.6299,-2.2015
2254,England,,Oaken,WV8,52.6299,-2.2015
2255,England,,Bilbrook,WV8,52.6299,-2.2015
2256,England,,Coven,WV9,52.635,-2.1425
2257,England,,Lower Green,WV9,52.635,-2.1425
2258,England,,Stradishall,CB8,52.1451,0.5551
2259,England,,Moulton,CB8,52.2524,0.4829
2260,England,,Cowlinge,CB8,52.1636,0.5057
2261,England,,Exning,CB8,52.2664,0.3744
2262,England,,Gazeley,CB8,52.2487,0.5178
