,USPS,ST,NAME,ZCTA5,LAT,LON
0,England,ENG,Saltmarshe,DN14,53.7216,-0.8049
1,England,ENG,Howden,DN14,53.7421,-0.8657
2,England,ENG,Faxfleet,DN14,53.7067,-0.6939
3,England,ENG,Rawcliffe,DN14,53.6833,-0.95
4,England,ENG,Blacktoft,DN14,53.708,-0.7273
5,England,ENG,Balkholme,DN14,53.7432,-0.8087
6,England,ENG,Swinefleet,DN14,53.6921,-0.8333
7,England,ENG,Adlingfleet,DN14,53.6788,-0.7231
8,England,ENG,Spaldington,DN14,53.7927,-0.849
9,England,ENG,Goole,DN14,53.7167,-0.8667
10,England,ENG,Whitgift,DN14,53.6953,-0.7671
11,England,ENG,Hook,DN14,53.7205,-0.8479
12,England,ENG,Kilpin,DN14,53.7316,-0.8312
13,England,ENG,Barmby on the Marsh,DN14,53.749,-0.9561
14,England,ENG,Airmyn,DN14,53.7207,-0.8996
15,England,ENG,Laxton,DN14,53.7167,-0.8
16,England,ENG,Snaith,DN14,53.6911,-1.0286
17,England,ENG,Pollington,DN14,53.6709,-1.0724
18,England,ENG,Ousefleet,DN14,53.6982,-0.7409
19,England,ENG,Asselby,DN14,53.7427,-0.8849
20,England,ENG,Eastrington,DN14,53.7604,-0.7932
21,England,ENG,Skelton,DN14,53.7167,-0.8333
22,England,ENG,Gowdall,DN14,53.693,-1.0597
23,England,ENG,Reedness,DN14,53.6993,-0.7986
24,England,ENG,Knedlington,DN14,53.7427,-0.8849
25,England,ENG,Yokefleet,DN14,53.708,-0.7574
26,England,ENG,Gribthorpe,DN14,53.7125,-0.8909
27,England,ENG,East Cowick,DN14,53.7125,-0.8909
28,England,ENG,Old Goole,DN14,53.7125,-0.8909
29,England,ENG,Rawcliffe Bridge,DN14,53.7125,-0.8909
30,England,ENG,Newsholme,DN14,53.7125,-0.8909
31,England,ENG,Bellasize,DN14,53.7125,-0.8909
32,England,ENG,Low Eggborough,DN14,53.7125,-0.8909
33,England,ENG,Kingston upon Hull,HU1,53.7446,-0.3353
34,England,ENG,Willerby,HU10,53.761,-0.4419
35,England,ENG,Anlaby,HU10,53.7512,-0.4417
36,England,ENG,Kirk Ella,HU10,53.754,-0.4549
37,England,ENG,Sigglesthorne,HU11,53.8983,-0.2438
38,England,ENG,Long Riston,HU11,53.865,-0.2889
39,England,ENG,Sproatley,HU11,53.7938,-0.1913
40,England,ENG,Withernwick,HU11,53.8489,-0.1874
41,England,ENG,Great Cowden,HU11,53.8655,-0.1348
42,England,ENG,Garton,HU11,53.8003,-0.0829
43,England,ENG,Aldbrough,HU11,53.8289,-0.1147
44,England,ENG,Rise,HU11,53.863,-0.2463
45,England,ENG,Humbleton,HU11,53.7833,-0.15
46,England,ENG,Flinton,HU11,53.8078,-0.148
47,England,ENG,Great Hatfield,HU11,53.8273,-0.2206
48,England,ENG,Swine,HU11,53.8063,-0.2759
49,England,ENG,New Ellerby,HU11,53.8273,-0.2206
50,England,ENG,Ganstead,HU11,53.8273,-0.2206
51,England,ENG,Seaton,HU11,53.9072,-0.2349
52,England,ENG,Goxhill,HU11,53.8273,-0.2206
53,England,ENG,Bilton,HU11,53.7814,-0.2406
54,England,ENG,Old Ellerby,HU11,53.8273,-0.2206
55,England,ENG,West Newton,HU11,53.8273,-0.2206
56,England,ENG,Coniston,HU11,53.7991,-0.2462
57,England,ENG,Marton,HU11,53.8273,-0.2206
58,England,ENG,South Skirlaugh,HU11,53.8273,-0.2206
59,England,ENG,Tunstall,HU12,53.7688,-0.0201
60,England,ENG,Burstwick,HU12,53.7321,-0.1396
61,England,ENG,Winestead,HU12,53.702,-0.0327
62,England,ENG,Keyingham,HU12,53.7096,-0.1133
63,England,ENG,Ottringham,HU12,53.7009,-0.0791
64,England,ENG,Sunk Island,HU12,53.6517,-0.0841
65,England,ENG,Hedon,HU12,53.7396,-0.1966
66,England,ENG,Easington,HU12,53.6536,0.115
67,England,ENG,Welwick,HU12,53.6682,0.0316
68,England,ENG,Paull,HU12,53.7201,-0.233
69,England,ENG,Thorngumbald,HU12,53.721,-0.1717
70,England,ENG,Patrington,HU12,53.6839,-0.0133
71,England,ENG,Halsham,HU12,53.7299,-0.0745
72,England,ENG,Old Hall,HU12,53.716,-0.1398
73,England,ENG,Burton Pidsea,HU12,53.7633,-0.107
74,England,ENG,Skeffling,HU12,53.6536,0.0738
75,England,ENG,Lelley,HU12,53.716,-0.1398
76,England,ENG,Roos,HU12,53.7529,-0.0446
77,England,ENG,Haven Side,HU12,53.716,-0.1398
78,England,ENG,Weeton,HU12,53.7244,-0.1277
79,England,ENG,Wadworth Hill,HU12,53.716,-0.1398
80,England,ENG,Elstronwick,HU12,53.7695,-0.139
81,England,ENG,Preston,HU12,53.7509,-0.2072
82,England,ENG,Kilnsea,HU12,53.7244,-0.1277
83,England,ENG,Owstwick,HU12,53.716,-0.1398
84,England,ENG,Hessle,HU13,53.7245,-0.4384
85,England,ENG,Swanland,HU14,53.7373,-0.4917
86,England,ENG,North Ferriby,HU14,53.7212,-0.5052
87,England,ENG,West Ella,HU14,53.7293,-0.4984
88,England,ENG,Scalby,HU15,53.7667,-0.7167
89,England,ENG,Newport,HU15,53.7633,-0.6999
90,England,ENG,Broomfleet,HU15,53.7333,-0.6667
91,England,ENG,Ellerker,HU15,53.7532,-0.6042
92,England,ENG,Welton,HU15,53.7321,-0.5523
93,England,ENG,Elloughton,HU15,53.7378,-0.5699
94,England,ENG,Sandholme,HU15,53.7662,-0.7455
95,England,ENG,North Cave,HU15,53.7801,-0.6497
96,England,ENG,Brantingham,HU15,53.7518,-0.577
97,England,ENG,South Cave,HU15,53.7699,-0.6011
98,England,ENG,Everthorpe,HU15,53.7686,-0.6369
99,England,ENG,Riplingham,HU15,53.7508,-0.6477
100,England,ENG,Staddlethorpe,HU15,53.7439,-0.7324
101,England,ENG,Brough,HU15,53.7481,-0.6189
102,England,ENG,Gilberdyke,HU15,53.7439,-0.7324
103,England,ENG,Cottingham,HU16,53.7806,-0.4154
104,England,ENG,Skidby,HU16,53.7892,-0.4613
105,England,ENG,Eppleworth,HU16,53.7849,-0.4384
106,England,ENG,Routh,HU17,53.8696,-0.3438
107,England,ENG,Leven,HU17,53.8833,-0.3167
108,England,ENG,Bishop Burton,HU17,53.8456,-0.4981
109,England,ENG,Walkington,HU17,53.8195,-0.4896
110,England,ENG,Tickton,HU17,53.8623,-0.3833
111,England,ENG,Etton,HU17,53.8667,-0.5167
112,England,ENG,Cherry Burton,HU17,53.8667,-0.5
113,England,ENG,Leconfield,HU17,53.8773,-0.4573
114,England,ENG,Beverley,HU17,53.8459,-0.4233
115,England,ENG,Arram,HU17,53.8846,-0.4269
116,England,ENG,Catwick,HU17,53.8921,-0.2782
117,England,ENG,South Dalton,HU17,53.8955,-0.5301
118,England,ENG,Holme on the Wolds,HU17,53.8622,-0.4318
119,England,ENG,Bentley,HU17,53.8471,-0.4278
120,England,ENG,Moles-croft,HU17,53.8622,-0.4318
121,England,ENG,Thearne,HU17,53.8622,-0.4318
122,England,ENG,Gardham,HU17,53.8622,-0.4318
123,England,ENG,Woodmansey,HU17,53.8284,-0.4227
124,England,ENG,Little Catwick,HU17,53.8622,-0.4318
125,England,ENG,Hornsea,HU18,53.9104,-0.1681
126,England,ENG,Mappleton,HU18,53.8769,-0.1366
127,England,ENG,Rolston,HU18,53.8936,-0.1523
128,England,ENG,Waxholme,HU19,53.7411,0.0089
129,England,ENG,Withernsea,HU19,53.7311,0.0335
130,England,ENG,Hollym,HU19,53.704,0.0401
131,England,ENG,Out Newton,HU19,53.6757,0.0906
132,England,ENG,Holmpton,HU19,53.6877,0.0658
133,England,ENG,Rimswell,HU19,53.7232,0.0346
134,England,ENG,Hull,HU2,53.7446,-0.3353
135,England,ENG,Little Weighton,HU20,53.7902,-0.5068
136,England,ENG,Rowley,HU20,53.7902,-0.5068
137,England,ENG,Hull,HU3,53.7446,-0.3353
138,England,ENG,Hull,HU4,53.7446,-0.3353
139,England,ENG,Hull,HU5,53.7603,-0.3758
140,England,ENG,Dunswell,HU6,53.8011,-0.3714
141,England,ENG,Sutton-on-Hull,HU7,53.7799,-0.305
142,England,ENG,Wawne,HU7,53.8171,-0.3484
143,England,ENG,Stoneferry,HU7,53.7985,-0.3267
144,England,ENG,Hull,HU8,53.7693,-0.2998
145,England,ENG,Marfleet,HU9,53.7495,-0.2726
146,England,ENG,Bempton,YO15,54.1304,-0.1785
147,England,ENG,Fraisthorpe,YO15,54.0365,-0.2413
148,England,ENG,Flamborough,YO15,54.1149,-0.1227
149,England,ENG,Buckton,YO15,54.0939,-0.1808
150,England,ENG,Hilderthorpe,YO15,54.0939,-0.1808
151,England,ENG,Sewerby,YO15,54.0939,-0.1808
152,England,ENG,Grindale,YO16,54.1245,-0.2736
153,England,ENG,Bessingby,YO16,54.0763,-0.2302
154,England,ENG,Carnaby,YO16,54.0726,-0.2493
155,England,ENG,Boynton,YO16,54.0975,-0.2648
156,England,ENG,Bridlington,YO16,54.0831,-0.1919
157,England,ENG,Garton-on-the-Wolds,YO25,54.021,-0.5028
158,England,ENG,Beswick,YO25,53.9326,-0.4809
159,England,ENG,Foston on the Wolds,YO25,53.9822,-0.328
160,England,ENG,Burshill,YO25,53.9167,-0.3333
161,England,ENG,Lund,YO25,53.9192,-0.5221
162,England,ENG,Rudston,YO25,54.0909,-0.3282
163,England,ENG,Lissett,YO25,54.0053,-0.2516
164,England,ENG,Skipsea,YO25,53.9767,-0.2208
165,England,ENG,Fimber,YO25,54.0333,-0.633
166,England,ENG,Nafferton,YO25,54.0196,-0.3919
167,England,ENG,Sledmere,YO25,54.0714,-0.5766
168,England,ENG,Wold Newton,YO25,54.1333,-0.4
169,England,ENG,North Dalton,YO25,53.9572,-0.5759
170,England,ENG,Kilnwick,YO25,53.9326,-0.4809
171,England,ENG,Barmston,YO25,54.0141,-0.2286
172,England,ENG,Atwick,YO25,53.9401,-0.189
173,England,ENG,Dunnington,YO25,53.95,-0.25
174,England,ENG,Beeford,YO25,53.97,-0.2891
175,England,ENG,Middleton-on-the-Wolds,YO25,53.9335,-0.5609
176,England,ENG,Ruston Parva,YO25,54.0437,-0.3778
177,England,ENG,Lowthorpe,YO25,54.0283,-0.3496
178,England,ENG,Kilham,YO25,54.05,-0.3667
179,England,ENG,Harpham,YO25,54.039,-0.3269
180,England,ENG,Fridaythorpe,YO25,54.0201,-0.6653
181,England,ENG,Wetwang,YO25,54.0175,-0.5774
182,England,ENG,Brigham,YO25,53.9667,-0.35
183,England,ENG,Ulrome,YO25,53.992,-0.2297
184,England,ENG,Watton,YO25,53.9333,-0.45
185,England,ENG,Skerne,YO25,53.9836,-0.4069
186,England,ENG,Thwing,YO25,54.1155,-0.3895
187,England,ENG,Fordon,YO25,54.15,-0.3833
188,England,ENG,Lockington,YO25,53.9141,-0.4857
189,England,ENG,Bewholme,YO25,53.9331,-0.2266
190,England,ENG,Brandesburton,YO25,53.9111,-0.3012
191,England,ENG,Bainton,YO25,53.95,-0.5333
192,England,ENG,Burton Fleming,YO25,54.1356,-0.3409
193,England,ENG,Kirkburn,YO25,53.9834,-0.504
194,England,ENG,Hutton Cranswick,YO25,53.9512,-0.3783
195,England,ENG,Towthorpe,YO25,53.9377,-0.4425
196,England,ENG,Little Driffield,YO25,54.0022,-0.4661
197,England,ENG,Tibthorpe,YO25,53.9866,-0.5369
198,England,ENG,Wansford,YO25,53.9947,-0.3815
199,England,ENG,Burton Agnes,YO25,54.0514,-0.3156
200,England,ENG,Thornholme,YO25,53.9377,-0.4425
201,England,ENG,Rotsea,YO25,53.9512,-0.3783
202,England,ENG,Southburn,YO25,53.9762,-0.4927
203,England,ENG,Swaythorpe,YO25,53.9377,-0.4425
204,England,ENG,North Frodingham,YO25,53.9595,-0.3239
205,England,ENG,Langtoft,YO25,54.0883,-0.4583
206,England,ENG,Little Burton,YO25,53.9377,-0.4425
207,England,ENG,Church End,YO25,54.0044,-0.4154
208,England,ENG,Thorpe,YO25,54.0044,-0.4154
209,England,ENG,Old Sunderlandwick,YO25,53.9377,-0.4425
210,England,ENG,Great Kelk,YO25,53.9377,-0.4425
211,England,ENG,Scorborough,YO25,54.0044,-0.4154
212,England,ENG,Hempholme,YO25,53.9377,-0.4425
213,England,ENG,Cottam,YO25,54.0732,-0.5082
214,England,ENG,Great Driffield,YO25,53.9377,-0.4425
215,England,ENG,Elmswell,YO25,53.9377,-0.4425
216,England,ENG,Kelleythorpe,YO25,53.9377,-0.4425
217,England,ENG,West End,YO25,53.9377,-0.4425
218,England,ENG,Gransmoor,YO25,53.9377,-0.4425
219,England,ENG,Octon,YO25,53.9377,-0.4425
220,England,ENG,Haisthorpe,YO25,53.9377,-0.4425
221,England,ENG,Gembling,YO25,53.9377,-0.4425
222,England,ENG,Eastburn,YO25,53.9377,-0.4425
223,England,ENG,Cowlam Manor,YO25,53.9377,-0.4425
224,England,ENG,Aike,YO25,53.9377,-0.4425
225,England,ENG,Wilberfoss,YO41,53.9485,-0.8895
226,England,ENG,Helmsley,YO41,53.9697,-0.9024
227,England,ENG,Skirpenbeck,YO41,54.0039,-0.8621
228,England,ENG,Huggate,YO42,53.9855,-0.6567
229,England,ENG,Barmby Moor,YO42,53.9308,-0.8152
230,England,ENG,Meltonby,YO42,53.9185,-0.7737
231,England,ENG,Hayton,YO42,53.9,-0.75
232,England,ENG,Laytham,YO42,53.9185,-0.7737
233,England,ENG,Pocklington,YO42,53.9334,-0.7811
234,England,ENG,Storwood,YO42,53.9185,-0.7737
235,England,ENG,Everingham,YO42,53.8738,-0.7802
236,England,ENG,Melbourne,YO42,53.8875,-0.8593
237,England,ENG,Bielby,YO42,53.8842,-0.7975
238,England,ENG,North Newbald,YO43,53.8167,-0.6167
239,England,ENG,Hotham,YO43,53.7958,-0.6425
240,England,ENG,Shiptonthorpe,YO43,53.8252,-0.6414
241,England,ENG,Market Weighton,YO43,53.8631,-0.6651
242,England,ENG,Holme-on-Spalding-Moor,YO43,53.8252,-0.6414
243,England,ENG,Foggathorpe,YO8,53.8294,-0.8554
244,England,ENG,Wressle,YO8,53.7737,-0.9247
245,England,ENG,Breighton,YO8,53.7969,-0.9241
246,England,ENG,Bubwith,YO8,53.819,-0.9197
247,England,ENG,Highfield,YO8,53.8179,-0.9011
248,England,ENG,Clipsham,LE15,52.7361,-0.5655
249,England,ENG,Upper Hambleton,LE15,52.6585,-0.6698
250,England,ENG,Edith Weston,LE15,52.6379,-0.6319
251,England,ENG,North Luffenham,LE15,52.6211,-0.6199
252,England,ENG,Greetham,LE15,52.7206,-0.6307
253,England,ENG,Oakham,LE15,52.6667,-0.7333
254,England,ENG,Empingham,LE15,52.6672,-0.596
255,England,ENG,Cottesmore,LE15,52.7138,-0.6633
256,England,ENG,Ridlington,LE15,52.6134,-0.756
257,England,ENG,Uppingham,LE15,52.588,-0.7227
258,England,ENG,Morcott,LE15,52.5967,-0.637
259,England,ENG,Seaton,LE15,52.5749,-0.6676
260,England,ENG,Thistleton,LE15,52.7514,-0.6484
261,England,ENG,Burley,LE15,52.6851,-0.6961
262,England,ENG,Manton,LE15,52.6322,-0.7004
263,England,ENG,Langham,LE15,52.6915,-0.7539
264,England,ENG,Market Overton,LE15,52.7381,-0.6863
265,England,ENG,Exton,LE15,52.6911,-0.6346
266,England,ENG,Wing,LE15,52.6177,-0.6827
267,England,ENG,South Luffenham,LE15,52.6086,-0.6123
268,England,ENG,Lyddington,LE15,52.5646,-0.7107
269,England,ENG,Braunston,LE15,52.6517,-0.7689
270,England,ENG,Barrowden,LE15,52.5903,-0.6024
271,England,ENG,Brooke,LE15,52.6432,-0.7464
272,England,ENG,Wardley,LE15,52.5934,-0.7721
273,England,ENG,Belton,LE15,52.6019,-0.795
274,England,ENG,Pilton,LE15,52.6164,-0.6504
275,England,ENG,Ashwell,LE15,52.714,-0.7192
276,England,ENG,Egleton,LE15,52.6572,-0.7068
277,England,ENG,Thorpe by Water,LE15,52.6377,-0.7436
278,England,ENG,Cold Overton,LE15,52.6377,-0.7436
279,England,ENG,Whitwell,LE15,52.6678,-0.6343
280,England,ENG,Stretton,LE15,52.7396,-0.5937
281,England,ENG,Preston,LE15,52.6125,-0.7143
282,England,ENG,Normanton,LE15,52.646,-0.6203
283,England,ENG,Barrow,LE15,52.7262,-0.6801
284,England,ENG,Ayston,LE15,52.6005,-0.7299
285,England,ENG,Marefield,LE15,52.6561,-0.7007
286,England,ENG,Barleythorpe,LE15,52.6791,-0.742
287,England,ENG,Whissendine,LE15,52.7187,-0.7786
288,England,ENG,Teigh,LE15,52.7351,-0.7242
289,England,ENG,Stoke Dry,LE15,52.5637,-0.738
290,England,ENG,Lyndon,LE15,52.6294,-0.6574
291,England,ENG,Glaston,LE15,52.5949,-0.6762
292,England,ENG,Bisbrooke,LE15,52.5869,-0.696
293,England,ENG,Ketton,PE9,52.628,-0.5546
294,England,ENG,Ryhall,PE9,52.6859,-0.4685
295,England,ENG,Essendine,PE9,52.7019,-0.4525
296,England,ENG,Tinwell,PE9,52.6463,-0.515
297,England,ENG,Pickworth,PE9,52.7131,-0.5332
298,England,ENG,Tickencote,PE9,52.675,-0.537
299,England,ENG,Great Casterton,PE9,52.6736,-0.5209
300,England,ENG,Little Casterton,PE9,52.6714,-0.5021
301,England,ENG,Tixover,PE9,52.5996,-0.5568
302,England,ENG,Woore,CW3,52.977,-2.4024
303,England,ENG,Kinlet,DY12,52.4197,-2.4146
304,England,ENG,Cleobury Mortimer,DY14,52.3785,-2.482
305,England,ENG,Farlow,DY14,52.4225,-2.5301
306,England,ENG,Silvington,DY14,52.4167,-2.5667
307,England,ENG,Neen Savage,DY14,52.3932,-2.4792
308,England,ENG,Stottesdon,DY14,52.4361,-2.4808
309,England,ENG,Milson,DY14,52.355,-2.5296
310,England,ENG,Neen Sollars,DY14,52.3467,-2.498
311,England,ENG,Doddington,DY14,52.3805,-2.4665
312,England,ENG,Hopton Wafers,DY14,52.3922,-2.5496
313,England,ENG,Llanfair Waterdine,LD7,52.3833,-3.1167
314,England,ENG,Quabbs,LD7,52.4105,-3.0078
315,England,ENG,Five Turnings,LD7,52.4105,-3.0078
316,England,ENG,Milebrook,LD7,52.4105,-3.0078
317,England,ENG,Dutlas,LD7,52.4105,-3.0078
318,England,ENG,Panpunton,LD7,52.4105,-3.0078
319,England,ENG,Lloyney,LD7,52.4105,-3.0078
320,England,ENG,Pilleth,LD7,52.4105,-3.0078
321,England,ENG,Rhos-y-Meirch,LD7,52.4105,-3.0078
322,England,ENG,Stowe,LD7,52.3522,-3.0334
323,England,ENG,Shrewsbury,SY1,52.7101,-2.7521
324,England,ENG,Battlefield,SY1,52.7234,-2.7415
325,England,ENG,Selattyn,SY10,52.9,-3.0833
326,England,ENG,Rhydycroesau,SY10,52.8676,-3.1203
327,England,ENG,Llynclys,SY10,52.8097,-3.0661
328,England,ENG,Ball,SY10,52.8167,-3.0333
329,England,ENG,Maesbury Marsh,SY10,52.8167,-3.0167
330,England,ENG,Pant,SY10,52.7833,-3.0667
331,England,ENG,Trefonen,SY10,52.8333,-3.1
332,England,ENG,Knockin,SY10,52.7965,-2.9967
333,England,ENG,Llanyblodwel,SY10,52.7991,-3.1252
334,England,ENG,Gobowen,SY10,52.8961,-3.0369
335,England,ENG,Kinnerley,SY10,52.7839,-2.9855
336,England,ENG,Llawnt,SY10,52.8394,-3.1236
337,England,ENG,Lledrod,SY10,52.8394,-3.1236
338,England,ENG,Morda,SY10,52.8394,-3.1236
339,England,ENG,Nantmawr,SY10,52.8394,-3.1236
340,England,ENG,Treflach,SY10,52.8394,-3.1236
341,England,ENG,Craignant,SY10,52.8394,-3.1236
342,England,ENG,Crickheath,SY10,52.8394,-3.1236
343,England,ENG,Alltforgan,SY10,52.8394,-3.1236
344,England,ENG,Bwlch-y-ddar,SY10,52.8394,-3.1236
345,England,ENG,Edgerley,SY10,52.8394,-3.1236
346,England,ENG,Weston Rhyn,SY10,52.9155,-3.0673
347,England,ENG,Woolston,SY10,52.8394,-3.1236
348,England,ENG,Abertridwr,SY10,52.8394,-3.1236
349,England,ENG,Cefn-coch,SY10,52.8394,-3.1236
350,England,ENG,Tan-y-pistyll,SY10,52.8394,-3.1236
351,England,ENG,Tyn-y-ffridd,SY10,52.8394,-3.1236
352,England,ENG,Preesgweene,SY10,52.8394,-3.1236
353,England,ENG,Penygarnedd,SY10,52.8394,-3.1236
354,England,ENG,Penisarcwn,SY10,52.8394,-3.1236
355,England,ENG,Pencraig,SY10,52.8394,-3.1236
356,England,ENG,Hengoed,SY10,52.8394,-3.1236
357,England,ENG,Morton,SY10,52.8394,-3.1236
358,England,ENG,Cedig,SY10,52.8394,-3.1236
359,England,ENG,Porth-y-waen,SY10,52.8394,-3.1236
360,England,ENG,Pentre,SY10,52.8394,-3.1236
361,England,ENG,Rhiwargor,SY10,52.8394,-3.1236
362,England,ENG,Rhewl,SY10,52.8394,-3.1236
363,England,ENG,Rhiwlas,SY10,52.8394,-3.1236
364,England,ENG,Pentrefelin,SY10,52.8394,-3.1236
365,England,ENG,Brogyntyn,SY10,52.8394,-3.1236
366,England,ENG,Croesau Bach,SY10,52.8394,-3.1236
367,England,ENG,Dovaston,SY10,52.8394,-3.1236
368,England,ENG,Moelfre,SY10,52.8394,-3.1236
369,England,ENG,Eardiston,SY11,52.8167,-2.9333
370,England,ENG,Rednal,SY11,52.8486,-2.9475
371,England,ENG,Haughton,SY11,52.8388,-2.9359
372,England,ENG,Whittington,SY11,52.8667,-3
373,England,ENG,Oswestry,SY11,52.8619,-3.055
374,England,ENG,Ifton Heath,SY11,52.9254,-3.0062
375,England,ENG,West Felton,SY11,52.8249,-2.9735
376,England,ENG,St Martin's,SY11,52.8054,-2.9458
377,England,ENG,Hindford,SY11,52.8904,-2.9913
378,England,ENG,Queen's Head,SY11,52.8054,-2.9458
379,England,ENG,Street Dinas,SY11,52.8054,-2.9458
380,England,ENG,Rhyn,SY11,52.8054,-2.9458
381,England,ENG,Middleton,SY11,52.8695,-3.0318
382,England,ENG,New Marton,SY11,52.8054,-2.9458
383,England,ENG,Grimpo,SY11,52.8054,-2.9458
384,England,ENG,Babbinswood,SY11,52.8054,-2.9458
385,England,ENG,Welsh Frankton,SY11,52.8054,-2.9458
386,England,ENG,Weirbrook,SY11,52.8054,-2.9458
387,England,ENG,Ellesmere,SY12,52.9167,-2.8833
388,England,ENG,Cockshutt,SY12,52.8568,-2.8409
389,England,ENG,Colemere,SY12,52.8893,-2.8429
390,England,ENG,Welshampton,SY12,52.9099,-2.8385
391,England,ENG,Dudleston Heath,SY12,52.8888,-2.8656
392,England,ENG,Tetchill,SY12,52.8888,-2.8656
393,England,ENG,Lower Hordley,SY12,52.8888,-2.8656
394,England,ENG,Perthy,SY12,52.8888,-2.8656
395,England,ENG,Lee,SY12,52.8888,-2.8656
396,England,ENG,English Frankton,SY12,52.8888,-2.8656
397,England,ENG,Lyneal,SY12,52.8888,-2.8656
398,England,ENG,Sodylt Bank,SY12,52.8888,-2.8656
399,England,ENG,Elson,SY12,52.8888,-2.8656
400,England,ENG,Hordley,SY12,52.8511,-2.8975
401,England,ENG,Kenwick,SY12,52.8888,-2.8656
402,England,ENG,Bagley,SY12,52.8888,-2.8656
403,England,ENG,Whitchurch,SY13,52.9667,-2.6833
404,England,ENG,Prees,SY13,52.8969,-2.664
405,England,ENG,Tilstock,SY13,52.9356,-2.6838
406,England,ENG,Broughall,SY13,52.9441,-2.6649
407,England,ENG,Fauls,SY13,52.8904,-2.6129
408,England,ENG,Ightfield,SY13,52.9413,-2.6058
409,England,ENG,Whixall,SY13,52.9054,-2.721
410,England,ENG,Calverhall,SY13,52.9441,-2.6649
411,England,ENG,Marley Green,SY13,52.9441,-2.6649
412,England,ENG,Prees Higher Heath,SY13,52.9441,-2.6649
413,England,ENG,Platt Lane,SY13,52.9441,-2.6649
414,England,ENG,Edgeley,SY13,52.9441,-2.6649
415,England,ENG,Alkington,SY13,52.9441,-2.6649
416,England,ENG,Prees Green,SY13,52.9523,-2.6903
417,England,ENG,Millenheath,SY13,52.9441,-2.6649
418,England,ENG,Eglwys Cross,SY13,52.9441,-2.6649
419,England,ENG,Horseman's Green,SY13,52.9441,-2.6649
420,England,ENG,The Chequer,SY13,52.9441,-2.6649
421,England,ENG,Wilkesley,SY13,52.9441,-2.6649
422,England,ENG,Arowry,SY13,52.9441,-2.6649
423,England,ENG,Bronington,SY13,52.9441,-2.6649
424,England,ENG,Burleydam,SY13,52.9441,-2.6649
425,England,ENG,Darliston,SY13,52.9441,-2.6649
426,England,ENG,Welsh End,SY13,52.9441,-2.6649
427,England,ENG,Ash Magna,SY13,52.9441,-2.6649
428,England,ENG,Hollinwood,SY13,52.9523,-2.6903
429,England,ENG,Chirbury,SY15,52.5783,-3.0903
430,England,ENG,Sutton,SY2,52.7065,-2.7295
431,England,ENG,Marton,SY21,52.6167,-3.05
432,England,ENG,Meole Brace,SY3,52.6872,-2.7561
433,England,ENG,Bayston Hill,SY3,52.6755,-2.7616
434,England,ENG,Bicton,SY3,52.7333,-2.8167
435,England,ENG,Great Lyth,SY3,52.699,-2.7725
436,England,ENG,Shelton,SY3,52.699,-2.7725
437,England,ENG,Bicton Heath,SY3,52.699,-2.7725
438,England,ENG,The Isle,SY3,52.699,-2.7725
439,England,ENG,Astley,SY4,52.7667,-2.7
440,England,ENG,Tilley,SY4,52.8333,-2.7333
441,England,ENG,Petton,SY4,52.8333,-2.8333
442,England,ENG,Lee Brockhurst,SY4,52.8399,-2.6737
443,England,ENG,Moreton Corbet,SY4,52.8058,-2.657
444,England,ENG,Baschurch,SY4,52.7885,-2.8528
445,England,ENG,Hadnall,SY4,52.7738,-2.71
446,England,ENG,Albrighton,SY4,52.75,-2.75
447,England,ENG,Wem,SY4,52.8584,-2.7183
448,England,ENG,Weston,SY4,52.8547,-2.647
449,England,ENG,Preston Gubbals,SY4,52.7721,-2.7531
450,England,ENG,Burlton,SY4,52.829,-2.8067
451,England,ENG,Myddle,SY4,52.8102,-2.789
452,England,ENG,Shrawardine,SY4,52.732,-2.8904
453,England,ENG,Little Ness,SY4,52.7713,-2.8796
454,England,ENG,Clive,SY4,52.8,-2.7167
455,England,ENG,Withington,SY4,52.7167,-2.6
456,England,ENG,Merrington,SY4,52.7823,-2.7847
457,England,ENG,Wilcott,SY4,52.7633,-2.9271
458,England,ENG,Leaton,SY4,52.7618,-2.7913
459,England,ENG,Great Ness,SY4,52.7638,-2.8915
460,England,ENG,Walford,SY4,52.8,-2.8333
461,England,ENG,Weston Lullingfields,SY4,52.8187,-2.8546
462,England,ENG,Stanton upon Hine Heath,SY4,52.8117,-2.6408
463,England,ENG,Haughton,SY4,52.8388,-2.9359
464,England,ENG,Montford,SY4,52.732,-2.8904
465,England,ENG,Edstaston,SY4,52.8821,-2.7167
466,England,ENG,Marchamley,SY4,52.8615,-2.6007
467,England,ENG,Rodington,SY4,52.7255,-2.61
468,England,ENG,Loppington,SY4,52.8589,-2.7875
469,England,ENG,Shawbury,SY4,52.7833,-2.65
470,England,ENG,Kinton,SY4,52.7683,-2.9336
471,England,ENG,Grinshill,SY4,52.806,-2.7118
472,England,ENG,Yorton,SY4,52.8092,-2.7385
473,England,ENG,Fitz,SY4,52.7558,-2.8195
474,England,ENG,Paddolgreen,SY4,52.691,-2.6049
475,England,ENG,Upton Magna,SY4,52.7081,-2.6604
476,England,ENG,Newtown,SY4,52.7981,-2.752
477,England,ENG,Aston,SY4,52.7981,-2.752
478,England,ENG,Forton,SY4,52.7981,-2.752
479,England,ENG,Alderton,SY4,52.7981,-2.752
480,England,ENG,Norton,SY4,52.7981,-2.752
481,England,ENG,Northwood,SY4,52.7981,-2.752
482,England,ENG,Grafton,SY4,52.7981,-2.752
483,England,ENG,Yeaton,SY4,52.691,-2.6049
484,England,ENG,Stanwardine in the Fields,SY4,52.691,-2.6049
485,England,ENG,Preston Brockhurst,SY4,52.691,-2.6049
486,England,ENG,Poynton Green,SY4,52.691,-2.6049
487,England,ENG,Harmer Hill,SY4,52.691,-2.6049
488,England,ENG,Great Wytheford,SY4,52.691,-2.6049
489,England,ENG,Nesscliffe,SY4,52.691,-2.6049
490,England,ENG,Felton Butler,SY4,52.691,-2.6049
491,England,ENG,Quina Brook,SY4,52.691,-2.6049
492,England,ENG,Noneley,SY4,52.691,-2.6049
493,England,ENG,Ensdon,SY4,52.691,-2.6049
494,England,ENG,High Hatton,SY4,52.691,-2.6049
495,England,ENG,Booley,SY4,52.691,-2.6049
496,England,ENG,Wykey,SY4,52.691,-2.6049
497,England,ENG,Myddlewood,SY4,52.691,-2.6049
498,England,ENG,Besford,SY4,52.7981,-2.752
499,England,ENG,Pentre,SY4,52.7981,-2.752
500,England,ENG,Montford Bridge,SY4,52.691,-2.6049
501,England,ENG,Edgebolton,SY4,52.691,-2.6049
502,England,ENG,Bomere Heath,SY4,52.691,-2.6049
503,England,ENG,Wolverley,SY4,52.7981,-2.752
504,England,ENG,Prescott,SY4,52.7981,-2.752
505,England,ENG,Uffington,SY4,52.7217,-2.7002
506,England,ENG,Ruyton-XI-Towns,SY4,52.7972,-2.9055
507,England,ENG,Milford,SY4,52.7981,-2.752
508,England,ENG,Westbury,SY5,52.6833,-2.95
509,England,ENG,Longnor,SY5,52.6,-2.75
510,England,ENG,Minsterley,SY5,52.6399,-2.9281
511,England,ENG,Wroxeter,SY5,52.6704,-2.6476
512,England,ENG,Pontesbury,SY5,52.6483,-2.8903
513,England,ENG,Yockleton,SY5,52.6855,-2.8892
514,England,ENG,Hughley,SY5,52.5775,-2.6433
515,England,ENG,Alberbury,SY5,52.7223,-2.9507
516,England,ENG,Pulverbatch,SY5,52.6202,-2.8443
517,England,ENG,Pitchford,SY5,52.6284,-2.6955
518,England,ENG,Atcham,SY5,52.6796,-2.6797
519,England,ENG,Acton Burnell,SY5,52.6139,-2.6947
520,England,ENG,Church Pulverbatch,SY5,52.6202,-2.8443
521,England,ENG,Habberley,SY5,52.6167,-2.8833
522,England,ENG,Shelve,SY5,52.5848,-2.9801
523,England,ENG,Berrington,SY5,52.65,-2.7
524,England,ENG,Stapleton,SY5,52.6333,-2.7833
525,England,ENG,Worthen,SY5,52.6358,-2.9951
526,England,ENG,Condover,SY5,52.6483,-2.7503
527,England,ENG,Wollaston,SY5,52.7,-3
528,England,ENG,Meadowtown,SY5,52.6042,-3.0185
529,England,ENG,Cressage,SY5,52.6336,-2.605
530,England,ENG,Great Hanwood,SY5,52.6833,-2.8167
531,England,ENG,Brockton,SY5,52.6333,-3
532,England,ENG,Harley,SY5,52.6,-2.6
533,England,ENG,Asterley,SY5,52.6576,-2.9256
534,England,ENG,Exfords Green,SY5,52.6515,-2.8327
535,England,ENG,Dorrington,SY5,52.6167,-2.7833
536,England,ENG,Ratlinghope,SY5,52.565,-2.883
537,England,ENG,Ford,SY5,52.7167,-2.85
538,England,ENG,Kenley,SY5,52.6,-2.6333
539,England,ENG,Plealey,SY5,52.6568,-2.8546
540,England,ENG,Hinton,SY5,52.6515,-2.8327
541,England,ENG,Cardeston,SY5,52.7051,-2.8969
542,England,ENG,Hope,SY5,52.6515,-2.8327
543,England,ENG,Cound,SY5,52.6401,-2.6545
544,England,ENG,Leigh,SY5,52.6515,-2.8327
545,England,ENG,Frodesley,SY5,52.6079,-2.7202
546,England,ENG,Donnington,SY5,52.6515,-2.8327
547,England,ENG,Dryton,SY5,52.6515,-2.8327
548,England,ENG,The Marsh,SY5,52.6515,-2.8327
549,England,ENG,Rowley,SY5,52.6515,-2.8327
550,England,ENG,Farley,SY5,52.6515,-2.8327
551,England,ENG,Bridges,SY5,52.6515,-2.8327
552,England,ENG,Edge,SY5,52.6515,-2.8327
553,England,ENG,Upper Cound,SY5,52.6515,-2.8327
554,England,ENG,Great Ryton,SY5,52.6515,-2.8327
555,England,ENG,Eaton Constantine,SY5,52.6515,-2.8327
556,England,ENG,Cross Houses,SY5,52.6515,-2.8327
557,England,ENG,Cantlop,SY5,52.6515,-2.8327
558,England,ENG,Black Marsh,SY5,52.6515,-2.8327
559,England,ENG,Betton,SY5,52.6515,-2.8327
560,England,ENG,Aston Rogers,SY5,52.6515,-2.8327
561,England,ENG,Acton Pigott,SY5,52.6515,-2.8327
562,England,ENG,Wrentnall,SY5,52.6515,-2.8327
563,England,ENG,Stoney Stretton,SY5,52.6515,-2.8327
564,England,ENG,Nox,SY5,52.6515,-2.8327
565,England,ENG,Crewgreen,SY5,52.6515,-2.8327
566,England,ENG,Leighton,SY5,52.6515,-2.8327
567,England,ENG,Cruckton,SY5,52.6515,-2.8327
568,England,ENG,Cruckmeole,SY5,52.6515,-2.8327
569,England,ENG,Lea,SY5,52.6515,-2.8327
570,England,ENG,Longden,SY5,52.6563,-2.8175
571,England,ENG,Sheinton,SY5,52.6309,-2.5734
572,England,ENG,Westley,SY5,52.6515,-2.8327
573,England,ENG,Perkins Beach,SY5,52.6515,-2.8327
574,England,ENG,Shoot Hill,SY5,52.6515,-2.8327
575,England,ENG,The Bog,SY5,52.6515,-2.8327
576,England,ENG,Gravels,SY5,52.6515,-2.8327
577,England,ENG,Snailbeach,SY5,52.6515,-2.8327
578,England,ENG,Pontesford,SY5,52.6515,-2.8327
579,England,ENG,Pennerley,SY5,52.6515,-2.8327
580,England,ENG,Longwood,SY5,52.6515,-2.8327
581,England,ENG,Halfway House,SY5,52.6515,-2.8327
582,England,ENG,Binweston,SY5,52.6515,-2.8327
583,England,ENG,Annscroft,SY5,52.6515,-2.8327
584,England,ENG,Vennington,SY5,52.6515,-2.8327
585,England,ENG,Stretton Heath,SY5,52.6515,-2.8327
586,England,ENG,Ruckley,SY5,52.6515,-2.8327
587,England,ENG,Ploxgreen,SY5,52.6515,-2.8327
588,England,ENG,Lower Wallop,SY5,52.6515,-2.8327
589,England,ENG,Hook-a-Gate,SY5,52.6515,-2.8327
590,England,ENG,Golding,SY5,52.6515,-2.8327
591,England,ENG,Marshbrook,SY6,52.5035,-2.8238
592,England,ENG,Acton Scott,SY6,52.501,-2.8048
593,England,ENG,Hope Bowdler,SY6,52.5274,-2.7757
594,England,ENG,Ticklerton,SY6,52.5129,-2.7615
595,England,ENG,Eaton,SY6,52.5,-2.75
596,England,ENG,Picklescott,SY6,52.5899,-2.8347
597,England,ENG,Woolstaston,SY6,52.5808,-2.81
598,England,ENG,All Stretton,SY6,52.5539,-2.7979
599,England,ENG,Rushbury,SY6,52.5226,-2.7182
600,England,ENG,Church Stretton,SY6,52.5378,-2.8015
601,England,ENG,Little Stretton,SY6,52.5167,-2.8167
602,England,ENG,Cardington,SY6,52.55,-2.7333
603,England,ENG,Leebotwood,SY6,52.5846,-2.7752
604,England,ENG,Gretton,SY6,52.5364,-2.7923
605,England,ENG,Alcaston,SY6,52.5364,-2.7923
606,England,ENG,Woolston,SY6,52.5364,-2.7923
607,England,ENG,Whittingslow,SY6,52.5364,-2.7923
608,England,ENG,Harton,SY6,52.5364,-2.7923
609,England,ENG,Hatton,SY6,52.5364,-2.7923
610,England,ENG,Church Preen,SY6,52.5775,-2.6727
611,England,ENG,Wall Bank,SY6,52.5364,-2.7923
612,England,ENG,Wall under Heywood,SY6,52.5364,-2.7923
613,England,ENG,Plaish,SY6,52.5364,-2.7923
614,England,ENG,Enchmarsh,SY6,52.5364,-2.7923
615,England,ENG,Minton,SY6,52.5364,-2.7923
616,England,ENG,Upper Affcot,SY6,52.5364,-2.7923
617,England,ENG,Lydbury North,SY7,52.4676,-2.957
618,England,ENG,Newcastle,SY7,52.4333,-3.1167
619,England,ENG,Broome,SY7,52.4167,-2.8833
620,England,ENG,Sibdon Carwood,SY7,52.443,-2.8661
621,England,ENG,Clunton,SY7,52.426,-2.9798
622,England,ENG,Clungunford,SY7,52.4039,-2.8848
623,England,ENG,Craven Arms,SY7,52.4431,-2.8356
624,England,ENG,Plowden,SY7,52.4841,-2.9152
625,England,ENG,Hoptonheath,SY7,52.3833,-2.9167
626,England,ENG,Edgton,SY7,52.4669,-2.9038
627,England,ENG,Bettws-y-crwyn,SY7,52.4333,-3.1667
628,England,ENG,Clun,SY7,52.4214,-3.0275
629,England,ENG,Horderley,SY7,52.4764,-2.8704
630,England,ENG,Clunbury,SY7,52.4187,-2.9255
631,England,ENG,Clee St Margaret,SY7,52.45,-2.65
632,England,ENG,Wistanstow,SY7,52.4647,-2.8376
633,England,ENG,Tugford,SY7,52.4806,-2.6535
634,England,ENG,Bedstone,SY7,52.3748,-2.9273
635,England,ENG,Halford,SY7,52.4467,-2.8256
636,England,ENG,Diddlebury,SY7,52.4658,-2.7325
637,England,ENG,Abdon,SY7,52.4806,-2.6535
638,England,ENG,Llwyn,SY7,52.451,-2.7599
639,England,ENG,Bucknell,SY7,52.3667,-2.95
640,England,ENG,Onibury,SY7,52.4083,-2.8031
641,England,ENG,Stokesay,SY7,52.4283,-2.83
642,England,ENG,Munslow,SY7,52.4849,-2.7057
643,England,ENG,Hopesay,SY7,52.4454,-2.8982
644,England,ENG,Kempton,SY7,52.451,-2.7599
645,England,ENG,Hopton Castle,SY7,52.3902,-2.9459
646,England,ENG,Myndtown,SY7,52.5109,-2.8973
647,England,ENG,Newton,SY7,52.4258,-2.8872
648,England,ENG,Anchor,SY7,52.4258,-2.8872
649,England,ENG,Wootton,SY7,52.4258,-2.8872
650,England,ENG,Norton,SY7,52.4258,-2.8872
651,England,ENG,Upper Heath,SY7,52.451,-2.7599
652,England,ENG,Twitchen,SY7,52.451,-2.7599
653,England,ENG,New Invention,SY7,52.451,-2.7599
654,England,ENG,Bicton,SY7,52.4258,-2.8872
655,England,ENG,Walcot,SY7,52.4258,-2.8872
656,England,ENG,Woodside,SY7,52.4258,-2.8872
657,England,ENG,Letton,SY7,52.4258,-2.8872
658,England,ENG,Brockton,SY7,52.4258,-2.8872
659,England,ENG,Asterton,SY7,52.451,-2.7599
660,England,ENG,Aston Munslow,SY7,52.451,-2.7599
661,England,ENG,Bouldon,SY7,52.451,-2.7599
662,England,ENG,Broadstone,SY7,52.451,-2.7599
663,England,ENG,Aston on Clun,SY7,52.451,-2.7599
664,England,ENG,Cheney Longville,SY7,52.451,-2.7599
665,England,ENG,Middlehope,SY7,52.451,-2.7599
666,England,ENG,Shelderton,SY7,52.451,-2.7599
667,England,ENG,Lower Dinchope,SY7,52.451,-2.7599
668,England,ENG,Obley,SY7,52.451,-2.7599
669,England,ENG,Peaton,SY7,52.451,-2.7599
670,England,ENG,Strefford,SY7,52.451,-2.7599
671,England,ENG,Vernolds Common,SY7,52.451,-2.7599
672,England,ENG,Whitcott Keysett,SY7,52.451,-2.7599
673,England,ENG,Buckton,SY7,52.451,-2.7599
674,England,ENG,Chapel Lawn,SY7,52.451,-2.7599
675,England,ENG,Hall of the Forest,SY7,52.451,-2.7599
676,England,ENG,Hobarris,SY7,52.451,-2.7599
677,England,ENG,Little Brampton,SY7,52.451,-2.7599
678,England,ENG,Lower Down,SY7,52.451,-2.7599
679,England,ENG,Purlogue,SY7,52.451,-2.7599
680,England,ENG,Walford,SY7,52.4258,-2.8872
681,England,ENG,Kinton,SY7,52.4258,-2.8872
682,England,ENG,Purslow,SY7,52.451,-2.7599
683,England,ENG,Eyton,SY7,52.4258,-2.8872
684,England,ENG,Birtley,SY7,52.451,-2.7599
685,England,ENG,Corfton,SY7,52.451,-2.7599
686,England,ENG,Westhope,SY7,52.451,-2.7599
687,England,ENG,Stanton Lacy,SY8,52.4048,-2.7426
688,England,ENG,Ashford Carbonel,SY8,52.3318,-2.6991
689,England,ENG,Culmington,SY8,52.4339,-2.7473
690,England,ENG,Coreley,SY8,52.3597,-2.5616
691,England,ENG,Bromfield,SY8,52.3833,-2.7667
692,England,ENG,Ludlow,SY8,52.3743,-2.7131
693,England,ENG,Caynham,SY8,52.3537,-2.6617
694,England,ENG,Stoke St Milborough,SY8,52.4333,-2.6333
695,England,ENG,Woofferton,SY8,52.3126,-2.7051
696,England,ENG,Hope Bagot,SY8,52.3627,-2.6049
697,England,ENG,Bitterley,SY8,52.393,-2.6449
698,England,ENG,Hopton Cangeford,SY8,52.4196,-2.6673
699,England,ENG,Siefton,SY8,52.383,-2.6942
700,England,ENG,Richard's Castle,SY8,52.3126,-2.7051
701,England,ENG,Knowbury,SY8,52.383,-2.6942
702,England,ENG,Middleton,SY8,52.3833,-2.6833
703,England,ENG,Comberton,SY8,52.3654,-2.6954
704,England,ENG,Farden,SY8,52.383,-2.6942
705,England,ENG,Aston,SY8,52.3654,-2.6954
706,England,ENG,Greete,SY8,52.3394,-2.6404
707,England,ENG,Ashford Bowdler,SY8,52.331,-2.713
708,England,ENG,Hayton's Bent,SY8,52.383,-2.6942
709,England,ENG,Downton on the Rock,SY8,52.383,-2.6942
710,England,ENG,Whitton,SY8,52.3529,-2.6243
711,England,ENG,Cleehill,SY8,52.383,-2.6942
712,England,ENG,Cleedownton,SY8,52.383,-2.6942
713,England,ENG,Lower Hayton,SY8,52.383,-2.6942
714,England,ENG,Upper Hayton,SY8,52.383,-2.6942
715,England,ENG,Nash,SY8,52.3534,-2.5843
716,England,ENG,Great Sutton,SY8,52.3654,-2.6954
717,England,ENG,Snitton,SY8,52.383,-2.6942
718,England,ENG,Overton,SY8,52.3654,-2.6954
719,England,ENG,Hints,SY8,52.383,-2.6942
720,England,ENG,Wyson,SY8,52.383,-2.6942
721,England,ENG,Knowle,SY8,52.3654,-2.6954
722,England,ENG,Ludford,SY8,52.383,-2.6942
723,England,ENG,Henley,SY8,52.383,-2.6942
724,England,ENG,Middleton on the Hill,SY8,52.3654,-2.6954
725,England,ENG,Orleton Common,SY8,52.383,-2.6942
726,England,ENG,Acton,SY9,52.45,-3.0167
727,England,ENG,Wentnor,SY9,52.5294,-2.9093
728,England,ENG,Lydham,SY9,52.5148,-2.9797
729,England,ENG,Norbury,SY9,52.5333,-2.95
730,England,ENG,More,SY9,52.5175,-2.9692
731,England,ENG,Bishop's Castle,SY9,52.4921,-3.0021
732,England,ENG,Mainstone,SY9,52.4833,-3.0833
733,England,ENG,Shrewsbury,SY99,52.7101,-2.7521
734,England,ENG,Wellington,TF1,52.7,-2.5167
735,England,ENG,Hadley,TF1,52.7,-2.4833
736,England,ENG,Arleston,TF1,52.7,-2.5
737,England,ENG,Leegomery,TF1,52.7,-2.5
738,England,ENG,Newport,TF10,52.7833,-2.3833
739,England,ENG,Forton,TF10,52.7833,-2.3667
740,England,ENG,Tibberton,TF10,52.7833,-2.4667
741,England,ENG,Lilleshall,TF10,52.7342,-2.4032
742,England,ENG,Woodcote,TF10,52.7333,-2.3333
743,England,ENG,Longford,TF10,52.7592,-2.4119
744,England,ENG,Edgmond,TF10,52.774,-2.4097
745,England,ENG,Chetwynd Aston,TF10,52.7549,-2.3676
746,England,ENG,Church Aston,TF10,52.7579,-2.3854
747,England,ENG,Sutton,TF10,52.7689,-2.3882
748,England,ENG,Beckbury,TF11,52.6121,-2.3482
749,England,ENG,Sutton Maddock,TF11,52.61,-2.4104
750,England,ENG,Sheriffhales,TF11,52.6959,-2.3582
751,England,ENG,Tong,TF11,52.6667,-2.3
752,England,ENG,Ryton,TF11,52.6167,-2.35
753,England,ENG,Shifnal,TF11,52.6704,-2.3725
754,England,ENG,Crackleybank,TF11,52.6959,-2.3582
755,England,ENG,Tong Norton,TF11,52.6306,-2.3342
756,England,ENG,Brineton,TF11,52.6306,-2.3342
757,England,ENG,Kemberton,TF11,52.6384,-2.3987
758,England,ENG,Heath Hill,TF11,52.6306,-2.3342
759,England,ENG,Stockton,TF11,52.5988,-2.3999
760,England,ENG,The Wyke,TF11,52.6306,-2.3342
761,England,ENG,Norton,TF11,52.6641,-2.3583
762,England,ENG,Weston Heath,TF11,52.6306,-2.3342
763,England,ENG,Grindle,TF11,52.6306,-2.3342
764,England,ENG,Brockton,TF11,52.6641,-2.3583
765,England,ENG,Broseley,TF12,52.6132,-2.4827
766,England,ENG,Benthall,TF12,52.6192,-2.4963
767,England,ENG,Willey,TF12,52.5833,-2.4833
768,England,ENG,Barrow,TF12,52.6032,-2.4897
769,England,ENG,Stanton Long,TF13,52.5119,-2.631
770,England,ENG,Much Wenlock,TF13,52.5958,-2.5575
771,England,ENG,Easthope,TF13,52.5533,-2.6407
772,England,ENG,Presthope,TF13,52.5727,-2.6179
773,England,ENG,Bourton,TF13,52.5667,-2.6
774,England,ENG,Longville in the Dale,TF13,52.5397,-2.6803
775,England,ENG,East Wall,TF13,52.5793,-2.5809
776,England,ENG,Stretton Westwood,TF13,52.5793,-2.5809
777,England,ENG,Shipton,TF13,52.525,-2.6452
778,England,ENG,Homer,TF13,52.5793,-2.5809
779,England,ENG,Holdgate,TF13,52.5793,-2.5809
780,England,ENG,Wyke,TF13,52.5793,-2.5809
781,England,ENG,Weston,TF13,52.5793,-2.5809
782,England,ENG,Brockton,TF13,52.5793,-2.5809
783,England,ENG,Trench,TF2,52.7167,-2.4667
784,England,ENG,Oakengates,TF2,52.695,-2.4504
785,England,ENG,Redhill,TF2,52.7041,-2.4402
786,England,ENG,Donnington,TF2,52.7041,-2.4402
787,England,ENG,Telford,TF3,52.6766,-2.4493
788,England,ENG,Stirchley,TF3,52.6766,-2.4493
789,England,ENG,Hollinswood,TF3,52.6766,-2.4493
790,England,ENG,Oldpark,TF3,52.6766,-2.4493
791,England,ENG,Horsehay,TF4,52.6589,-2.4886
792,England,ENG,Lawley,TF4,52.6833,-2.4833
793,England,ENG,Dawley,TF4,52.6649,-2.4674
794,England,ENG,Admaston,TF5,52.7167,-2.55
795,England,ENG,Little Wenlock,TF6,52.6799,-2.5369
796,England,ENG,Walcot,TF6,52.7,-2.6
797,England,ENG,Great Bolas,TF6,52.7891,-2.5223
798,England,ENG,Wrockwardine,TF6,52.7045,-2.5568
799,England,ENG,Cherrington,TF6,52.7763,-2.4964
800,England,ENG,Eyton upon the Weald Moors,TF6,52.7333,-2.5167
801,England,ENG,Rowton,TF6,52.7667,-2.5833
802,England,ENG,High Ercall,TF6,52.7541,-2.6024
803,England,ENG,Crudgington,TF6,52.7592,-2.5491
804,England,ENG,Preston upon the Weald Moors,TF6,52.7357,-2.4732
805,England,ENG,Uppington,TF6,52.6704,-2.6476
806,England,ENG,Aston,TF6,52.7365,-2.5555
807,England,ENG,Muckleton,TF6,52.7365,-2.5555
808,England,ENG,Poynton,TF6,52.7365,-2.5555
809,England,ENG,Roden,TF6,52.7365,-2.5555
810,England,ENG,Kynnersley,TF6,52.7501,-2.4928
811,England,ENG,Rushton,TF6,52.7365,-2.5555
812,England,ENG,Walton,TF6,52.7365,-2.5555
813,England,ENG,Long Waste,TF6,52.7365,-2.5555
814,England,ENG,Longdon upon Tern,TF6,52.7365,-2.5555
815,England,ENG,Rushmoor,TF6,52.7365,-2.5555
816,England,ENG,Isombridge,TF6,52.7365,-2.5555
817,England,ENG,Waters Upton,TF6,52.7706,-2.5364
818,England,ENG,Osbaston,TF6,52.7365,-2.5555
819,England,ENG,Sleapford,TF6,52.7365,-2.5555
820,England,ENG,Marsh Green,TF6,52.7365,-2.5555
821,England,ENG,Ellerdine Heath,TF6,52.7365,-2.5555
822,England,ENG,Madeley,TF7,52.6333,-2.4333
823,England,ENG,Coalport,TF8,52.6192,-2.4507
824,England,ENG,Ironbridge,TF8,52.6279,-2.4847
825,England,ENG,Coalbrookdale,TF8,52.6382,-2.4917
826,England,ENG,Buildwas,TF8,52.6343,-2.5267
827,England,ENG,Peplow,TF9,52.8166,-2.5456
828,England,ENG,Lockleywood,TF9,52.8515,-2.46
829,England,ENG,Moreton Say,TF9,52.9061,-2.5524
830,England,ENG,Market Drayton,TF9,52.9054,-2.4901
831,England,ENG,Ollerton,TF9,52.8971,-2.4704
832,England,ENG,Adderley,TF9,52.954,-2.5047
833,England,ENG,Hodnet,TF9,52.8505,-2.5682
834,England,ENG,Child's Ercall,TF9,52.8248,-2.4925
835,England,ENG,Hinstock,TF9,52.8371,-2.4576
836,England,ENG,Longford,TF9,52.8971,-2.4704
837,England,ENG,Pipe Gate,TF9,52.9632,-2.3915
838,England,ENG,Aston,TF9,52.8971,-2.4704
839,England,ENG,Ternhill,TF9,52.8857,-2.5431
840,England,ENG,Cheswardine,TF9,52.8652,-2.4145
841,England,ENG,Norton in Hales,TF9,52.9441,-2.4431
842,England,ENG,Hopton,TF9,52.8971,-2.4704
843,England,ENG,Soudley,TF9,52.8971,-2.4704
844,England,ENG,Knighton,TF9,52.8971,-2.4704
845,England,ENG,Sutton,TF9,52.8971,-2.4704
846,England,ENG,Boraston,WR15,52.3263,-2.5673
847,England,ENG,Romsley,WV15,52.45,-2.3167
848,England,ENG,Alveley,WV15,52.4571,-2.3543
849,England,ENG,Worfield,WV15,52.5581,-2.3576
850,England,ENG,Quatt,WV15,52.4913,-2.3616
851,England,ENG,Hilton,WV15,52.5667,-2.3167
852,England,ENG,Quatford,WV15,52.5164,-2.3875
853,England,ENG,Chesterton,WV15,52.5154,-2.375
854,England,ENG,Six Ashes,WV15,52.5154,-2.375
855,England,ENG,Allscot,WV15,52.5154,-2.375
856,England,ENG,Swancote,WV15,52.5154,-2.375
857,England,ENG,Roughton,WV15,52.5154,-2.375
858,England,ENG,Birdsgreen,WV15,52.5154,-2.375
859,England,ENG,Wyken,WV15,52.5154,-2.375
860,England,ENG,Bridgnorth,WV16,52.5366,-2.4203
861,England,ENG,Morville,WV16,52.5442,-2.4892
862,England,ENG,Glazeley,WV16,52.4905,-2.4413
863,England,ENG,Cleobury North,WV16,52.4777,-2.5561
864,England,ENG,Monkhopton,WV16,52.5383,-2.5531
865,England,ENG,Burwarton,WV16,52.4624,-2.5609
866,England,ENG,Hampton,WV16,52.4667,-2.3833
867,England,ENG,Neenton,WV16,52.4873,-2.5373
868,England,ENG,Astley Abbotts,WV16,52.562,-2.4309
869,England,ENG,Ditton Priors,WV16,52.4991,-2.5775
870,England,ENG,Highley,WV16,52.4487,-2.3825
871,England,ENG,Acton Round,WV16,52.5571,-2.5372
872,England,ENG,Billingsley,WV16,52.4555,-2.4233
873,England,ENG,Eardington,WV16,52.5141,-2.4121
874,England,ENG,Aston Botterell,WV16,52.4548,-2.5428
875,England,ENG,Loughton,WV16,52.4333,-2.5667
876,England,ENG,Chetton,WV16,52.5108,-2.4966
877,England,ENG,Nordley,WV16,52.5642,-2.4534
878,England,ENG,Aston Eyre,WV16,52.5472,-2.5131
879,England,ENG,Sutton,WV16,52.5642,-2.4534
880,England,ENG,Woodhill,WV16,52.5642,-2.4534
881,England,ENG,Wheathill,WV16,52.4328,-2.582
882,England,ENG,Middleton Priors,WV16,52.5642,-2.4534
883,England,ENG,Tasley,WV16,52.5642,-2.4534
884,England,ENG,Cross Lane Head,WV16,52.5642,-2.4534
885,England,ENG,The Smithies,WV16,52.5642,-2.4534
886,England,ENG,Woodlands,WV16,52.5642,-2.4534
887,England,ENG,Chelmarsh,WV16,52.4843,-2.4053
888,England,ENG,Haughton,WV16,52.5108,-2.4404
889,England,ENG,Oldbury,WV16,52.5108,-2.4404
890,England,ENG,Deuxhill,WV16,52.4795,-2.4451
891,England,ENG,Middleton Scriven,WV16,52.4889,-2.4803
892,England,ENG,Upton Cressett,WV16,52.5285,-2.5171
893,England,ENG,Chorley,WV16,52.5108,-2.4404
894,England,ENG,Sidbury,WV16,52.4633,-2.4613
895,England,ENG,Claverley,WV5,52.5379,-2.3065
896,England,ENG,Badger,WV6,52.5928,-2.3444
897,England,ENG,Albrighton,WV7,52.6333,-2.2667
898,England,ENG,Cosford,WV7,52.6358,-2.2794
899,England,ENG,Shackerley,WV7,52.6358,-2.2794
900,England,ENG,Boningale,WV7,52.6203,-2.272
901,England,ENG,Monkton Deverill,BA12,51.1348,-2.209
902,England,ENG,Kingston Deverill,BA12,51.1326,-2.2167
903,England,ENG,Stourton,BA12,51.105,-2.3156
904,England,ENG,Brixton Deverill,BA12,51.1473,-2.198
905,England,ENG,Norton Bavant,BA12,51.187,-2.1306
906,England,ENG,Codford St Mary,BA12,51.1558,-2.0389
907,England,ENG,Knook,BA12,51.1759,-2.0906
908,England,ENG,Fisherton de la Mere,BA12,51.1457,-2.0017
909,England,ENG,Corsley,BA12,51.2189,-2.2481
910,England,ENG,Boreham,BA12,51.1994,-2.1656
911,England,ENG,Sutton Veny,BA12,51.1782,-2.1499
912,England,ENG,Chitterne,BA12,51.1995,-2.008
913,England,ENG,Upton Scudamore,BA12,51.23,-2.1933
914,England,ENG,Zeals,BA12,51.0856,-2.3123
915,England,ENG,Sherrington,BA12,51.1511,-2.0564
916,England,ENG,Bishopstrow,BA12,51.1931,-2.1553
917,England,ENG,West Knoyle,BA12,51.0878,-2.2076
918,England,ENG,Heytesbury,BA12,51.1824,-2.1068
919,England,ENG,Mere,BA12,51.0889,-2.2669
920,England,ENG,Tytherington,BA12,51.1683,-2.1211
921,England,ENG,Corton,BA12,51.1631,-2.09
922,England,ENG,Barrow Street,BA12,51.1594,-2.1537
923,England,ENG,Longbridge Deverill,BA12,51.1665,-2.1883
924,England,ENG,Warminster,BA12,51.2043,-2.1787
925,England,ENG,Boyton,BA12,51.155,-2.0711
926,England,ENG,Horningsham,BA12,51.1695,-2.2707
927,England,ENG,Corsley Heath,BA12,51.2069,-2.2578
928,England,ENG,Norton Ferris,BA12,51.1594,-2.1537
929,England,ENG,Stockton,BA12,51.1453,-2.0319
930,England,ENG,Kilmington,BA12,51.1269,-2.3269
931,England,ENG,Kilmington Street,BA12,51.1594,-2.1537
932,England,ENG,Codford St Peter,BA12,51.1597,-2.0531
933,England,ENG,Crockerton,BA12,51.1594,-2.1537
934,England,ENG,Wylye,BA12,51.1371,-1.9895
935,England,ENG,Shear Cross,BA12,51.1594,-2.1537
936,England,ENG,Maiden Bradley,BA12,51.1497,-2.2858
937,England,ENG,Upton Lovell,BA12,51.1685,-2.0785
938,England,ENG,Deptford,BA12,51.15,-1.9833
939,England,ENG,Bratton,BA13,51.2706,-2.1244
940,England,ENG,Dilton Marsh,BA13,51.2478,-2.2183
941,England,ENG,Westbury,BA13,51.26,-2.1875
942,England,ENG,Chapmanslade,BA13,51.2292,-2.2489
943,England,ENG,Coulston,BA13,51.2859,-2.0715
944,England,ENG,Hawkeridge,BA13,51.2615,-2.1595
945,England,ENG,Edington,BA13,51.2758,-2.1064
946,England,ENG,Westbury Leigh,BA13,51.2615,-2.1595
947,England,ENG,Heywood,BA13,51.2768,-2.1987
948,England,ENG,Keevil,BA14,51.3213,-2.115
949,England,ENG,Holt,BA14,51.3556,-2.1972
950,England,ENG,West Ashton,BA14,51.2988,-2.1738
951,England,ENG,Steeple Ashton,BA14,51.3103,-2.1354
952,England,ENG,Southwick,BA14,51.2969,-2.2325
953,England,ENG,North Bradley,BA14,51.295,-2.2047
954,England,ENG,Semington,BA14,51.3449,-2.148
955,England,ENG,Trowbridge,BA14,51.3189,-2.2086
956,England,ENG,Staverton,BA14,51.3399,-2.2071
957,England,ENG,Hilperton,BA14,51.3367,-2.1949
958,England,ENG,Wingfield,BA14,51.3089,-2.2528
959,England,ENG,Ashton Common,BA14,51.3194,-2.2026
960,England,ENG,Trowle Common,BA14,51.3194,-2.2026
961,England,ENG,Yarnbrook,BA14,51.3194,-2.2026
962,England,ENG,Great Hinton,BA14,51.3299,-2.1373
963,England,ENG,South Wraxall,BA15,51.3818,-2.2424
964,England,ENG,Bradford-on-Avon,BA15,51.3477,-2.2506
965,England,ENG,Westwood,BA15,51.3311,-2.2739
966,England,ENG,Bradford Leigh,BA15,51.3536,-2.2556
967,England,ENG,Monkton Farleigh,BA15,51.3858,-2.2814
968,England,ENG,Winsley,BA15,51.3497,-2.2858
969,England,ENG,Chilton Foliat,RG17,51.4324,-1.5391
970,England,ENG,Swindon,SN1,51.558,-1.7812
971,England,ENG,Bishops Cannings,SN10,51.3766,-1.948
972,England,ENG,Devizes,SN10,51.3508,-1.9942
973,England,ENG,Rowde,SN10,51.3633,-2.031
974,England,ENG,Poulshot,SN10,51.3355,-2.0449
975,England,ENG,Roundway,SN10,51.368,-1.9808
976,England,ENG,Marston,SN10,51.3108,-2.0497
977,England,ENG,Patney,SN10,51.3279,-1.8978
978,England,ENG,Bulkington,SN10,51.3236,-2.0836
979,England,ENG,Little Cheverell,SN10,51.281,-2.0133
980,England,ENG,Market Lavington,SN10,51.2876,-1.9773
981,England,ENG,Urchfont,SN10,51.3122,-1.9429
982,England,ENG,Potterne,SN10,51.3292,-2.0052
983,England,ENG,Great Cheverell,SN10,51.2878,-2.0269
984,England,ENG,Worton,SN10,51.3161,-2.0411
985,England,ENG,Erlestoke,SN10,51.2847,-2.0544
986,England,ENG,Calstone Wellington,SN10,51.3369,-1.9872
987,England,ENG,Eastcott,SN10,51.3255,-2.0607
988,England,ENG,Stert,SN10,51.3332,-1.9548
989,England,ENG,Chirton,SN10,51.3143,-1.8971
990,England,ENG,All Cannings,SN10,51.3574,-1.898
991,England,ENG,Easterton,SN10,51.2965,-1.9718
992,England,ENG,Potterne Wick,SN10,51.3255,-2.0607
993,England,ENG,Wedhampton,SN10,51.3255,-2.0607
994,England,ENG,Coate,SN10,51.3255,-2.0607
995,England,ENG,Littleton Panell,SN10,51.3255,-2.0607
996,England,ENG,Allington,SN10,51.3369,-1.9872
997,England,ENG,Horton,SN10,51.3369,-1.9872
998,England,ENG,Marden,SN10,51.3211,-1.8777
999,England,ENG,West Lavington,SN10,51.2787,-1.9963
1000,England,ENG,Etchilhampton,SN10,51.3422,-1.933
1001,England,ENG,Cherhill,SN11,51.4299,-1.9509
1002,England,ENG,Bremhill,SN11,51.4567,-2.0303
1003,England,ENG,Highway,SN11,51.4667,-1.9333
1004,England,ENG,Compton Bassett,SN11,51.4495,-1.9481
1005,England,ENG,Studley,SN11,51.4422,-2.0497
1006,England,ENG,Hilmarton,SN11,51.4766,-1.9719
1007,England,ENG,Yatesbury,SN11,51.442,-1.908
1008,England,ENG,Clevancy,SN11,51.4503,-1.9747
1009,England,ENG,Calne,SN11,51.4388,-2.0057
1010,England,ENG,Mile Elm,SN11,51.4503,-1.9747
1011,England,ENG,Heddington,SN11,51.3973,-2.0086
1012,England,ENG,Blackland,SN11,51.4503,-1.9747
1013,England,ENG,Goatacre,SN11,51.4503,-1.9747
1014,England,ENG,Charlcutt,SN11,51.4503,-1.9747
1015,England,ENG,Spirthill,SN11,51.4503,-1.9747
1016,England,ENG,Stockley,SN11,51.4503,-1.9747
1017,England,ENG,Quemerford,SN11,51.4503,-1.9747
1018,England,ENG,Derry Hill,SN11,51.4503,-1.9747
1019,England,ENG,Beanacre,SN12,51.3929,-2.1402
1020,England,ENG,Seend,SN12,51.3481,-2.0847
1021,England,ENG,Atworth,SN12,51.3923,-2.193
1022,England,ENG,Melksham,SN12,51.3728,-2.14
1023,England,ENG,Broughton Gifford,SN12,51.3721,-2.1755
1024,England,ENG,Norrington Common,SN12,51.3723,-2.1373
1025,England,ENG,Shaw,SN12,51.3723,-2.1373
1026,England,ENG,Melksham Forest,SN12,51.3723,-2.1373
1027,England,ENG,Seend Cleeve,SN12,51.3723,-2.1373
1028,England,ENG,Sells Green,SN12,51.3723,-2.1373
1029,England,ENG,Sandridge,SN12,51.3723,-2.1373
1030,England,ENG,Gastard,SN13,51.4158,-2.1667
1031,England,ENG,Box,SN13,51.4147,-2.2456
1032,England,ENG,Corsham,SN13,51.4343,-2.1844
1033,England,ENG,Cross Keys,SN13,51.4411,-2.1853
1034,England,ENG,Neston,SN13,51.4122,-2.2006
1035,England,ENG,Hawthorn,SN13,51.4242,-2.2236
1036,England,ENG,Easton,SN13,51.4255,-2.2106
1037,England,ENG,Ashley,SN13,51.4255,-2.2106
1038,England,ENG,Hullavington,SN14,51.5378,-2.1516
1039,England,ENG,Castle Combe,SN14,51.4929,-2.229
1040,England,ENG,Biddestone,SN14,51.4608,-2.1983
1041,England,ENG,Slaughterford,SN14,51.4641,-2.2317
1042,England,ENG,Luckington,SN14,51.5544,-2.2422
1043,England,ENG,North Wraxall,SN14,51.4734,-2.263
1044,England,ENG,West Kington,SN14,51.4955,-2.2728
1045,England,ENG,Nettleton,SN14,51.5022,-2.2625
1046,England,ENG,Yatton Keynell,SN14,51.4861,-2.1934
1047,England,ENG,Sopworth,SN14,51.5744,-2.2512
1048,England,ENG,Colerne,SN14,51.4383,-2.2628
1049,England,ENG,Stanton St Quintin,SN14,51.5178,-2.1353
1050,England,ENG,Hardenhuish,SN14,51.4703,-2.1311
1051,England,ENG,Grittleton,SN14,51.5186,-2.2057
1052,England,ENG,Leigh Delamere,SN14,51.451,-2.1347
1053,England,ENG,Kington St Michael,SN14,51.4961,-2.1403
1054,England,ENG,Lower Stanton St Quintin,SN14,51.451,-2.1347
1055,England,ENG,West Littleton,SN14,51.451,-2.1347
1056,England,ENG,Alderton,SN14,51.4756,-2.1985
1057,England,ENG,Thickwood,SN14,51.451,-2.1347
1058,England,ENG,Burton,SN14,51.4756,-2.1985
1059,England,ENG,The Shoe,SN14,51.451,-2.1347
1060,England,ENG,Pennsylvania,SN14,51.451,-2.1347
1061,England,ENG,Ford,SN14,51.4756,-2.1985
1062,England,ENG,Ditteridge,SN14,51.451,-2.1347
1063,England,ENG,Littleton Drew,SN14,51.451,-2.1347
1064,England,ENG,Upper Wraxall,SN14,51.451,-2.1347
1065,England,ENG,Sutton Benger,SN15,51.5069,-2.0801
1066,England,ENG,Chippenham,SN15,51.46,-2.1247
1067,England,ENG,Chittoe,SN15,51.3994,-2.0662
1068,England,ENG,Christian Malford,SN15,51.5104,-2.0551
1069,England,ENG,Tytherton Lucas,SN15,51.4678,-2.0764
1070,England,ENG,Foxham,SN15,51.4943,-2.036
1071,England,ENG,Lyneham,SN15,51.5167,-1.9667
1072,England,ENG,Lacock,SN15,51.4153,-2.1219
1073,England,ENG,Kington Langley,SN15,51.4888,-2.1166
1074,England,ENG,Upper Seagry,SN15,51.526,-2.0783
1075,England,ENG,Brinkworth,SN15,51.5589,-1.9822
1076,England,ENG,Stanley,SN15,51.4721,-2.0837
1077,England,ENG,Great Somerford,SN15,51.5435,-2.0521
1078,England,ENG,Preston,SN15,51.4721,-2.0837
1079,England,ENG,Little Somerford,SN15,51.5588,-2.0492
1080,England,ENG,Cleverton,SN15,51.4721,-2.0837
1081,England,ENG,Langley Burrell,SN15,51.4721,-2.0837
1082,England,ENG,Church End,SN15,51.4721,-2.0837
1083,England,ENG,Callow Hill,SN15,51.4721,-2.0837
1084,England,ENG,Bewley Common,SN15,51.4721,-2.0837
1085,England,ENG,Dauntsey,SN15,51.5343,-2.0108
1086,England,ENG,Bromham,SN15,51.388,-2.0489
1087,England,ENG,Bradenstoke,SN15,51.4721,-2.0837
1088,England,ENG,Startley,SN15,51.4721,-2.0837
1089,England,ENG,Notton,SN15,51.4721,-2.0837
1090,England,ENG,St Edith's Marsh,SN15,51.4721,-2.0837
1091,England,ENG,Sandy Lane,SN15,51.4721,-2.0837
1092,England,ENG,Grittenham,SN15,51.4721,-2.0837
1093,England,ENG,Netherstreet,SN15,51.4721,-2.0837
1094,England,ENG,East Tytherton,SN15,51.4721,-2.0837
1095,England,ENG,Lower Seagry,SN15,51.4721,-2.0837
1096,England,ENG,Bowden Hill,SN15,51.4721,-2.0837
1097,England,ENG,Lea,SN16,51.5753,-2.0631
1098,England,ENG,Brokenborough,SN16,51.6013,-2.1186
1099,England,ENG,Garsdon,SN16,51.5893,-2.0461
1100,England,ENG,Easton Grey,SN16,51.588,-2.1729
1101,England,ENG,Charlton,SN16,51.5992,-2.0564
1102,England,ENG,Foxley,SN16,51.5722,-2.155
1103,England,ENG,Malmesbury,SN16,51.5817,-2.0971
1104,England,ENG,Minety,SN16,51.6167,-1.95
1105,England,ENG,Oaksey,SN16,51.6413,-2.017
1106,England,ENG,Crudwell,SN16,51.6332,-2.0696
1107,England,ENG,Sherston,SN16,51.572,-2.2128
1108,England,ENG,Hankerton,SN16,51.6144,-2.045
1109,England,ENG,Corston,SN16,51.5561,-2.1108
1110,England,ENG,Chedglow,SN16,51.6434,-2.0165
1111,England,ENG,Upper Minety,SN16,51.6434,-2.0165
1112,England,ENG,Chelworth,SN16,51.6434,-2.0165
1113,England,ENG,Eastcourt,SN16,51.6434,-2.0165
1114,England,ENG,Rodbourne,SN16,51.6434,-2.0165
1115,England,ENG,Norton,SN16,51.5611,-2.1625
1116,England,ENG,Broad Blunsdon,SN2,51.5787,-1.7833
1117,England,ENG,Haydon Wick,SN2,51.5912,-1.8191
1118,England,ENG,Blunsdon St Andrew,SN2,51.5787,-1.7833
1119,England,ENG,Swindon,SN25,51.558,-1.7812
1120,England,ENG,Swindon,SN26,51.6124,-1.7873
1121,England,ENG,South Marston,SN3,51.5892,-1.7194
1122,England,ENG,Coate,SN3,51.5892,-1.7194
1123,England,ENG,Stratton St Margaret,SN3,51.5892,-1.7194
1124,England,ENG,Swindon,SN38,51.558,-1.7812
1125,England,ENG,Liddington,SN4,51.5316,-1.703
1126,England,ENG,Winterbourne Bassett,SN4,51.4727,-1.8519
1127,England,ENG,Tockenham,SN4,51.5124,-1.9452
1128,England,ENG,Broad Town,SN4,51.4985,-1.8702
1129,England,ENG,Broad Hinton,SN4,51.4887,-1.8479
1130,England,ENG,Wanborough,SN4,51.5426,-1.6984
1131,England,ENG,Wootton Bassett,SN4,51.5419,-1.9045
1132,England,ENG,Wroughton,SN4,51.5241,-1.7956
1133,England,ENG,Hinton Parva,SN4,51.4849,-1.7519
1134,England,ENG,Chiseldon,SN4,51.5161,-1.7321
1135,England,ENG,Berwick Bassett,SN4,51.4592,-1.858
1136,England,ENG,Winterbourne Monkton,SN4,51.5301,-1.8364
1137,England,ENG,Badbury,SN4,51.4849,-1.7519
1138,England,ENG,Tockenham Wick,SN4,51.4849,-1.7519
1139,England,ENG,Bushton,SN4,51.4849,-1.7519
1140,England,ENG,Clyffe Pypard,SN4,51.5014,-1.9071
1141,England,ENG,Hook,SN4,51.5301,-1.8364
1142,England,ENG,Uffcott,SN4,51.4849,-1.7519
1143,England,ENG,North Wroughton,SN4,51.4849,-1.7519
1144,England,ENG,Lydiard Millicent,SN5,51.5712,-1.8635
1145,England,ENG,Purton Stoke,SN5,51.6132,-1.8723
1146,England,ENG,Purton,SN5,51.5833,-1.8667
1147,England,ENG,Shaw,SN5,51.5661,-1.8396
1148,England,ENG,Nine Elms,SN5,51.5661,-1.8396
1149,England,ENG,Stanton Fitzwarren,SN6,51.612,-1.7446
1150,England,ENG,Castle Eaton,SN6,51.6605,-1.7921
1151,England,ENG,Cricklade,SN6,51.6406,-1.8574
1152,England,ENG,Hannington,SN6,51.6333,-1.75
1153,England,ENG,Ashton Keynes,SN6,51.6452,-1.9323
1154,England,ENG,Bishopstone,SN6,51.5513,-1.647
1155,England,ENG,Latton,SN6,51.6589,-1.8706
1156,England,ENG,Leigh,SN6,51.6167,-1.9
1157,England,ENG,Highworth,SN6,51.6305,-1.711
1158,England,ENG,Hannington Wick,SN6,51.6165,-1.7412
1159,England,ENG,Marston Meysey,SN6,51.6732,-1.8167
1160,England,ENG,Sevenhampton,SN6,51.6,-1.7
1161,England,ENG,Upper Inglesham,SN6,51.6165,-1.7412
1162,England,ENG,Inglesham,SN6,51.6708,-1.7043
1163,England,ENG,Avebury,SN8,51.4167,-1.8667
1164,England,ENG,Oare,SN8,51.3651,-1.7749
1165,England,ENG,Great Bedwyn,SN8,51.3795,-1.6015
1166,England,ENG,Manton,SN8,51.4152,-1.7562
1167,England,ENG,Mildenhall,SN8,51.4256,-1.6999
1168,England,ENG,Aldbourne,SN8,51.481,-1.6183
1169,England,ENG,Baydon,SN8,51.5004,-1.597
1170,England,ENG,Ogbourne St George,SN8,51.469,-1.7141
1171,England,ENG,Wootton Rivers,SN8,51.3677,-1.7187
1172,England,ENG,Beckhampton,SN8,51.4194,-1.8746
1173,England,ENG,Oxenwood,SN8,51.3303,-1.5648
1174,England,ENG,Alton Priors,SN8,51.3601,-1.8429
1175,England,ENG,Marlborough,SN8,51.4203,-1.7295
1176,England,ENG,Fyfield,SN8,51.4167,-1.7833
1177,England,ENG,Burbage,SN8,51.3518,-1.6709
1178,England,ENG,Ham,SN8,51.3652,-1.5259
1179,England,ENG,Collingbourne Ducis,SN8,51.2852,-1.6525
1180,England,ENG,Tidcombe,SN8,51.3238,-1.5854
1181,England,ENG,Huish,SN8,51.3711,-1.7927
1182,England,ENG,Froxfield,SN8,51.4108,-1.572
1183,England,ENG,Fosbury,SN8,51.3203,-1.5425
1184,England,ENG,Shalbourne,SN8,51.3636,-1.5505
1185,England,ENG,Little Bedwyn,SN8,51.3918,-1.5824
1186,England,ENG,Buttermere,SN8,51.3474,-1.5116
1187,England,ENG,Everleigh,SN8,51.2815,-1.7095
1188,England,ENG,Collingbourne Kingston,SN8,51.3011,-1.6588
1189,England,ENG,Ramsbury,SN8,51.4437,-1.6026
1190,England,ENG,Rockley,SN8,51.3524,-1.6468
1191,England,ENG,Ogbourne St Andrew,SN8,51.4484,-1.7283
1192,England,ENG,Crofton,SN8,51.3524,-1.6468
1193,England,ENG,Wexcombe,SN8,51.3304,-1.6094
1194,England,ENG,East Kennett,SN8,51.4054,-1.8301
1195,England,ENG,Durley,SN8,51.4067,-1.6872
1196,England,ENG,West Overton,SN8,51.4071,-1.7995
1197,England,ENG,Stibb Green,SN8,51.3524,-1.6468
1198,England,ENG,Axford,SN8,51.4067,-1.6872
1199,England,ENG,West Grafton,SN8,51.3524,-1.6468
1200,England,ENG,Upper Upham,SN8,51.3524,-1.6468
1201,England,ENG,Stanton St Bernard,SN8,51.3524,-1.6468
1202,England,ENG,Chisbury,SN8,51.3524,-1.6468
1203,England,ENG,Ogbourne Maizey,SN8,51.3524,-1.6468
1204,England,ENG,West Stowell,SN8,51.3524,-1.6468
1205,England,ENG,Whittonditch,SN8,51.3524,-1.6468
1206,England,ENG,Woodsend,SN8,51.3524,-1.6468
1207,England,ENG,Clench Common,SN8,51.3524,-1.6468
1208,England,ENG,Stock Lane,SN8,51.3524,-1.6468
1209,England,ENG,West Kennett,SN8,51.3524,-1.6468
1210,England,ENG,Cadley,SN8,51.3524,-1.6468
1211,England,ENG,Wilton,SN8,51.4067,-1.6872
1212,England,ENG,Rivar,SN8,51.3524,-1.6468
1213,England,ENG,East Grafton,SN8,51.3524,-1.6468
1214,England,ENG,Lockeridge,SN8,51.3524,-1.6468
1215,England,ENG,Rushall,SN9,51.2833,-1.8167
1216,England,ENG,Alton Barnes,SN9,51.3592,-1.8496
1217,England,ENG,North Newnton,SN9,51.3233,-1.8372
1218,England,ENG,Manningford Bohune,SN9,51.3209,-1.8071
1219,England,ENG,Hilcott,SN9,51.3233,-1.8372
1220,England,ENG,Manningford Abbots,SN9,51.3167,-1.8
1221,England,ENG,Upavon,SN9,51.2946,-1.8079
1222,England,ENG,Wilcot,SN9,51.3491,-1.7958
1223,England,ENG,Pewsey,SN9,51.3385,-1.7655
1224,England,ENG,Beechingstoke,SN9,51.3323,-1.8761
1225,England,ENG,Wilsford,SN9,51.3,-1.85
1226,England,ENG,Enford,SN9,51.2628,-1.8
1227,England,ENG,Woodborough,SN9,51.3333,-1.8333
1228,England,ENG,Manningford Bruce,SN9,51.3252,-1.8018
1229,England,ENG,Charlton,SN9,51.3033,-1.8381
1230,England,ENG,Longstreet,SN9,51.3259,-1.7871
1231,England,ENG,East Chisenbury,SN9,51.332,-1.8334
1232,England,ENG,Easton Royal,SN9,51.332,-1.8334
1233,England,ENG,Milton Lilbourne,SN9,51.3454,-1.7336
1234,England,ENG,Swindon,SN99,51.558,-1.7812
1235,England,ENG,Salisbury,SP1,51.0693,-1.7957
1236,England,ENG,Stratford sub Castle,SP1,51.0693,-1.7957
1237,England,ENG,Laverstock,SP1,51.0693,-1.7957
1238,England,ENG,Ludgershall,SP11,51.2556,-1.6222
1239,England,ENG,Wilton,SP2,51.0793,-1.8621
1240,England,ENG,Great Wishford,SP2,51.119,-1.8884
1241,England,ENG,South Newton,SP2,51.1065,-1.8753
1242,England,ENG,Burcombe,SP2,51.1016,-1.8753
1243,England,ENG,Harnham,SP2,51.1016,-1.8753
1244,England,ENG,Netherhampton,SP2,51.063,-1.8296
1245,England,ENG,Fugglestone St Peter,SP2,51.1016,-1.8753
1246,England,ENG,Quidhampton,SP2,51.0787,-1.8442
1247,England,ENG,Stoford,SP2,51.1016,-1.8753
1248,England,ENG,Tilshead,SP3,51.2297,-1.951
1249,England,ENG,Ansty,SP3,51.0364,-2.0639
1250,England,ENG,Dinton,SP3,51.0833,-1.9833
1251,England,ENG,Tisbury,SP3,51.0628,-2.0806
1252,England,ENG,Little Langford,SP3,51.1275,-1.9303
1253,England,ENG,Rollestone,SP3,51.1898,-1.8992
1254,England,ENG,East Knoyle,SP3,51.0744,-2.1705
1255,England,ENG,Baverstock,SP3,51.0834,-1.9608
1256,England,ENG,Hanging Langford,SP3,51.133,-1.9555
1257,England,ENG,Fovant,SP3,51.0559,-1.9921
1258,England,ENG,Shrewton,SP3,51.1919,-1.9026
1259,England,ENG,The Green,SP3,51.1507,-1.8909
1260,England,ENG,Steeple Langford,SP3,51.1365,-1.9481
1261,England,ENG,Winterbourne Stoke,SP3,51.1673,-1.8981
1262,England,ENG,Swallowcliffe,SP3,51.0401,-2.0425
1263,England,ENG,Stapleford,SP3,51.1167,-1.9
1264,England,ENG,Orcheston,SP3,51.2072,-1.9175
1265,England,ENG,Barford St Martin,SP3,51.1507,-1.8909
1266,England,ENG,Teffont Evias,SP3,51.0804,-2.013
1267,England,ENG,Chicklade,SP3,51.1092,-2.1267
1268,England,ENG,Teffont Magna,SP3,51.0897,-2.0169
1269,England,ENG,Compton Chamberlayne,SP3,51.0672,-1.9614
1270,England,ENG,Chilmark,SP3,51.0918,-2.0438
1271,England,ENG,Berwick St James,SP3,51.1557,-1.8987
1272,England,ENG,Hindon,SP3,51.0922,-2.1258
1273,England,ENG,Fonthill Bishop,SP3,51.0977,-2.0926
1274,England,ENG,Fonthill Gifford,SP3,51.0824,-2.1079
1275,England,ENG,Sutton Mandeville,SP3,51.0588,-2.0253
1276,England,ENG,East Hatch,SP3,51.1507,-1.8909
1277,England,ENG,Berwick St Leonard,SP3,51.1507,-1.8909
1278,England,ENG,Newtown,SP3,51.1023,-2.0104
1279,England,ENG,Ridge,SP3,51.1023,-2.0104
1280,England,ENG,Cholderton,SP4,51.1793,-1.6785
1281,England,ENG,Bulford,SP4,51.1893,-1.7601
1282,England,ENG,Amesbury,SP4,51.1751,-1.7806
1283,England,ENG,Netheravon,SP4,51.2361,-1.7908
1284,England,ENG,Larkhill,SP4,51.2,-1.8167
1285,England,ENG,Allington,SP4,51.15,-1.7
1286,England,ENG,Boscombe,SP4,51.15,-1.7167
1287,England,ENG,Winterbourne Gunner,SP4,51.1161,-1.7444
1288,England,ENG,Figheldean,SP4,51.2232,-1.7827
1289,England,ENG,Winterbourne Dauntsey,SP4,51.1122,-1.75
1290,England,ENG,Fittleton,SP4,51.2456,-1.7913
1291,England,ENG,Porton,SP4,51.1284,-1.7323
1292,England,ENG,Milston,SP4,51.2062,-1.769
1293,England,ENG,Durrington,SP4,51.1987,-1.7718
1294,England,ENG,Idmiston,SP4,51.1376,-1.7208
1295,England,ENG,Upper Woodford,SP4,51.1679,-1.7646
1296,England,ENG,Winterbourne Earls,SP4,51.1063,-1.755
1297,England,ENG,Wilsford,SP4,51.1679,-1.7646
1298,England,ENG,Newton Tony,SP4,51.1644,-1.6899
1299,England,ENG,Countess,SP4,51.1679,-1.7646
1300,England,ENG,West Amesbury,SP4,51.1679,-1.7646
1301,England,ENG,Lake,SP4,51.1679,-1.7646
1302,England,ENG,Lower Woodford,SP4,51.1679,-1.7646
1303,England,ENG,Bulford Camp,SP4,51.1679,-1.7646
1304,England,ENG,Middle Woodford,SP4,51.1679,-1.7646
1305,England,ENG,Gomeldon,SP4,51.1679,-1.7646
1306,England,ENG,Great Durnford,SP4,51.1679,-1.7646
1307,England,ENG,Netton,SP4,51.1679,-1.7646
1308,England,ENG,East Grimstead,SP5,51.0505,-1.6785
1309,England,ENG,Bowerchalke,SP5,51,-1.9667
1310,England,ENG,Britford,SP5,51.0542,-1.7735
1311,England,ENG,Downton,SP5,51,-1.7333
1312,England,ENG,Landford,SP5,50.9683,-1.6354
1313,England,ENG,Odstock,SP5,51.0344,-1.7926
1314,England,ENG,Tollard Royal,SP5,50.9596,-2.0805
1315,England,ENG,West Dean,SP5,51.0426,-1.6351
1316,England,ENG,Farley,SP5,51.05,-1.6833
1317,England,ENG,Alvediston,SP5,51.0101,-2.0348
1318,England,ENG,Pitton,SP5,51.0667,-1.7
1319,England,ENG,Winterslow,SP5,51.0972,-1.6631
1320,England,ENG,Broad Chalke,SP5,51.0272,-1.9485
1321,England,ENG,Middle Winterslow,SP5,51.0935,-1.6545
1322,England,ENG,Bishopstone,SP5,51.0303,-1.9027
1323,England,ENG,Coombe Bissett,SP5,51.0363,-1.8458
1324,England,ENG,Alderbury,SP5,51.0435,-1.7338
1325,England,ENG,West Grimstead,SP5,51.0393,-1.7009
1326,England,ENG,Redlynch,SP5,50.9873,-1.7116
1327,England,ENG,Wick,SP5,51.0209,-1.7739
1328,England,ENG,Whiteparish,SP5,51.0104,-1.6486
1329,England,ENG,Deanland,SP5,51.1024,-1.8434
1330,England,ENG,West Winterslow,SP5,51.0898,-1.6705
1331,England,ENG,Whaddon,SP5,51.0209,-1.7739
1332,England,ENG,Lopcombe Corner,SP5,51.1024,-1.8434
1333,England,ENG,Nomansland,SP5,51.1024,-1.8434
1334,England,ENG,Morgan's Vale,SP5,51.1024,-1.8434
1335,England,ENG,North Charford,SP5,51.1024,-1.8434
1336,England,ENG,Bodenham,SP5,51.0209,-1.7739
1337,England,ENG,Woodminton,SP5,51.1024,-1.8434
1338,England,ENG,Homington,SP5,51.1024,-1.8434
1339,England,ENG,Newton,SP5,51.0209,-1.7739
1340,England,ENG,Nunton,SP5,51.1024,-1.8434
1341,England,ENG,Dean,SP5,51.1024,-1.8434
1342,England,ENG,Woodcutts,SP5,51.1024,-1.8434
1343,England,ENG,Mead End,SP5,51.1024,-1.8434
1344,England,ENG,Ebbesborne Wake,SP5,51.0147,-2.0119
1345,England,ENG,Hamptworth,SP5,51.1024,-1.8434
1346,England,ENG,Woodyates,SP5,51.1024,-1.8434
1347,England,ENG,Fifield Bavant,SP5,51.1024,-1.8434
1348,England,ENG,Woodfalls,SP5,51.1024,-1.8434
1349,England,ENG,Lover,SP5,51.1024,-1.8434
1350,England,ENG,Firs Road,SP5,51.1024,-1.8434
1351,England,ENG,The Common,SP5,51.1024,-1.8434
1352,England,ENG,Stratford Tony,SP5,51.1024,-1.8434
1353,England,ENG,Charlton-All-Saints,SP5,51.1024,-1.8434
1354,England,ENG,Donhead St Andrew,SP7,51.0208,-2.1206
1355,England,ENG,Semley,SP7,51.0414,-2.1558
1356,England,ENG,Ludwell,SP7,51.0032,-2.1398
1357,England,ENG,Sedgehill,SP7,51.0533,-2.1917
1358,England,ENG,Berwick St John,SP7,51,-2.0667
1359,England,ENG,Bedchester,SP7,50.9985,-2.0847
1360,England,ENG,Donhead St Mary,SP7,50.9985,-2.0847
1361,England,ENG,Guy's Marsh,SP7,50.9985,-2.0847
1362,England,ENG,Coppleridge,SP7,50.9985,-2.0847
1363,England,ENG,Stour Row,SP7,50.9985,-2.0847
1364,England,ENG,Cann Common,SP7,50.9985,-2.0847
1365,England,ENG,South Tidworth,SP9,51.2314,-1.6632
1366,England,ENG,North Tidworth,SP9,51.2333,-1.6667
1367,England,ENG,Shipton Bellinger,SP9,51.2324,-1.665
1368,England,ENG,Mottistone,PO30,50.6518,-1.4271
1369,England,ENG,Calbourne,PO30,50.6777,-1.4002
1370,England,ENG,Shalfleet,PO30,50.7014,-1.415
1371,England,ENG,Newbridge,PO30,50.6869,-1.4193
1372,England,ENG,Downend,PO30,50.6868,-1.2469
1373,England,ENG,Newtown,PO30,50.7138,-1.4011
1374,England,ENG,Shorwell,PO30,50.6445,-1.3549
1375,England,ENG,Bowcombe,PO30,50.6793,-1.338
1376,England,ENG,Arreton,PO30,50.678,-1.245
1377,England,ENG,Merstone,PO30,50.6653,-1.2591
1378,England,ENG,Brighstone,PO30,50.6426,-1.3948
1379,England,ENG,Newport,PO30,50.7015,-1.2912
1380,England,ENG,Blackwater,PO30,50.6667,-1.2833
1381,England,ENG,Carisbrooke,PO30,50.6928,-1.3175
1382,England,ENG,Chillerton,PO30,50.6916,-1.3132
1383,England,ENG,Limerstone,PO30,50.6916,-1.3132
1384,England,ENG,Gatcombe,PO30,50.6916,-1.3132
1385,England,ENG,Hunny Hill,PO30,50.6916,-1.3132
1386,England,ENG,Ningwood,PO30,50.6916,-1.3132
1387,England,ENG,Yafford,PO30,50.6916,-1.3132
1388,England,ENG,Parkhurst,PO30,50.6916,-1.3132
1389,England,ENG,Brook,PO30,50.6916,-1.3132
1390,England,ENG,Staplers,PO30,50.6916,-1.3132
1391,England,ENG,Moortown,PO30,50.6916,-1.3132
1392,England,ENG,Gunville,PO30,50.6916,-1.3132
1393,England,ENG,Porchfield,PO30,50.6916,-1.3132
1394,England,ENG,Cowes,PO31,50.7631,-1.2977
1395,England,ENG,Gurnard,PO31,50.7606,-1.3241
1396,England,ENG,Northwood,PO31,50.741,-1.3119
1397,England,ENG,East Cowes,PO32,50.7577,-1.2881
1398,England,ENG,Osborne,PO32,50.7507,-1.275
1399,England,ENG,Whippingham,PO32,50.7375,-1.2686
1400,England,ENG,Wootton Bridge,PO33,50.7244,-1.2369
1401,England,ENG,Ryde,PO33,50.73,-1.1621
1402,England,ENG,Fishbourne,PO33,50.733,-1.2118
1403,England,ENG,Havenstreet,PO33,50.7112,-1.2054
1404,England,ENG,Wootton Common,PO33,50.7247,-1.2041
1405,England,ENG,East Ashey,PO33,50.7247,-1.2041
1406,England,ENG,Quarr Hill,PO33,50.7247,-1.2041
1407,England,ENG,St Helens,PO33,50.7247,-1.2041
1408,England,ENG,Binstead,PO33,50.7247,-1.2041
1409,England,ENG,Haylands,PO33,50.7247,-1.2041
1410,England,ENG,Seaview,PO34,50.7196,-1.1116
1411,England,ENG,Nettlestone,PO34,50.7102,-1.1196
1412,England,ENG,Bembridge,PO35,50.6863,-1.0828
1413,England,ENG,Hillway,PO35,50.6863,-1.0828
1414,England,ENG,Sandown,PO36,50.6516,-1.161
1415,England,ENG,Brading,PO36,50.6799,-1.1457
1416,England,ENG,Newchurch,PO36,50.6674,-1.2083
1417,England,ENG,Alverstone,PO36,50.6674,-1.186
1418,England,ENG,Branstone,PO36,50.666,-1.1739
1419,England,ENG,Apse Heath,PO36,50.666,-1.1739
1420,England,ENG,Yaverland,PO36,50.666,-1.1739
1421,England,ENG,Shanklin,PO37,50.6261,-1.1785
1422,England,ENG,Luccombe Village,PO37,50.6261,-1.1785
1423,England,ENG,Chale,PO38,50.5956,-1.3184
1424,England,ENG,Whitwell,PO38,50.5984,-1.2642
1425,England,ENG,Ventnor,PO38,50.5948,-1.2037
1426,England,ENG,Kingston,PO38,50.6301,-1.3234
1427,England,ENG,Bonchurch,PO38,50.5995,-1.186
1428,England,ENG,Rookley,PO38,50.6551,-1.2833
1429,England,ENG,Little Atherfield,PO38,50.605,-1.242
1430,England,ENG,St Lawrence,PO38,50.5857,-1.2547
1431,England,ENG,Wroxall,PO38,50.6163,-1.2229
1432,England,ENG,Niton,PO38,50.587,-1.2849
1433,England,ENG,Roud,PO38,50.605,-1.242
1434,England,ENG,Bierley,PO38,50.605,-1.242
1435,England,ENG,Pyle,PO38,50.605,-1.242
1436,England,ENG,Whiteley Bank,PO38,50.605,-1.242
1437,England,ENG,Sandford,PO38,50.605,-1.242
1438,England,ENG,Godshill,PO38,50.6317,-1.2572
1439,England,ENG,Chale Green,PO38,50.605,-1.242
1440,England,ENG,Blackgang,PO38,50.605,-1.242
1441,England,ENG,Totland,PO39,50.6847,-1.5369
1442,England,ENG,Freshwater,PO40,50.692,-1.5079
1443,England,ENG,Easton,PO40,50.6824,-1.5219
1444,England,ENG,Norton Green,PO40,50.6824,-1.5219
1445,England,ENG,Yarmouth,PO41,50.7053,-1.4993
1446,England,ENG,Shalcombe,PO41,50.7007,-1.4768
1447,England,ENG,Norton,PO41,50.7007,-1.4768
1448,England,ENG,Thorley Street,PO41,50.7007,-1.4768
1449,England,ENG,Cranmore,PO41,50.7007,-1.4768
1450,England,ENG,Hamstead,PO41,50.7007,-1.4768
1451,England,ENG,Wellow,PO41,50.7007,-1.4768
1452,England,ENG,City of Bristol,BS0,51.4646,-2.5636
1453,England,ENG,Bristol,BS1,51.4552,-2.5966
1454,England,ENG,Henbury,BS10,51.5028,-2.6217
1455,England,ENG,Catbrain,BS10,51.5099,-2.6354
1456,England,ENG,Shirehampton,BS11,51.4892,-2.6753
1457,England,ENG,Avonmouth,BS11,51.5101,-2.689
1458,England,ENG,Bishopsworth,BS13,51.4121,-2.612
1459,England,ENG,Fishponds,BS16,51.4817,-2.5236
1460,England,ENG,Bristol,BS2,51.4552,-2.5966
1461,England,ENG,Bristol,BS3,51.4552,-2.5966
1462,England,ENG,Brislington,BS4,51.4335,-2.5472
1463,England,ENG,Knowle,BS4,51.4355,-2.5633
1464,England,ENG,Bristol,BS5,51.462,-2.5519
1465,England,ENG,Bristol,BS6,51.4552,-2.5966
1466,England,ENG,Redland,BS6,51.4708,-2.6003
1467,England,ENG,Cotham,BS6,51.4708,-2.6003
1468,England,ENG,Stapleton,BS7,51.4767,-2.5572
1469,England,ENG,Horfield,BS7,51.4767,-2.5572
1470,England,ENG,Clifton,BS8,51.4611,-2.62
1471,England,ENG,Weston-Super-Mare,BS80,51.502,-2.6153
1472,England,ENG,Westbury on Trym,BS9,51.4874,-2.6266
1473,England,ENG,City of Bristol,BS98,51.4646,-2.5636
1474,England,ENG,Bristol (PO Boxes),BS99,51.4646,-2.5636
1475,England,ENG,Ocle Pychard,HR1,52.1167,-2.6
1476,England,ENG,Mordiford,HR1,52.0323,-2.628
1477,England,ENG,Lugwardine,HR1,52.0658,-2.6578
1478,England,ENG,Bartestree,HR1,52.0684,-2.6348
1479,England,ENG,Preston Wynne,HR1,52.1207,-2.6455
1480,England,ENG,Westhide,HR1,52.0946,-2.606
1481,England,ENG,Hampton Bishop,HR1,52.0405,-2.6472
1482,England,ENG,Hereford,HR1,52.0568,-2.7148
1483,England,ENG,Brockhampton,HR1,51.9833,-2.5833
1484,England,ENG,Prior's Frome,HR1,52.1066,-2.5908
1485,England,ENG,Withington,HR1,52.1,-2.6333
1486,England,ENG,Ullingswick,HR1,52.1436,-2.5938
1487,England,ENG,Fownhope,HR1,52.0083,-2.6152
1488,England,ENG,Woolhope,HR1,52.018,-2.5667
1489,England,ENG,Urdimarsh,HR1,52.1066,-2.5908
1490,England,ENG,Bodenham,HR1,52.15,-2.6833
1491,England,ENG,Bodenham Moor,HR1,52.1066,-2.5908
1492,England,ENG,Holmer,HR1,52.1066,-2.5908
1493,England,ENG,Penalt,HR1,52.1066,-2.5908
1494,England,ENG,Fiddler's Green,HR1,52.1066,-2.5908
1495,England,ENG,Tarrington,HR1,52.063,-2.5544
1496,England,ENG,Shucknall,HR1,52.1066,-2.5908
1497,England,ENG,Weston Beggard,HR1,52.0775,-2.606
1498,England,ENG,Sutton St Nicholas,HR1,52.1066,-2.5908
1499,England,ENG,Moreton Jeffries,HR1,52.1066,-2.5908
1500,England,ENG,Maund Bryan,HR1,52.1066,-2.5908
1501,England,ENG,Fawley Chapel,HR1,52.1066,-2.5908
1502,England,ENG,Hagley,HR1,52.0642,-2.672
1503,England,ENG,Felton,HR1,52.1295,-2.629
1504,England,ENG,How Caple,HR1,51.9731,-2.5686
1505,England,ENG,Kings Caple,HR1,51.9598,-2.6362
1506,England,ENG,Dormington,HR1,52.0575,-2.6075
1507,England,ENG,Marden,HR1,52.1273,-2.6898
1508,England,ENG,Pipe and Lyde,HR1,52.0914,-2.7151
1509,England,ENG,Sollers Hope,HR1,51.9896,-2.5639
1510,England,ENG,Burley Gate,HR1,52.1066,-2.5908
1511,England,ENG,Shelwick,HR1,52.1066,-2.5908
1512,England,ENG,Yarkhill,HR1,52.1066,-2.5908
1513,England,ENG,Walker's Green,HR1,52.1066,-2.5908
1514,England,ENG,Checkley,HR1,52.0642,-2.672
1515,England,ENG,Tupsley,HR1,52.1066,-2.5908
1516,England,ENG,The Vauld,HR1,52.1066,-2.5908
1517,England,ENG,Bowley,HR1,52.1066,-2.5908
1518,England,ENG,Garway,HR2,51.9004,-2.7833
1519,England,ENG,Clodock,HR2,51.9406,-2.9796
1520,England,ENG,Michaelchurch Escley,HR2,52.0018,-2.9977
1521,England,ENG,Blakemere,HR2,52.0648,-2.9319
1522,England,ENG,Broad Oak,HR2,51.8833,-2.75
1523,England,ENG,Kentchurch,HR2,51.9276,-2.8576
1524,England,ENG,Madley,HR2,52.0444,-2.8474
1525,England,ENG,Kingstone,HR2,52.0167,-2.8333
1526,England,ENG,Longtown,HR2,51.95,-2.9833
1527,England,ENG,Hoarwithy,HR2,51.9597,-2.6636
1528,England,ENG,Ewyas Harold,HR2,51.9536,-2.8933
1529,England,ENG,Llanveynoe,HR2,51.9667,-3
1530,England,ENG,Michaelchurch,HR2,52.0018,-2.9977
1531,England,ENG,Tyberton,HR2,52.0521,-2.9029
1532,England,ENG,Kilpeck,HR2,51.9694,-2.8075
1533,England,ENG,Orcop,HR2,51.9348,-2.7839
1534,England,ENG,Pencoyd,HR2,51.9333,-2.7
1535,England,ENG,Bacton,HR2,51.9833,-2.9167
1536,England,ENG,Turnastone,HR2,52.0167,-2.9333
1537,England,ENG,Thruxton,HR2,52,-2.8167
1538,England,ENG,Vowchurch,HR2,52.0261,-2.9306
1539,England,ENG,Holme Lacy,HR2,52.0177,-2.6505
1540,England,ENG,Callow,HR2,52.0167,-2.7333
1541,England,ENG,Aconbury,HR2,51.9994,-2.7027
1542,England,ENG,Shenmore,HR2,51.9752,-2.7429
1543,England,ENG,Rowlstone,HR2,51.9333,-2.9167
1544,England,ENG,Little Dewchurch,HR2,51.9829,-2.6802
1545,England,ENG,Peterchurch,HR2,52.0419,-2.9557
1546,England,ENG,Much Dewchurch,HR2,51.9768,-2.7548
1547,England,ENG,Pontrilas,HR2,51.9433,-2.8794
1548,England,ENG,Lower Bullingham,HR2,52.0333,-2.7
1549,England,ENG,Eaton Bishop,HR2,52.0457,-2.8131
1550,England,ENG,Much Birch,HR2,51.9711,-2.7235
1551,England,ENG,Abbey Dore,HR2,51.9667,-2.9
1552,England,ENG,Dinedor,HR2,52.029,-2.6821
1553,England,ENG,Allensmore,HR2,52.0188,-2.7804
1554,England,ENG,St Weonards,HR2,51.9167,-2.7167
1555,England,ENG,Moccas,HR2,52.077,-2.9426
1556,England,ENG,Llanwarne,HR2,51.9501,-2.7196
1557,England,ENG,Kerry's Gate,HR2,51.9752,-2.7429
1558,England,ENG,Preston on Wye,HR2,52.0695,-2.8988
1559,England,ENG,Howton,HR2,51.9752,-2.7429
1560,England,ENG,Dewsall Court,HR2,51.9752,-2.7429
1561,England,ENG,Ballingham,HR2,51.9853,-2.6253
1562,England,ENG,Craswall,HR2,51.9996,-3.029
1563,England,ENG,Kenderchurch,HR2,51.9607,-2.8515
1564,England,ENG,Walterstone,HR2,51.9167,-2.9577
1565,England,ENG,Wormbridge,HR2,51.9727,-2.8442
1566,England,ENG,Bolstone,HR2,51.9913,-2.6542
1567,England,ENG,Clehonger,HR2,52.0352,-2.7914
1568,England,ENG,Llandinabo,HR2,51.9555,-2.7072
1569,England,ENG,Grafton,HR2,52.0249,-2.7309
1570,England,ENG,Hinton,HR2,52.0099,-2.7851
1571,England,ENG,Whitfield,HR2,52.0099,-2.7851
1572,England,ENG,Little Garway,HR2,51.9752,-2.7429
1573,England,ENG,Kingsthorne,HR2,51.9752,-2.7429
1574,England,ENG,Didley,HR2,51.9752,-2.7429
1575,England,ENG,Carey,HR2,51.9752,-2.7429
1576,England,ENG,Bagwyllydiart,HR2,51.9752,-2.7429
1577,England,ENG,Wormelow Tump,HR2,51.9752,-2.7429
1578,England,ENG,Webton,HR2,51.9752,-2.7429
1579,England,ENG,Orcop Hill,HR2,51.9752,-2.7429
1580,England,ENG,Harewood End,HR2,51.9752,-2.7429
1581,England,ENG,Garway Hill,HR2,51.9752,-2.7429
1582,England,ENG,Twyford Common,HR2,51.9752,-2.7429
1583,England,ENG,St Owen's Cross,HR2,51.9752,-2.7429
1584,England,ENG,Upper Maes-coed,HR2,51.9752,-2.7429
1585,England,ENG,Tretire,HR2,51.9752,-2.7429
1586,England,ENG,St Margarets,HR2,51.9752,-2.7429
1587,England,ENG,Sandyway,HR2,51.9752,-2.7429
1588,England,ENG,Ploughfield,HR2,51.9752,-2.7429
1589,England,ENG,Middle Maes-coed,HR2,51.9752,-2.7429
1590,England,ENG,Lulham,HR2,51.9752,-2.7429
1591,England,ENG,Lower Maes-coed,HR2,51.9752,-2.7429
1592,England,ENG,Little Birch,HR2,51.9752,-2.7429
1593,England,ENG,Canon Bridge,HR2,51.9752,-2.7429
1594,England,ENG,Whitney,HR3,52.1167,-3.0833
1595,England,ENG,Eardisley,HR3,52.1404,-3.0084
1596,England,ENG,Almeley,HR3,52.159,-2.9763
1597,England,ENG,Willersley,HR3,52.1198,-3.0066
1598,England,ENG,Winforton,HR3,52.1172,-3.026
1599,England,ENG,Bredwardine,HR3,52.095,-2.9767
1600,England,ENG,Woonton,HR3,52.1667,-2.95
1601,England,ENG,Clifford,HR3,52.1,-3.1
1602,England,ENG,Ailey,HR3,52.0649,-3.0304
1603,England,ENG,Kinnersley,HR3,52.1333,-2.95
1604,England,ENG,Priory Wood,HR3,52.0649,-3.0304
1605,England,ENG,Letton,HR3,52.111,-2.9669
1606,England,ENG,Dorstone,HR3,52.0667,-3
1607,England,ENG,Upper Welson,HR3,52.0649,-3.0304
1608,England,ENG,Rhydspence,HR3,52.0649,-3.0304
1609,England,ENG,Upcott,HR3,52.0649,-3.0304
1610,England,ENG,Lower Welson,HR3,52.0649,-3.0304
1611,England,ENG,Merbach,HR3,52.0649,-3.0304
1612,England,ENG,Hurstway Common,HR3,52.0649,-3.0304
1613,England,ENG,Cwmbach,HR3,52.0945,-3.0906
1614,England,ENG,The Bage,HR3,52.0649,-3.0304
1615,England,ENG,Pen-y-Park,HR3,52.0649,-3.0304
1616,England,ENG,Hardwicke,HR3,52.0945,-3.0906
1617,England,ENG,Brilley,HR3,52.1348,-3.0852
1618,England,ENG,Brobury,HR3,52.0649,-3.0304
1619,England,ENG,Cusop,HR3,52.0722,-3.1127
1620,England,ENG,Snodhill,HR3,52.0649,-3.0304
1621,England,ENG,Bronydd,HR3,52.0649,-3.0304
1622,England,ENG,Byford,HR4,52.0854,-2.8877
1623,England,ENG,Burghill,HR4,52.0966,-2.7678
1624,England,ENG,Credenhill,HR4,52.0835,-2.808
1625,England,ENG,Staunton on Wye,HR4,52.1021,-2.9207
1626,England,ENG,Yazor,HR4,52.1167,-2.8667
1627,England,ENG,Moreton on Lugg,HR4,52.1072,-2.7223
1628,England,ENG,Sarnesfield,HR4,52.1514,-2.922
1629,England,ENG,Weobley,HR4,52.1596,-2.875
1630,England,ENG,Wellington,HR4,52.1275,-2.749
1631,England,ENG,Kenchester,HR4,52.0845,-2.8225
1632,England,ENG,Dilwyn,HR4,52.186,-2.8561
1633,England,ENG,Birley,HR4,52.1833,-2.8
1634,England,ENG,Norton Canon,HR4,52.1219,-2.908
1635,England,ENG,Breinton,HR4,52.0856,-2.7631
1636,England,ENG,Moorhampton,HR4,52.1207,-2.8924
1637,England,ENG,Weobley Marsh,HR4,52.0856,-2.7631
1638,England,ENG,Sollers Dilwyn,HR4,52.0856,-2.7631
1639,England,ENG,Tillington,HR4,52.0856,-2.7631
1640,England,ENG,Monnington on Wye,HR4,52.0856,-2.7631
1641,England,ENG,Ledgemoor,HR4,52.0856,-2.7631
1642,England,ENG,Knapton Green,HR4,52.0856,-2.7631
1643,England,ENG,Haven,HR4,52.0856,-2.7631
1644,England,ENG,Bush Bank,HR4,52.0856,-2.7631
1645,England,ENG,Brinsop,HR4,52.0856,-2.7631
1646,England,ENG,Norton Wood,HR4,52.0856,-2.7631
1647,England,ENG,Calver Hill,HR4,52.0856,-2.7631
1648,England,ENG,Wellington Marsh,HR4,52.0856,-2.7631
1649,England,ENG,Yarsop,HR4,52.0856,-2.7631
1650,England,ENG,Wormsley,HR4,52.0856,-2.7631
1651,England,ENG,Westhope,HR4,52.0856,-2.7631
1652,England,ENG,Tillington Common,HR4,52.0856,-2.7631
1653,England,ENG,Bishopstone,HR4,52.0828,-2.8474
1654,England,ENG,Mansell Gamage,HR4,52.0979,-2.8854
1655,England,ENG,Upper Breinton,HR4,52.0856,-2.7631
1656,England,ENG,Dilwyn Common,HR4,52.0856,-2.7631
1657,England,ENG,Swainshill,HR4,52.0856,-2.7631
1658,England,ENG,Mansell Lacy,HR4,52.1039,-2.8458
1659,England,ENG,King's Pyon,HR4,52.1502,-2.8338
1660,England,ENG,Canon Pyon,HR4,52.1411,-2.7876
1661,England,ENG,Bridge Sollers,HR4,52.0748,-2.8515
1662,England,ENG,Stretton Sugwas,HR4,52.0856,-2.7631
1663,England,ENG,Portway,HR4,52.0856,-2.7631
1664,England,ENG,White Cross,HR4,52.0856,-2.7631
1665,England,ENG,Titley,HR5,52.2345,-2.981
1666,England,ENG,Lyonshall,HR5,52.198,-2.9747
1667,England,ENG,Kingswood Common,HR5,52.1961,-3.0352
1668,England,ENG,Kington,HR5,52.2041,-3.0255
1669,England,ENG,Hengoed,HR5,52.1961,-3.0352
1670,England,ENG,Bryngwyn,HR5,52.1961,-3.0352
1671,England,ENG,Veaullt,HR5,52.1961,-3.0352
1672,England,ENG,Gwaithla,HR5,52.1961,-3.0352
1673,England,ENG,Moorcot,HR5,52.1961,-3.0352
1674,England,ENG,Holme Marsh,HR5,52.1961,-3.0352
1675,England,ENG,Eywood,HR5,52.1961,-3.0352
1676,England,ENG,Dolleycanney,HR5,52.1961,-3.0352
1677,England,ENG,Michaelchurch-on-Arrow,HR5,52.1961,-3.0352
1678,England,ENG,Upper Hergest,HR5,52.1961,-3.0352
1679,England,ENG,Lower Hergest,HR5,52.1961,-3.0352
1680,England,ENG,Eardisland,HR6,52.2226,-2.852
1681,England,ENG,Eye,HR6,52.2667,-2.7333
1682,England,ENG,Pembridge,HR6,52.2183,-2.8926
1683,England,ENG,Luston,HR6,52.264,-2.7541
1684,England,ENG,Leinthall Earls,HR6,52.3052,-2.8189
1685,England,ENG,Eyton,HR6,52.25,-2.75
1686,England,ENG,Kingsland,HR6,52.25,-2.8
1687,England,ENG,Risbury,HR6,52.1913,-2.6591
1688,England,ENG,Yarpole,HR6,52.2797,-2.7813
1689,England,ENG,Stoke Prior,HR6,52.2,-2.7
1690,England,ENG,Kimbolton,HR6,52.25,-2.7
1691,England,ENG,Hope under Dinmore,HR6,52.1833,-2.7167
1692,England,ENG,Wigmore,HR6,52.3167,-2.85
1693,England,ENG,Stockton,HR6,52.25,-2.7
1694,England,ENG,Leominster,HR6,52.2258,-2.7449
1695,England,ENG,Docklow,HR6,52.2139,-2.6381
1696,England,ENG,Brierley,HR6,52.1888,-2.5893
1697,England,ENG,Hatfield,HR6,52.2328,-2.5942
1698,England,ENG,Shobdon,HR6,52.2512,-2.8833
1699,England,ENG,Stretford Court,HR6,52.1888,-2.5893
1700,England,ENG,Aymestrey,HR6,52.2832,-2.844
1701,England,ENG,Monkland,HR6,52.1888,-2.5893
1702,England,ENG,Marston Stannett,HR6,52.1888,-2.5893
1703,England,ENG,Lawton,HR6,52.1888,-2.5893
1704,England,ENG,Cobnash,HR6,52.1888,-2.5893
1705,England,ENG,Laysters Pole,HR6,52.1888,-2.5893
1706,England,ENG,Ivington Green,HR6,52.1888,-2.5893
1707,England,ENG,Ivington,HR6,52.1888,-2.5893
1708,England,ENG,Grendon Green,HR6,52.1888,-2.5893
1709,England,ENG,Broxwood,HR6,52.1888,-2.5893
1710,England,ENG,Steen's Bridge,HR6,52.1888,-2.5893
1711,England,ENG,Bircher,HR6,52.1888,-2.5893
1712,England,ENG,Yatton,HR6,52.2331,-2.7726
1713,England,ENG,Aulden,HR6,52.1888,-2.5893
1714,England,ENG,Whyle,HR6,52.1888,-2.5893
1715,England,ENG,Upper Hill,HR6,52.1888,-2.5893
1716,England,ENG,Stansbatch,HR6,52.1888,-2.5893
1717,England,ENG,Shirl Heath,HR6,52.1888,-2.5893
1718,England,ENG,Pudleston,HR6,52.1888,-2.5893
1719,England,ENG,Mortimer's Cross,HR6,52.1888,-2.5893
1720,England,ENG,Luntley,HR6,52.1888,-2.5893
1721,England,ENG,Lower Lye,HR6,52.1888,-2.5893
1722,England,ENG,Lower Barewood,HR6,52.1888,-2.5893
1723,England,ENG,Ledicot,HR6,52.1888,-2.5893
1724,England,ENG,Humber Court,HR6,52.1888,-2.5893
1725,England,ENG,Wharton,HR6,52.2331,-2.7726
1726,England,ENG,Barewood,HR6,52.1888,-2.5893
1727,England,ENG,Ongar Street,HR6,52.1888,-2.5893
1728,England,ENG,Cholstrey,HR6,52.1888,-2.5893
1729,England,ENG,Staunton on Arrow,HR6,52.2447,-2.9435
1730,England,ENG,Lucton,HR6,52.2734,-2.8291
1731,England,ENG,Marston,HR6,52.2331,-2.7726
1732,England,ENG,Moreton,HR6,52.2331,-2.7726
1733,England,ENG,Grafton,HR6,52.2331,-2.7726
1734,England,ENG,Ashton,HR6,52.2331,-2.7726
1735,England,ENG,Little Cowarne,HR7,52.1548,-2.5794
1736,England,ENG,Bromyard,HR7,52.1902,-2.5087
1737,England,ENG,Tedstone Delamere,HR7,52.2255,-2.4512
1738,England,ENG,Thornbury,HR7,52.2333,-2.55
1739,England,ENG,Much Cowarne,HR7,52.1218,-2.5548
1740,England,ENG,Stoke Lacy,HR7,52.1495,-2.5509
1741,England,ENG,Tedstone Wafre,HR7,52.1894,-2.5418
1742,England,ENG,Collington,HR7,52.25,-2.5167
1743,England,ENG,Pencombe,HR7,52.1713,-2.5876
1744,England,ENG,Edwyn Ralph,HR7,52.2188,-2.5264
1745,England,ENG,Bredenbury,HR7,52.2076,-2.577
1746,England,ENG,Bromyard Downs,HR7,52.1894,-2.5418
1747,England,ENG,Edvin Loach,HR7,52.1894,-2.5418
1748,England,ENG,Munderfield Row,HR7,52.1894,-2.5418
1749,England,ENG,Munderfield Stocks,HR7,52.1894,-2.5418
1750,England,ENG,Eastnor,HR8,52.0328,-2.3905
1751,England,ENG,Castle Frome,HR8,52.1091,-2.491
1752,England,ENG,Ashperton,HR8,52.0727,-2.5206
1753,England,ENG,Ledbury,HR8,52.0364,-2.4263
1754,England,ENG,Canon Frome,HR8,52.0887,-2.5102
1755,England,ENG,Bosbury,HR8,52.0884,-2.4436
1756,England,ENG,Much Marcle,HR8,51.9947,-2.4999
1757,England,ENG,Preston,HR8,52.0448,-2.4451
1758,England,ENG,Donnington,HR8,52,-2.4167
1759,England,ENG,Putley,HR8,52.0341,-2.515
1760,England,ENG,Little Marcle,HR8,52.0271,-2.4826
1761,England,ENG,Ludstock,HR8,52.0448,-2.4451
1762,England,ENG,Pow Green,HR8,52.0448,-2.4451
1763,England,ENG,Chase End Street,HR8,52.0448,-2.4451
1764,England,ENG,Stretton Grandison,HR8,52.0955,-2.5347
1765,England,ENG,Aylton,HR8,52.0383,-2.4943
1766,England,ENG,Munsley,HR8,52.0609,-2.4915
1767,England,ENG,Rushall,HR8,52.0448,-2.4451
1768,England,ENG,Coddington,HR8,52.0814,-2.4066
1769,England,ENG,Wellington Heath,HR8,52.0623,-2.4253
1770,England,ENG,Lower Egleton,HR8,52.0448,-2.4451
1771,England,ENG,Waller's Green,HR8,52.0448,-2.4451
1772,England,ENG,Staplow,HR8,52.0448,-2.4451
1773,England,ENG,Fromes Hill,HR8,52.0448,-2.4451
1774,England,ENG,Newtown,HR8,52.0448,-2.4451
1775,England,ENG,Trumpet,HR8,52.0448,-2.4451
1776,England,ENG,Bromsberrow Heath,HR8,52.0448,-2.4451
1777,England,ENG,Walford,HR9,51.8833,-2.6
1778,England,ENG,Sellack,HR9,51.95,-2.6333
1779,England,ENG,Weston under Penyard,HR9,51.9078,-2.5369
1780,England,ENG,Ross-on-Wye,HR9,51.9167,-2.5667
1781,England,ENG,Symonds Yat,HR9,51.8442,-2.6484
1782,England,ENG,Aston Ingham,HR9,51.9102,-2.4597
1783,England,ENG,Kerne Bridge,HR9,51.8692,-2.6099
1784,England,ENG,Peterstow,HR9,51.9177,-2.634
1785,England,ENG,Lea,HR9,51.9,-2.5
1786,England,ENG,Marstow,HR9,51.8667,-2.65
1787,England,ENG,Whitchurch,HR9,51.85,-2.65
1788,England,ENG,Goodrich,HR9,51.871,-2.619
1789,England,ENG,Upton Bishop,HR9,51.9402,-2.5056
1790,England,ENG,Linton,HR9,51.9333,-2.5
1791,England,ENG,Foy,HR9,51.9522,-2.5878
1792,England,ENG,Crow Hill,HR9,51.9333,-2.5167
1793,England,ENG,Llangarron,HR9,51.8828,-2.6897
1794,England,ENG,Coughton,HR9,51.9081,-2.5826
1795,England,ENG,Ganarew,HR9,51.8453,-2.6697
1796,England,ENG,Hope Mansell,HR9,51.8771,-2.5336
1797,England,ENG,Rudhall,HR9,51.9222,-2.535
1798,England,ENG,Baysham,HR9,51.9222,-2.535
1799,England,ENG,Old Gore,HR9,51.9222,-2.535
1800,England,ENG,Bromsash,HR9,51.9222,-2.535
1801,England,ENG,Pencraig,HR9,51.9222,-2.535
1802,England,ENG,Hom Green,HR9,51.9222,-2.535
1803,England,ENG,Hole-in-the-Wall,HR9,51.9222,-2.535
1804,England,ENG,Glewstone,HR9,51.9222,-2.535
1805,England,ENG,Aston Crews,HR9,51.9222,-2.535
1806,England,ENG,Pontshill,HR9,51.9222,-2.535
1807,England,ENG,Llangrove,HR9,51.9222,-2.535
1808,England,ENG,Gorsley Common,HR9,51.9222,-2.535
1809,England,ENG,Bridstow,HR9,51.9179,-2.6103
1810,England,ENG,Brampton Abbotts,HR9,51.9361,-2.5719
1811,England,ENG,Kinsham,LD8,52.2833,-2.9333
1812,England,ENG,Combe,LD8,52.266,-2.9627
1813,England,ENG,Knill,LD8,52.2404,-3.0399
1814,England,ENG,Stapleton,LD8,52.2788,-2.9972
1815,England,ENG,Leintwardine,SY7,52.362,-2.8763
1816,England,ENG,Brampton Bryan,SY7,52.3415,-2.9292
1817,England,ENG,Adforton,SY7,52.3342,-2.8794
1818,England,ENG,Lingen,SY7,52.3,-2.9333
1819,England,ENG,Orleton,SY8,52.3,-2.75
1820,England,ENG,Leinthall Starkes,SY8,52.3228,-2.8285
1821,England,ENG,Elton,SY8,52.3333,-2.8
1822,England,ENG,Burrington,SY8,52.35,-2.8167
1823,England,ENG,Little Hereford,SY8,52.3148,-2.6555
1824,England,ENG,Brimfield,SY8,52.3067,-2.6962
1825,England,ENG,Mathon,WR13,52.1099,-2.3908
1826,England,ENG,Cradley,WR13,52.1266,-2.3948
1827,England,ENG,Whitbourne,WR6,52.2107,-2.4058
1828,England,ENG,Stanford Bishop,WR6,52.1654,-2.455
1829,England,ENG,Upper Sapey,WR6,52.2678,-2.4626
1830,England,ENG,Evesbatch,WR6,52.1333,-2.45
1831,England,ENG,Bishop's Frome,WR6,52.1355,-2.4895
1832,England,ENG,Acton Beauchamp,WR6,52.1481,-2.4537
1833,England,ENG,Glascote,B77,52.6251,-1.6746
1834,England,ENG,Wilnecote,B77,52.6065,-1.6581
1835,England,ENG,Two Gates,B77,52.6158,-1.6664
1836,England,ENG,Amington,B77,52.6158,-1.6664
1837,England,ENG,Dosthill,B77,52.6158,-1.6664
1838,England,ENG,Kettlebrook,B77,52.6158,-1.6664
1839,England,ENG,Hopwas,B78,52.642,-1.7415
1840,England,ENG,Drayton Bassett,B78,52.6,-1.7167
1841,England,ENG,Fazeley,B78,52.6144,-1.6985
1842,England,ENG,Bonehill,B78,52.6051,-1.6748
1843,England,ENG,Hints,B78,52.622,-1.7646
1844,England,ENG,Clifton Campville,B79,52.6946,-1.6284
1845,England,ENG,Edingale,B79,52.7068,-1.6891
1846,England,ENG,Wigginton,B79,52.6573,-1.6925
1847,England,ENG,Thorpe Constantine,B79,52.6785,-1.618
1848,England,ENG,Elford,B79,52.691,-1.721
1849,England,ENG,Haunton,B79,52.6508,-1.6821
1850,England,ENG,Tamworth,B79,52.634,-1.6959
1851,England,ENG,No Man's Heath,B79,52.6508,-1.6821
1852,England,ENG,Harlaston,B79,52.6928,-1.6828
1853,England,ENG,Warton,B79,52.6508,-1.6821
1854,England,ENG,Coton,B79,52.6508,-1.6821
1855,England,ENG,Comberford,B79,52.6508,-1.6821
1856,England,ENG,Alvecote,B79,52.6508,-1.6821
1857,England,ENG,Balterley,CW2,53.0495,-2.3673
1858,England,ENG,Wrinehill,CW3,53.0207,-2.3694
1859,England,ENG,Madeley Heath,CW3,53,-2.3167
1860,England,ENG,Madeley,CW3,53,-2.3333
1861,England,ENG,Betley,CW3,53.0344,-2.3686
1862,England,ENG,Onneley,CW3,52.9835,-2.3705
1863,England,ENG,Yoxall,DE13,52.7666,-1.7907
1864,England,ENG,Tatenhill,DE13,52.7916,-1.6995
1865,England,ENG,Newborough,DE13,52.8167,-1.8
1866,England,ENG,Barton-under-Needwood,DE13,52.7627,-1.724
1867,England,ENG,Horninglow,DE13,52.8224,-1.6422
1868,England,ENG,Rolleston,DE13,52.8452,-1.646
1869,England,ENG,Tutbury,DE13,52.856,-1.6865
1870,England,ENG,Orgreave,DE13,52.8076,-1.6919
1871,England,ENG,Hanbury,DE13,52.847,-1.7447
1872,England,ENG,Anslow,DE13,52.8255,-1.6868
1873,England,ENG,Alrewas,DE13,52.7328,-1.7497
1874,England,ENG,Dunstall,DE13,52.7667,-1.7333
1875,England,ENG,Morrey,DE13,52.8076,-1.6919
1876,England,ENG,Rangemore,DE13,52.8076,-1.6919
1877,England,ENG,Hanbury Woodend,DE13,52.8076,-1.6919
1878,England,ENG,Anslow Gate,DE13,52.8076,-1.6919
1879,England,ENG,Hadley End,DE13,52.8076,-1.6919
1880,England,ENG,Woodhouses,DE13,52.8076,-1.6919
1881,England,ENG,Stretton,DE13,52.8325,-1.6279
1882,England,ENG,Hoar Cross,DE13,52.8071,-1.8093
1883,England,ENG,King's Bromley,DE13,52.7481,-1.8198
1884,England,ENG,Burton upon Trent,DE14,52.8073,-1.6426
1885,England,ENG,Winshill,DE15,52.8071,-1.6033
1886,England,ENG,Stanton,DE15,52.7986,-1.6085
1887,England,ENG,Wootton,DE6,53,-1.85
1888,England,ENG,Alstonefield,DE6,53.0983,-1.8066
1889,England,ENG,Wetton,DE6,53.0954,-1.8386
1890,England,ENG,Draycott in the Clay,DE6,52.8571,-1.7745
1891,England,ENG,Sudbury,DE6,52.8667,-1.75
1892,England,ENG,Blore,DE6,53.0333,-1.8167
1893,England,ENG,Ellastone,DE6,52.9851,-1.8266
1894,England,ENG,Ilam,DE6,53.0548,-1.7996
1895,England,ENG,Mayfield,DE6,53,-1.7667
1896,England,ENG,Stanton,DE6,53.015,-1.8179
1897,England,ENG,Himley,DY3,52.519,-2.1818
1898,England,ENG,Swindon,DY3,52.5154,-2.2071
1899,England,ENG,Halfpenny Green,DY7,52.5245,-2.2605
1900,England,ENG,Enville,DY7,52.4781,-2.2574
1901,England,ENG,Bobbington,DY7,52.5122,-2.2828
1902,England,ENG,Whittington,DY7,52.4662,-2.2309
1903,England,ENG,Potter's Cross,DY7,52.4662,-2.2309
1904,England,ENG,Gallowstree Elm,DY7,52.4662,-2.2309
1905,England,ENG,Stourton,DY7,52.4662,-2.2309
1906,England,ENG,Kinver,DY7,52.4558,-2.2207
1907,England,ENG,Rushton Spencer,SK11,53.1598,-2.0941
1908,England,ENG,Heaton,SK11,53.1642,-2.0698
1909,England,ENG,Warslow,SK17,53.1258,-1.8728
1910,England,ENG,Hulme End,SK17,53.1305,-1.8426
1911,England,ENG,Upper Elkstone,SK17,53.1286,-1.9179
1912,England,ENG,Flash,SK17,53.2016,-1.9637
1913,England,ENG,Longnor,SK17,53.1833,-1.8667
1914,England,ENG,Newtown,SK17,53.1667,-1.9167
1915,England,ENG,Sheen,SK17,53.15,-1.8333
1916,England,ENG,Fawfieldhead,SK17,53.1547,-1.8858
1917,England,ENG,Hollinsclough,SK17,53.1956,-1.9038
1918,England,ENG,Hanley,ST1,53.0249,-2.1739
1919,England,ENG,Whiston,ST10,53.0217,-1.9461
1920,England,ENG,Froghall,ST10,53.0231,-1.9635
1921,England,ENG,Church Leigh,ST10,52.9217,-1.9667
1922,England,ENG,Bradley in the Moors,ST10,52.9687,-1.912
1923,England,ENG,Calton,ST10,53.0333,-1.85
1924,England,ENG,Cheadle,ST10,52.9833,-1.9833
1925,England,ENG,Alton,ST10,52.9667,-1.8833
1926,England,ENG,Draycott in the Moors,ST10,52.9577,-2.0266
1927,England,ENG,Oakamoor,ST10,53.0014,-1.92
1928,England,ENG,Cauldon,ST10,53.0411,-1.8874
1929,England,ENG,Kingsley,ST10,53.0167,-1.9833
1930,England,ENG,Waterhouses,ST10,53.0333,-1.8667
1931,England,ENG,Ipstones,ST10,53.0468,-1.9702
1932,England,ENG,Checkley,ST10,52.9333,-1.95
1933,England,ENG,Waterfall,ST10,53.05,-1.8833
1934,England,ENG,Dilhorne,ST10,52.99,-2.0405
1935,England,ENG,Middleton Green,ST10,52.9811,-1.9607
1936,England,ENG,Greatgate,ST10,52.9811,-1.9607
1937,England,ENG,Upper Tean,ST10,52.9811,-1.9607
1938,England,ENG,Farley,ST10,52.9993,-1.89
1939,England,ENG,Foxt,ST10,52.9811,-1.9607
1940,England,ENG,Near Cotton,ST10,52.9811,-1.9607
1941,England,ENG,Withington,ST10,52.9885,-1.9648
1942,England,ENG,Ramshorn,ST10,53.0062,-1.8742
1943,England,ENG,Lower Tean,ST10,52.9811,-1.9607
1944,England,ENG,Hollington,ST10,52.9885,-1.9648
1945,England,ENG,Caverswall,ST11,52.9837,-2.0744
1946,England,ENG,Blythe Bridge,ST11,52.9667,-2.0667
1947,England,ENG,Cresswell,ST11,52.95,-2.0333
1948,England,ENG,Forsbrook,ST11,52.9668,-2.0581
1949,England,ENG,Blythe Marsh,ST11,52.9668,-2.0581
1950,England,ENG,Barlaston,ST12,52.942,-2.1705
1951,England,ENG,Tittensor,ST12,52.942,-2.1705
1952,England,ENG,Onecote,ST13,53.0932,-1.9273
1953,England,ENG,Grindon,ST13,53.087,-1.8707
1954,England,ENG,Horton,ST13,53.1167,-2.0833
1955,England,ENG,Butterton,ST13,53.1063,-1.8895
1956,England,ENG,Leek,ST13,53.1043,-2.0221
1957,England,ENG,Rudyard,ST13,53.1174,-2.0718
1958,England,ENG,Upper Hulme,ST13,53.1459,-1.9832
1959,England,ENG,Meerbrook,ST13,53.144,-2.0162
1960,England,ENG,Cheddleton,ST13,53.0691,-2.0423
1961,England,ENG,Winkhill,ST13,53.1093,-1.9896
1962,England,ENG,Bradnop,ST13,53.1093,-1.9896
1963,England,ENG,Basford Green,ST13,53.1093,-1.9896
1964,England,ENG,Thorncliff,ST13,53.1093,-1.9896
1965,England,ENG,Ball Haye Green,ST13,53.1093,-1.9896
1966,England,ENG,Bramshall,ST14,52.8952,-1.9105
1967,England,ENG,Grindley,ST14,52.86,-1.9468
1968,England,ENG,Croxden,ST14,52.9545,-1.9015
1969,England,ENG,Denstone,ST14,52.9633,-1.8524
1970,England,ENG,Rocester,ST14,52.9513,-1.8399
1971,England,ENG,Field,ST14,52.9042,-1.8694
1972,England,ENG,Marchington,ST14,52.8755,-1.8024
1973,England,ENG,Uttoxeter,ST14,52.8984,-1.8649
1974,England,ENG,Kingstone,ST14,52.867,-1.9218
1975,England,ENG,Marchington Woodlands,ST14,52.8546,-1.8261
1976,England,ENG,Blount's Green,ST14,52.9042,-1.8694
1977,England,ENG,Fole,ST14,52.9042,-1.8694
1978,England,ENG,Stramshall,ST14,52.9042,-1.8694
1979,England,ENG,Beamhurst,ST14,52.9042,-1.8694
1980,England,ENG,Gratwich,ST14,52.9042,-1.8694
1981,England,ENG,Norton Bridge,ST15,52.867,-2.1921
1982,England,ENG,Stone,ST15,52.9059,-2.1541
1983,England,ENG,Moddershall,ST15,52.9282,-2.1108
1984,England,ENG,Hilderstone,ST15,52.9104,-2.0795
1985,England,ENG,Walton,ST15,52.9003,-2.1493
1986,England,ENG,Swynnerton,ST15,52.9176,-2.2219
1987,England,ENG,Oulton,ST15,52.899,-2.0767
1988,England,ENG,Cotwalton,ST15,52.899,-2.0767
1989,England,ENG,Yarnfield,ST15,52.899,-2.0767
1990,England,ENG,Fulford,ST15,52.9003,-2.1493
1991,England,ENG,Rough Close,ST15,52.9003,-2.1493
1992,England,ENG,Cotes,ST15,52.899,-2.0767
1993,England,ENG,Aston-by-Stone,ST15,52.899,-2.0767
1994,England,ENG,Stafford,ST16,52.8052,-2.1164
1995,England,ENG,Castle Bank,ST16,52.8052,-2.1164
1996,England,ENG,Bednall,ST17,52.7582,-2.0679
1997,England,ENG,Milford,ST17,52.7833,-2.05
1998,England,ENG,Brocton,ST17,52.7707,-2.0589
1999,England,ENG,Weeping Cross,ST17,52.7707,-2.0589
2000,England,ENG,Walton-on-the-Hill,ST17,52.7707,-2.0589
2001,England,ENG,Ranton,ST18,52.8139,-2.215
2002,England,ENG,Ingestre,ST18,52.8181,-2.0267
2003,England,ENG,Dunston,ST18,52.75,-2.1
2004,England,ENG,Seighford,ST18,52.822,-2.1773
2005,England,ENG,Great Bridgeford,ST18,52.8406,-2.1732
2006,England,ENG,Colwich,ST18,52.7876,-1.9821
2007,England,ENG,Hopton,ST18,52.8333,-2.1
2008,England,ENG,Milwich,ST18,52.8881,-2.0434
2009,England,ENG,Coppenhall,ST18,52.7667,-2.1333
2010,England,ENG,Little Bridgeford,ST18,52.8448,-2.1809
2011,England,ENG,Acton Trussell,ST18,52.7608,-2.0967
2012,England,ENG,Salt,ST18,52.8479,-2.0679
2013,England,ENG,Stowe,ST18,52.8333,-2
2014,England,ENG,Whitgreave,ST18,52.8511,-2.1498
2015,England,ENG,Allimore Green,ST18,52.785,-2.0683
2016,England,ENG,Tixall,ST18,52.802,-2.0356
2017,England,ENG,Gayton,ST18,52.8545,-2.0268
2018,England,ENG,Haughton,ST18,52.7833,-2.2
2019,England,ENG,Weston,ST18,52.8333,-2.0333
2020,England,ENG,Fradswell,ST18,52.8792,-2.0065
2021,England,ENG,Derrington,ST18,52.8009,-2.1627
2022,England,ENG,Drointon,ST18,52.785,-2.0683
2023,England,ENG,Sandon,ST18,52.8667,-2.0833
2024,England,ENG,Coton Clanford,ST18,52.785,-2.0683
2025,England,ENG,Little Haywood,ST18,52.785,-2.0683
2026,England,ENG,Yarlet,ST18,52.785,-2.0683
2027,England,ENG,Great Haywood,ST18,52.785,-2.0683
2028,England,ENG,Marston,ST18,52.8517,-2.12
2029,England,ENG,Hixon,ST18,52.83,-1.9993
2030,England,ENG,Hyde Lea,ST18,52.7791,-2.1326
2031,England,ENG,Shut Heath,ST18,52.785,-2.0683
2032,England,ENG,Burston,ST18,52.785,-2.0683
2033,England,ENG,Garshall Green,ST18,52.785,-2.0683
2034,England,ENG,Bradley,ST18,52.7626,-2.1777
2035,England,ENG,Long Compton,ST18,52.815,-2.0817
2036,England,ENG,Coton,ST18,52.815,-2.0817
2037,England,ENG,Levedale,ST18,52.785,-2.0683
2038,England,ENG,Mitton,ST19,52.7333,-2.1667
2039,England,ENG,Wheaton Aston,ST19,52.7115,-2.2206
2040,England,ENG,Brewood,ST19,52.6771,-2.1741
2041,England,ENG,Kiddemore Green,ST19,52.6774,-2.2098
2042,England,ENG,Penkridge,ST19,52.7256,-2.1156
2043,England,ENG,Bishop's Wood,ST19,52.7381,-2.1487
2044,England,ENG,Stretton,ST19,52.7,-2.1667
2045,England,ENG,Lapley,ST19,52.7141,-2.1877
2046,England,ENG,Horsebrook,ST19,52.7381,-2.1487
2047,England,ENG,Gailey,ST19,52.6932,-2.1314
2048,England,ENG,Whiston,ST19,52.7083,-2.1485
2049,England,ENG,Bickford,ST19,52.7267,-2.1685
2050,England,ENG,Bucknall,ST2,53.0167,-2.1333
2051,England,ENG,Milton,ST2,53.05,-2.15
2052,England,ENG,Abbey Hulton,ST2,53.0333,-2.1417
2053,England,ENG,Baddeley Green,ST2,53.0333,-2.1417
2054,England,ENG,Church Eaton,ST20,52.7552,-2.2287
2055,England,ENG,High Offley,ST20,52.8328,-2.3225
2056,England,ENG,Norbury,ST20,52.8,-2.3167
2057,England,ENG,Adbaston,ST20,52.8463,-2.3525
2058,England,ENG,Gnosall,ST20,52.7856,-2.2548
2059,England,ENG,Marston,ST20,52.7978,-2.278
2060,England,ENG,High Onn,ST20,52.7978,-2.278
2061,England,ENG,Gnosall Heath,ST20,52.7978,-2.278
2062,England,ENG,Lawnhead,ST20,52.7978,-2.278
2063,England,ENG,Knighton,ST20,52.7978,-2.278
2064,England,ENG,Outlands,ST20,52.7978,-2.278
2065,England,ENG,Shebdon,ST20,52.7978,-2.278
2066,England,ENG,Woodseaves,ST20,52.7978,-2.278
2067,England,ENG,Slindon,ST21,52.8833,-2.2667
2068,England,ENG,Croxton,ST21,52.8833,-2.3167
2069,England,ENG,Eccleshall,ST21,52.8579,-2.2497
2070,England,ENG,Standon,ST21,52.9167,-2.2833
2071,England,ENG,Pershall,ST21,52.8663,-2.2733
2072,England,ENG,Ellenhall,ST21,52.8335,-2.2355
2073,England,ENG,Chebsey,ST21,52.8552,-2.2096
2074,England,ENG,Sugnall,ST21,52.8756,-2.3011
2075,England,ENG,Wootton,ST21,52.8724,-2.2698
2076,England,ENG,Fairoak,ST21,52.8858,-2.2207
2077,England,ENG,Millmeece,ST21,52.8858,-2.2207
2078,England,ENG,Wetwood,ST21,52.8858,-2.2207
2079,England,ENG,Bishop's Offley,ST21,52.8858,-2.2207
2080,England,ENG,Croxtonbank,ST21,52.8858,-2.2207
2081,England,ENG,Sturbridge,ST21,52.8858,-2.2207
2082,England,ENG,Podmore,ST21,52.8858,-2.2207
2083,England,ENG,Chatcull,ST21,52.8858,-2.2207
2084,England,ENG,Cranberry,ST21,52.8858,-2.2207
2085,England,ENG,Longton,ST3,52.9833,-2.1333
2086,England,ENG,Meirheath,ST3,52.9833,-2.1333
2087,England,ENG,Meir,ST3,52.9833,-2.1333
2088,England,ENG,Weston Coyney,ST3,52.9833,-2.1333
2089,England,ENG,Lightwood,ST3,52.9833,-2.1333
2090,England,ENG,Cookshill,ST3,52.9833,-2.1333
2091,England,ENG,Stoke-on-Trent,ST4,53.0042,-2.1854
2092,England,ENG,Fenton,ST4,53,-2.1667
2093,England,ENG,Trentham,ST4,52.9684,-2.1885
2094,England,ENG,Hanchurch,ST4,52.9909,-2.1802
2095,England,ENG,Hanford,ST4,52.9909,-2.1802
2096,England,ENG,Knowl Wall,ST4,52.9909,-2.1802
2097,England,ENG,Beech,ST4,52.9909,-2.1802
2098,England,ENG,Maer,ST5,52.95,-2.3167
2099,England,ENG,Whitmore,ST5,52.9667,-2.2833
2100,England,ENG,Keele,ST5,53.0038,-2.2874
2101,England,ENG,Blackbrook,ST5,53.0155,-2.2393
2102,England,ENG,Silverdale,ST5,53.0167,-2.2833
2103,England,ENG,Chapel Chorlton,ST5,53.0155,-2.2393
2104,England,ENG,Clayton,ST5,53.0155,-2.2393
2105,England,ENG,Newcastle-under-Lyme,ST5,53.0155,-2.2393
2106,England,ENG,Leycett,ST5,53.0155,-2.2393
2107,England,ENG,Hill Chorlton,ST5,53.0155,-2.2393
2108,England,ENG,Red Street,ST5,53.0155,-2.2393
2109,England,ENG,Stableford,ST5,53.0155,-2.2393
2110,England,ENG,The Rowe,ST5,53.0155,-2.2393
2111,England,ENG,Baldwin's Gate,ST5,53.0155,-2.2393
2112,England,ENG,Chesterton,ST5,53.0155,-2.2393
2113,England,ENG,Newcastle-under-Lyme,ST55,53.0145,-2.24
2114,England,ENG,Silverdale,ST55,53.0145,-2.24
2115,England,ENG,Burslem,ST6,53.0448,-2.197
2116,England,ENG,Brown Edge,ST6,53.0792,-2.1401
2117,England,ENG,Smallthorne,ST6,53.0577,-2.1898
2118,England,ENG,Tunstall,ST6,53.0577,-2.1898
2119,England,ENG,Goldenhill,ST6,53.0577,-2.1898
2120,England,ENG,Norton in the Moors,ST6,53.0577,-2.1898
